{
"type": "FeatureCollection",
"name": "representative_zip_codes_50_miles",
"crs": { "type": "name", "properties": { "name": "urn:ogc:def:crs:OGC:1.3:CRS84" } },
"features": [
{ "type": "Feature", "properties": { "zipcode": "40336", "name": "Irvine", "state_name": "Kentucky", "state": "KY", "pop": 13047, "cluster": 0, "longitude": -83.982946161331881, "latitude": 37.683418449463545 }, "geometry": { "type": "Point", "coordinates": [ -83.982946161331881, 37.683418449463545 ] } },
{ "type": "Feature", "properties": { "zipcode": "85383", "name": "Peoria", "state_name": "Arizona", "state": "AZ", "pop": 57653, "cluster": 1, "longitude": -112.31783055627415, "latitude": 33.805542837189307 }, "geometry": { "type": "Point", "coordinates": [ -112.317830556274146, 33.805542837189307 ] } },
{ "type": "Feature", "properties": { "zipcode": "93280", "name": "Wasco", "state_name": "California", "state": "CA", "pop": 28760, "cluster": 2, "longitude": -119.44292728219835, "latitude": 35.655683519065278 }, "geometry": { "type": "Point", "coordinates": [ -119.442927282198355, 35.655683519065278 ] } },
{ "type": "Feature", "properties": { "zipcode": "86045", "name": "Tuba City", "state_name": "Arizona", "state": "AZ", "pop": 11706, "cluster": 3, "longitude": -111.07458736762617, "latitude": 36.014551905707776 }, "geometry": { "type": "Point", "coordinates": [ -111.074587367626165, 36.014551905707776 ] } },
{ "type": "Feature", "properties": { "zipcode": "85344", "name": "Parker", "state_name": "Arizona", "state": "AZ", "pop": 10662, "cluster": 4, "longitude": -114.09367559887286, "latitude": 33.69677545162105 }, "geometry": { "type": "Point", "coordinates": [ -114.093675598872863, 33.69677545162105 ] } },
{ "type": "Feature", "properties": { "zipcode": "86047", "name": "Winslow", "state_name": "Arizona", "state": "AZ", "pop": 17751, "cluster": 5, "longitude": -110.43260565171845, "latitude": 35.195684385251973 }, "geometry": { "type": "Point", "coordinates": [ -110.432605651718447, 35.195684385251973 ] } },
{ "type": "Feature", "properties": { "zipcode": "85546", "name": "Safford", "state_name": "Arizona", "state": "AZ", "pop": 20586, "cluster": 6, "longitude": -109.53774076081643, "latitude": 32.698674333030617 }, "geometry": { "type": "Point", "coordinates": [ -109.537740760816433, 32.698674333030617 ] } },
{ "type": "Feature", "properties": { "zipcode": "86505", "name": "Ganado", "state_name": "Arizona", "state": "AZ", "pop": 17186, "cluster": 7, "longitude": -109.48362872736375, "latitude": 35.621360701818631 }, "geometry": { "type": "Point", "coordinates": [ -109.483628727363751, 35.621360701818631 ] } },
{ "type": "Feature", "properties": { "zipcode": "86040", "name": "Page", "state_name": "Arizona", "state": "AZ", "pop": 10749, "cluster": 8, "longitude": -111.46218434438205, "latitude": 36.756558121141083 }, "geometry": { "type": "Point", "coordinates": [ -111.462184344382052, 36.756558121141083 ] } },
{ "type": "Feature", "properties": { "zipcode": "95501", "name": "Eureka", "state_name": "California", "state": "CA", "pop": 25066, "cluster": 9, "longitude": -124.15169655229744, "latitude": 40.79306145267973 }, "geometry": { "type": "Point", "coordinates": [ -124.151696552297437, 40.79306145267973 ] } },
{ "type": "Feature", "properties": { "zipcode": "96130", "name": "Susanville", "state_name": "California", "state": "CA", "pop": 22597, "cluster": 10, "longitude": -120.49671497964037, "latitude": 40.568331505911374 }, "geometry": { "type": "Point", "coordinates": [ -120.496714979640373, 40.568331505911374 ] } },
{ "type": "Feature", "properties": { "zipcode": "98626", "name": "Kelso", "state_name": "Washington", "state": "WA", "pop": 25554, "cluster": 11, "longitude": -122.79455933829429, "latitude": 46.145652840497362 }, "geometry": { "type": "Point", "coordinates": [ -122.794559338294292, 46.145652840497362 ] } },
{ "type": "Feature", "properties": { "zipcode": "93514", "name": "Bishop", "state_name": "California", "state": "CA", "pop": 13987, "cluster": 12, "longitude": -118.36718252076817, "latitude": 37.466942189760729 }, "geometry": { "type": "Point", "coordinates": [ -118.367182520768168, 37.466942189760729 ] } },
{ "type": "Feature", "properties": { "zipcode": "80465", "name": "Morrison", "state_name": "Colorado", "state": "CO", "pop": 16773, "cluster": 13, "longitude": -105.20974738522813, "latitude": 39.610635301680837 }, "geometry": { "type": "Point", "coordinates": [ -105.209747385228127, 39.610635301680837 ] } },
{ "type": "Feature", "properties": { "zipcode": "87410", "name": "Aztec", "state_name": "New Mexico", "state": "NM", "pop": 18463, "cluster": 14, "longitude": -107.93256715978477, "latitude": 36.874544343798647 }, "geometry": { "type": "Point", "coordinates": [ -107.932567159784767, 36.874544343798647 ] } },
{ "type": "Feature", "properties": { "zipcode": "81625", "name": "Craig", "state_name": "Colorado", "state": "CO", "pop": 13057, "cluster": 15, "longitude": -107.75204893200934, "latitude": 40.649020022228186 }, "geometry": { "type": "Point", "coordinates": [ -107.752048932009345, 40.649020022228186 ] } },
{ "type": "Feature", "properties": { "zipcode": "81050", "name": "La Junta", "state_name": "Colorado", "state": "CO", "pop": 10579, "cluster": 16, "longitude": -103.51879245448885, "latitude": 37.941856713495255 }, "geometry": { "type": "Point", "coordinates": [ -103.518792454488846, 37.941856713495255 ] } },
{ "type": "Feature", "properties": { "zipcode": "81082", "name": "Trinidad", "state_name": "Colorado", "state": "CO", "pop": 12346, "cluster": 17, "longitude": -104.49777430487006, "latitude": 37.199510291256516 }, "geometry": { "type": "Point", "coordinates": [ -104.497774304870063, 37.199510291256516 ] } },
{ "type": "Feature", "properties": { "zipcode": "81101", "name": "Alamosa", "state_name": "Colorado", "state": "CO", "pop": 16110, "cluster": 18, "longitude": -105.85171014747144, "latitude": 37.46679161061158 }, "geometry": { "type": "Point", "coordinates": [ -105.851710147471437, 37.46679161061158 ] } },
{ "type": "Feature", "properties": { "zipcode": "33040", "name": "Key West", "state_name": "Florida", "state": "FL", "pop": 34952, "cluster": 19, "longitude": -81.760851347939521, "latitude": 24.587900913148903 }, "geometry": { "type": "Point", "coordinates": [ -81.760851347939521, 24.587900913148903 ] } },
{ "type": "Feature", "properties": { "zipcode": "99403", "name": "Clarkston", "state_name": "Washington", "state": "WA", "pop": 19652, "cluster": 20, "longitude": -117.24501368335953, "latitude": 46.385869677212959 }, "geometry": { "type": "Point", "coordinates": [ -117.245013683359531, 46.385869677212959 ] } },
{ "type": "Feature", "properties": { "zipcode": "83713", "name": "Boise", "state_name": "Idaho", "state": "ID", "pop": 30809, "cluster": 21, "longitude": -116.3341314984054, "latitude": 43.638978986516733 }, "geometry": { "type": "Point", "coordinates": [ -116.334131498405398, 43.638978986516733 ] } },
{ "type": "Feature", "properties": { "zipcode": "83202", "name": "Pocatello", "state_name": "Idaho", "state": "ID", "pop": 20723, "cluster": 22, "longitude": -112.50746411590816, "latitude": 42.974181139339336 }, "geometry": { "type": "Point", "coordinates": [ -112.507464115908164, 42.974181139339336 ] } },
{ "type": "Feature", "properties": { "zipcode": "83333", "name": "Hailey", "state_name": "Idaho", "state": "ID", "pop": 10523, "cluster": 23, "longitude": -114.29469236976817, "latitude": 43.560074031245122 }, "geometry": { "type": "Point", "coordinates": [ -114.294692369768171, 43.560074031245122 ] } },
{ "type": "Feature", "properties": { "zipcode": "99217", "name": "Spokane", "state_name": "Washington", "state": "WA", "pop": 19037, "cluster": 24, "longitude": -117.25307014692075, "latitude": 47.741168776612923 }, "geometry": { "type": "Point", "coordinates": [ -117.253070146920749, 47.741168776612923 ] } },
{ "type": "Feature", "properties": { "zipcode": "68028", "name": "Gretna", "state_name": "Nebraska", "state": "NE", "pop": 14765, "cluster": 25, "longitude": -96.254880769869018, "latitude": 41.10951939474208 }, "geometry": { "type": "Point", "coordinates": [ -96.254880769869018, 41.10951939474208 ] } },
{ "type": "Feature", "properties": { "zipcode": "57108", "name": "Sioux Falls", "state_name": "South Dakota", "state": "SD", "pop": 24036, "cluster": 26, "longitude": -96.704835648742829, "latitude": 43.477282637668111 }, "geometry": { "type": "Point", "coordinates": [ -96.704835648742829, 43.477282637668111 ] } },
{ "type": "Feature", "properties": { "zipcode": "73942", "name": "Guymon", "state_name": "Oklahoma", "state": "OK", "pop": 13721, "cluster": 27, "longitude": -101.4575419451634, "latitude": 36.749151958633853 }, "geometry": { "type": "Point", "coordinates": [ -101.457541945163399, 36.749151958633853 ] } },
{ "type": "Feature", "properties": { "zipcode": "67801", "name": "Dodge City", "state_name": "Kansas", "state": "KS", "pop": 31795, "cluster": 28, "longitude": -100.05935333741149, "latitude": 37.714944636535833 }, "geometry": { "type": "Point", "coordinates": [ -100.059353337411494, 37.714944636535833 ] } },
{ "type": "Feature", "properties": { "zipcode": "67530", "name": "Great Bend", "state_name": "Kansas", "state": "KS", "pop": 19026, "cluster": 29, "longitude": -98.807278287057315, "latitude": 38.365141548405482 }, "geometry": { "type": "Point", "coordinates": [ -98.807278287057315, 38.365141548405482 ] } },
{ "type": "Feature", "properties": { "zipcode": "04730", "name": "Houlton", "state_name": "Maine", "state": "ME", "pop": 10103, "cluster": 30, "longitude": -67.905580517424454, "latitude": 46.139473380711117 }, "geometry": { "type": "Point", "coordinates": [ -67.905580517424454, 46.139473380711117 ] } },
{ "type": "Feature", "properties": { "zipcode": "49783", "name": "Sault Sainte Marie", "state_name": "Michigan", "state": "MI", "pop": 18374, "cluster": 31, "longitude": -84.294266502633448, "latitude": 46.406702847772955 }, "geometry": { "type": "Point", "coordinates": [ -84.294266502633448, 46.406702847772955 ] } },
{ "type": "Feature", "properties": { "zipcode": "49707", "name": "Alpena", "state_name": "Michigan", "state": "MI", "pop": 22292, "cluster": 32, "longitude": -83.502423183479166, "latitude": 45.086957010646437 }, "geometry": { "type": "Point", "coordinates": [ -83.502423183479166, 45.086957010646437 ] } },
{ "type": "Feature", "properties": { "zipcode": "56721", "name": "East Grand Forks", "state_name": "Minnesota", "state": "MN", "pop": 10489, "cluster": 33, "longitude": -96.941598418108839, "latitude": 47.96810266133653 }, "geometry": { "type": "Point", "coordinates": [ -96.941598418108839, 47.96810266133653 ] } },
{ "type": "Feature", "properties": { "zipcode": "55811", "name": "Duluth", "state_name": "Minnesota", "state": "MN", "pop": 27683, "cluster": 34, "longitude": -92.223347197056469, "latitude": 46.840495148483043 }, "geometry": { "type": "Point", "coordinates": [ -92.223347197056469, 46.840495148483043 ] } },
{ "type": "Feature", "properties": { "zipcode": "56258", "name": "Marshall", "state_name": "Minnesota", "state": "MN", "pop": 16132, "cluster": 35, "longitude": -95.76163007532935, "latitude": 44.443069461808463 }, "geometry": { "type": "Point", "coordinates": [ -95.76163007532935, 44.443069461808463 ] } },
{ "type": "Feature", "properties": { "zipcode": "63501", "name": "Kirksville", "state_name": "Missouri", "state": "MO", "pop": 21642, "cluster": 36, "longitude": -92.602471786714347, "latitude": 40.15610244337033 }, "geometry": { "type": "Point", "coordinates": [ -92.602471786714347, 40.15610244337033 ] } },
{ "type": "Feature", "properties": { "zipcode": "59715", "name": "Bozeman", "state_name": "Montana", "state": "MT", "pop": 36686, "cluster": 37, "longitude": -110.90602867612417, "latitude": 45.732788650209422 }, "geometry": { "type": "Point", "coordinates": [ -110.906028676124166, 45.732788650209422 ] } },
{ "type": "Feature", "properties": { "zipcode": "59808", "name": "Missoula", "state_name": "Montana", "state": "MT", "pop": 20780, "cluster": 38, "longitude": -114.07158174228563, "latitude": 47.000512491001871 }, "geometry": { "type": "Point", "coordinates": [ -114.07158174228563, 47.000512491001871 ] } },
{ "type": "Feature", "properties": { "zipcode": "59501", "name": "Havre", "state_name": "Montana", "state": "MT", "pop": 13001, "cluster": 39, "longitude": -109.78655549732248, "latitude": 48.682700464693411 }, "geometry": { "type": "Point", "coordinates": [ -109.786555497322482, 48.682700464693411 ] } },
{ "type": "Feature", "properties": { "zipcode": "59602", "name": "Helena", "state_name": "Montana", "state": "MT", "pop": 27846, "cluster": 40, "longitude": -111.93187015674226, "latitude": 46.729470344598475 }, "geometry": { "type": "Point", "coordinates": [ -111.931870156742264, 46.729470344598475 ] } },
{ "type": "Feature", "properties": { "zipcode": "59102", "name": "Billings", "state_name": "Montana", "state": "MT", "pop": 49972, "cluster": 41, "longitude": -108.57975469116542, "latitude": 45.775637492699865 }, "geometry": { "type": "Point", "coordinates": [ -108.579754691165419, 45.775637492699865 ] } },
{ "type": "Feature", "properties": { "zipcode": "59301", "name": "Miles City", "state_name": "Montana", "state": "MT", "pop": 11777, "cluster": 42, "longitude": -105.74223882939006, "latitude": 46.243383150586943 }, "geometry": { "type": "Point", "coordinates": [ -105.742238829390061, 46.243383150586943 ] } },
{ "type": "Feature", "properties": { "zipcode": "69361", "name": "Scottsbluff", "state_name": "Nebraska", "state": "NE", "pop": 18049, "cluster": 43, "longitude": -103.62113349407913, "latitude": 41.953411836374755 }, "geometry": { "type": "Point", "coordinates": [ -103.621133494079132, 41.953411836374755 ] } },
{ "type": "Feature", "properties": { "zipcode": "68847", "name": "Kearney", "state_name": "Nebraska", "state": "NE", "pop": 18426, "cluster": 44, "longitude": -99.020691109896063, "latitude": 40.749248618292008 }, "geometry": { "type": "Point", "coordinates": [ -99.020691109896063, 40.749248618292008 ] } },
{ "type": "Feature", "properties": { "zipcode": "69101", "name": "North Platte", "state_name": "Nebraska", "state": "NE", "pop": 29452, "cluster": 45, "longitude": -100.78681495326035, "latitude": 41.140530128503379 }, "geometry": { "type": "Point", "coordinates": [ -100.786814953260347, 41.140530128503379 ] } },
{ "type": "Feature", "properties": { "zipcode": "89815", "name": "Spring Creek", "state_name": "Nevada", "state": "NV", "pop": 15419, "cluster": 46, "longitude": -115.71299477752677, "latitude": 40.485198729057117 }, "geometry": { "type": "Point", "coordinates": [ -115.712994777526774, 40.485198729057117 ] } },
{ "type": "Feature", "properties": { "zipcode": "89445", "name": "Winnemucca", "state_name": "Nevada", "state": "NV", "pop": 16985, "cluster": 47, "longitude": -118.08424578562501, "latitude": 40.99167907890066 }, "geometry": { "type": "Point", "coordinates": [ -118.084245785625015, 40.99167907890066 ] } },
{ "type": "Feature", "properties": { "zipcode": "84780", "name": "Washington", "state_name": "Utah", "state": "UT", "pop": 25795, "cluster": 48, "longitude": -113.48431759411652, "latitude": 37.125550310632065 }, "geometry": { "type": "Point", "coordinates": [ -113.484317594116519, 37.125550310632065 ] } },
{ "type": "Feature", "properties": { "zipcode": "03570", "name": "Berlin", "state_name": "New Hampshire", "state": "NH", "pop": 10763, "cluster": 49, "longitude": -71.215264908698771, "latitude": 44.48087222556692 }, "geometry": { "type": "Point", "coordinates": [ -71.215264908698771, 44.48087222556692 ] } },
{ "type": "Feature", "properties": { "zipcode": "87122", "name": "Albuquerque", "state_name": "New Mexico", "state": "NM", "pop": 20340, "cluster": 50, "longitude": -106.46106983217621, "latitude": 35.154532037446508 }, "geometry": { "type": "Point", "coordinates": [ -106.461069832176207, 35.154532037446508 ] } },
{ "type": "Feature", "properties": { "zipcode": "79331", "name": "Lamesa", "state_name": "Texas", "state": "TX", "pop": 12718, "cluster": 51, "longitude": -101.95062712851085, "latitude": 32.713883263379998 }, "geometry": { "type": "Point", "coordinates": [ -101.950627128510845, 32.713883263379998 ] } },
{ "type": "Feature", "properties": { "zipcode": "88210", "name": "Artesia", "state_name": "New Mexico", "state": "NM", "pop": 19003, "cluster": 52, "longitude": -104.34739835530546, "latitude": 32.774249418171863 }, "geometry": { "type": "Point", "coordinates": [ -104.347398355305458, 32.774249418171863 ] } },
{ "type": "Feature", "properties": { "zipcode": "79119", "name": "Amarillo", "state_name": "Texas", "state": "TX", "pop": 17577, "cluster": 53, "longitude": -102.02805595544596, "latitude": 35.108340460907463 }, "geometry": { "type": "Point", "coordinates": [ -102.028055955445964, 35.108340460907463 ] } },
{ "type": "Feature", "properties": { "zipcode": "79835", "name": "Canutillo", "state_name": "Texas", "state": "TX", "pop": 13881, "cluster": 54, "longitude": -106.59031575575693, "latitude": 31.946864926154905 }, "geometry": { "type": "Point", "coordinates": [ -106.590315755756933, 31.946864926154905 ] } },
{ "type": "Feature", "properties": { "zipcode": "88061", "name": "Silver City", "state_name": "New Mexico", "state": "NM", "pop": 19650, "cluster": 55, "longitude": -108.30238335154618, "latitude": 32.819303356622157 }, "geometry": { "type": "Point", "coordinates": [ -108.302383351546183, 32.819303356622157 ] } },
{ "type": "Feature", "properties": { "zipcode": "87020", "name": "Grants", "state_name": "New Mexico", "state": "NM", "pop": 14036, "cluster": 56, "longitude": -107.86109736037866, "latitude": 35.193025669632185 }, "geometry": { "type": "Point", "coordinates": [ -107.861097360378665, 35.193025669632185 ] } },
{ "type": "Feature", "properties": { "zipcode": "87701", "name": "Las Vegas", "state_name": "New Mexico", "state": "NM", "pop": 20113, "cluster": 57, "longitude": -104.9364314631803, "latitude": 35.534493421917517 }, "geometry": { "type": "Point", "coordinates": [ -104.936431463180298, 35.534493421917517 ] } },
{ "type": "Feature", "properties": { "zipcode": "58501", "name": "Bismarck", "state_name": "North Dakota", "state": "ND", "pop": 31354, "cluster": 58, "longitude": -100.70199517745741, "latitude": 46.819440692857697 }, "geometry": { "type": "Point", "coordinates": [ -100.701995177457405, 46.819440692857697 ] } },
{ "type": "Feature", "properties": { "zipcode": "58801", "name": "Williston", "state_name": "North Dakota", "state": "ND", "pop": 37116, "cluster": 59, "longitude": -103.74253824645626, "latitude": 48.255310568436244 }, "geometry": { "type": "Point", "coordinates": [ -103.742538246456263, 48.255310568436244 ] } },
{ "type": "Feature", "properties": { "zipcode": "58703", "name": "Minot", "state_name": "North Dakota", "state": "ND", "pop": 24751, "cluster": 60, "longitude": -101.31410783585461, "latitude": 48.329504034404621 }, "geometry": { "type": "Point", "coordinates": [ -101.314107835854614, 48.329504034404621 ] } },
{ "type": "Feature", "properties": { "zipcode": "58601", "name": "Dickinson", "state_name": "North Dakota", "state": "ND", "pop": 30728, "cluster": 61, "longitude": -102.82935366692389, "latitude": 46.908255705730681 }, "geometry": { "type": "Point", "coordinates": [ -102.829353666923893, 46.908255705730681 ] } },
{ "type": "Feature", "properties": { "zipcode": "58401", "name": "Jamestown", "state_name": "North Dakota", "state": "ND", "pop": 17935, "cluster": 62, "longitude": -98.76570838400184, "latitude": 46.88031008254309 }, "geometry": { "type": "Point", "coordinates": [ -98.76570838400184, 46.88031008254309 ] } },
{ "type": "Feature", "properties": { "zipcode": "73801", "name": "Woodward", "state_name": "Oklahoma", "state": "OK", "pop": 16098, "cluster": 63, "longitude": -99.441569883952283, "latitude": 36.412058027542997 }, "geometry": { "type": "Point", "coordinates": [ -99.441569883952283, 36.412058027542997 ] } },
{ "type": "Feature", "properties": { "zipcode": "99320", "name": "Benton City", "state_name": "Washington", "state": "WA", "pop": 10267, "cluster": 64, "longitude": -119.51023083753054, "latitude": 46.318087940866477 }, "geometry": { "type": "Point", "coordinates": [ -119.510230837530543, 46.318087940866477 ] } },
{ "type": "Feature", "properties": { "zipcode": "97701", "name": "Bend", "state_name": "Oregon", "state": "OR", "pop": 38954, "cluster": 65, "longitude": -121.04852772788149, "latitude": 44.021719274172966 }, "geometry": { "type": "Point", "coordinates": [ -121.048527727881492, 44.021719274172966 ] } },
{ "type": "Feature", "properties": { "zipcode": "57401", "name": "Aberdeen", "state_name": "South Dakota", "state": "SD", "pop": 32878, "cluster": 66, "longitude": -98.531341849181445, "latitude": 45.471286657030596 }, "geometry": { "type": "Point", "coordinates": [ -98.531341849181445, 45.471286657030596 ] } },
{ "type": "Feature", "properties": { "zipcode": "57350", "name": "Huron", "state_name": "South Dakota", "state": "SD", "pop": 15020, "cluster": 67, "longitude": -98.204843285949906, "latitude": 44.401167141737091 }, "geometry": { "type": "Point", "coordinates": [ -98.204843285949906, 44.401167141737091 ] } },
{ "type": "Feature", "properties": { "zipcode": "57701", "name": "Rapid City", "state_name": "South Dakota", "state": "SD", "pop": 48498, "cluster": 68, "longitude": -103.20337493967043, "latitude": 44.126379817174836 }, "geometry": { "type": "Point", "coordinates": [ -103.203374939670425, 44.126379817174836 ] } },
{ "type": "Feature", "properties": { "zipcode": "57501", "name": "Pierre", "state_name": "South Dakota", "state": "SD", "pop": 17180, "cluster": 69, "longitude": -100.2904623061407, "latitude": 44.54216891903868 }, "geometry": { "type": "Point", "coordinates": [ -100.290462306140697, 44.54216891903868 ] } },
{ "type": "Feature", "properties": { "zipcode": "79603", "name": "Abilene", "state_name": "Texas", "state": "TX", "pop": 25311, "cluster": 70, "longitude": -99.884057972484186, "latitude": 32.41349561876558 }, "geometry": { "type": "Point", "coordinates": [ -99.884057972484186, 32.41349561876558 ] } },
{ "type": "Feature", "properties": { "zipcode": "78840", "name": "Del Rio", "state_name": "Texas", "state": "TX", "pop": 49357, "cluster": 71, "longitude": -100.85345632807781, "latitude": 29.772679623904057 }, "geometry": { "type": "Point", "coordinates": [ -100.853456328077812, 29.772679623904057 ] } },
{ "type": "Feature", "properties": { "zipcode": "78541", "name": "Edinburg", "state_name": "Texas", "state": "TX", "pop": 46898, "cluster": 72, "longitude": -98.272944445396618, "latitude": 26.463698719883826 }, "geometry": { "type": "Point", "coordinates": [ -98.272944445396618, 26.463698719883826 ] } },
{ "type": "Feature", "properties": { "zipcode": "76903", "name": "San Angelo", "state_name": "Texas", "state": "TX", "pop": 33199, "cluster": 73, "longitude": -100.43900702616523, "latitude": 31.483458973068458 }, "geometry": { "type": "Point", "coordinates": [ -100.439007026165228, 31.483458973068458 ] } },
{ "type": "Feature", "properties": { "zipcode": "78852", "name": "Eagle Pass", "state_name": "Texas", "state": "TX", "pop": 57650, "cluster": 74, "longitude": -100.28443015929101, "latitude": 28.6532370157523 }, "geometry": { "type": "Point", "coordinates": [ -100.284430159291006, 28.6532370157523 ] } },
{ "type": "Feature", "properties": { "zipcode": "79772", "name": "Pecos", "state_name": "Texas", "state": "TX", "pop": 11809, "cluster": 75, "longitude": -103.69770356876867, "latitude": 31.422972869950513 }, "geometry": { "type": "Point", "coordinates": [ -103.697703568768674, 31.422972869950513 ] } },
{ "type": "Feature", "properties": { "zipcode": "79735", "name": "Fort Stockton", "state_name": "Texas", "state": "TX", "pop": 14201, "cluster": 76, "longitude": -102.77814383847476, "latitude": 30.681240903379045 }, "geometry": { "type": "Point", "coordinates": [ -102.778143838474762, 30.681240903379045 ] } },
{ "type": "Feature", "properties": { "zipcode": "76801", "name": "Brownwood", "state_name": "Texas", "state": "TX", "pop": 26790, "cluster": 77, "longitude": -99.046813903061761, "latitude": 31.732851713942676 }, "geometry": { "type": "Point", "coordinates": [ -99.046813903061761, 31.732851713942676 ] } },
{ "type": "Feature", "properties": { "zipcode": "79070", "name": "Perryton", "state_name": "Texas", "state": "TX", "pop": 10468, "cluster": 78, "longitude": -100.79911420876853, "latitude": 36.243400725728328 }, "geometry": { "type": "Point", "coordinates": [ -100.799114208768529, 36.243400725728328 ] } },
{ "type": "Feature", "properties": { "zipcode": "84105", "name": "Salt Lake City", "state_name": "Utah", "state": "UT", "pop": 22970, "cluster": 79, "longitude": -111.85936485453996, "latitude": 40.738274656628974 }, "geometry": { "type": "Point", "coordinates": [ -111.859364854539962, 40.738274656628974 ] } },
{ "type": "Feature", "properties": { "zipcode": "84532", "name": "Moab", "state_name": "Utah", "state": "UT", "pop": 10874, "cluster": 80, "longitude": -109.60837185517515, "latitude": 38.28698370342466 }, "geometry": { "type": "Point", "coordinates": [ -109.60837185517515, 38.28698370342466 ] } },
{ "type": "Feature", "properties": { "zipcode": "84078", "name": "Vernal", "state_name": "Utah", "state": "UT", "pop": 30860, "cluster": 81, "longitude": -109.63339466033985, "latitude": 40.101848486879305 }, "geometry": { "type": "Point", "coordinates": [ -109.633394660339846, 40.101848486879305 ] } },
{ "type": "Feature", "properties": { "zipcode": "84501", "name": "Price", "state_name": "Utah", "state": "UT", "pop": 14097, "cluster": 82, "longitude": -110.80649508286035, "latitude": 39.565819381573718 }, "geometry": { "type": "Point", "coordinates": [ -110.806495082860351, 39.565819381573718 ] } },
{ "type": "Feature", "properties": { "zipcode": "82501", "name": "Riverton", "state_name": "Wyoming", "state": "WY", "pop": 19232, "cluster": 83, "longitude": -108.36427944284421, "latitude": 43.068507060766898 }, "geometry": { "type": "Point", "coordinates": [ -108.364279442844207, 43.068507060766898 ] } },
{ "type": "Feature", "properties": { "zipcode": "82716", "name": "Gillette", "state_name": "Wyoming", "state": "WY", "pop": 19653, "cluster": 84, "longitude": -105.65923157676649, "latitude": 44.494944384647312 }, "geometry": { "type": "Point", "coordinates": [ -105.659231576766487, 44.494944384647312 ] } },
{ "type": "Feature", "properties": { "zipcode": "82601", "name": "Casper", "state_name": "Wyoming", "state": "WY", "pop": 28696, "cluster": 85, "longitude": -106.34067317386433, "latitude": 43.107248703523403 }, "geometry": { "type": "Point", "coordinates": [ -106.340673173864332, 43.107248703523403 ] } },
{ "type": "Feature", "properties": { "zipcode": "83001", "name": "Jackson", "state_name": "Wyoming", "state": "WY", "pop": 18072, "cluster": 86, "longitude": -110.54159428387919, "latitude": 43.44762166099099 }, "geometry": { "type": "Point", "coordinates": [ -110.541594283879192, 43.44762166099099 ] } },
{ "type": "Feature", "properties": { "zipcode": "82935", "name": "Green River", "state_name": "Wyoming", "state": "WY", "pop": 13819, "cluster": 87, "longitude": -109.71950349328333, "latitude": 41.843151270130363 }, "geometry": { "type": "Point", "coordinates": [ -109.719503493283327, 41.843151270130363 ] } },
{ "type": "Feature", "properties": { "zipcode": "82414", "name": "Cody", "state_name": "Wyoming", "state": "WY", "pop": 16360, "cluster": 88, "longitude": -109.61556253745387, "latitude": 44.545822887046576 }, "geometry": { "type": "Point", "coordinates": [ -109.615562537453869, 44.545822887046576 ] } },
{ "type": "Feature", "properties": { "zipcode": "82801", "name": "Sheridan", "state_name": "Wyoming", "state": "WY", "pop": 26206, "cluster": 89, "longitude": -106.88396853543775, "latitude": 44.801497514405739 }, "geometry": { "type": "Point", "coordinates": [ -106.883968535437745, 44.801497514405739 ] } }
]
}
