[
    {
        "zipcode":"40336",
        "name":"Irvine",
        "state_name":"Kentucky",
        "state":"KY",
        "pop":13047,
        "cluster":0,
        "longitude":-83.9829461613,
        "latitude":37.6834184495
    },
    {
        "zipcode":"85383",
        "name":"Peoria",
        "state_name":"Arizona",
        "state":"AZ",
        "pop":57653,
        "cluster":1,
        "longitude":-112.3178305563,
        "latitude":33.8055428372
    },
    {
        "zipcode":"93280",
        "name":"Wasco",
        "state_name":"California",
        "state":"CA",
        "pop":28760,
        "cluster":2,
        "longitude":-119.4429272822,
        "latitude":35.6556835191
    },
    {
        "zipcode":"86045",
        "name":"Tuba City",
        "state_name":"Arizona",
        "state":"AZ",
        "pop":11706,
        "cluster":3,
        "longitude":-111.0745873676,
        "latitude":36.0145519057
    },
    {
        "zipcode":"85344",
        "name":"Parker",
        "state_name":"Arizona",
        "state":"AZ",
        "pop":10662,
        "cluster":4,
        "longitude":-114.0936755989,
        "latitude":33.6967754516
    },
    {
        "zipcode":"86047",
        "name":"Winslow",
        "state_name":"Arizona",
        "state":"AZ",
        "pop":17751,
        "cluster":5,
        "longitude":-110.4326056517,
        "latitude":35.1956843853
    },
    {
        "zipcode":"85546",
        "name":"Safford",
        "state_name":"Arizona",
        "state":"AZ",
        "pop":20586,
        "cluster":6,
        "longitude":-109.5377407608,
        "latitude":32.698674333
    },
    {
        "zipcode":"86505",
        "name":"Ganado",
        "state_name":"Arizona",
        "state":"AZ",
        "pop":17186,
        "cluster":7,
        "longitude":-109.4836287274,
        "latitude":35.6213607018
    },
    {
        "zipcode":"86040",
        "name":"Page",
        "state_name":"Arizona",
        "state":"AZ",
        "pop":10749,
        "cluster":8,
        "longitude":-111.4621843444,
        "latitude":36.7565581211
    },
    {
        "zipcode":"95501",
        "name":"Eureka",
        "state_name":"California",
        "state":"CA",
        "pop":25066,
        "cluster":9,
        "longitude":-124.1516965523,
        "latitude":40.7930614527
    },
    {
        "zipcode":"96130",
        "name":"Susanville",
        "state_name":"California",
        "state":"CA",
        "pop":22597,
        "cluster":10,
        "longitude":-120.4967149796,
        "latitude":40.5683315059
    },
    {
        "zipcode":"98626",
        "name":"Kelso",
        "state_name":"Washington",
        "state":"WA",
        "pop":25554,
        "cluster":11,
        "longitude":-122.7945593383,
        "latitude":46.1456528405
    },
    {
        "zipcode":"93514",
        "name":"Bishop",
        "state_name":"California",
        "state":"CA",
        "pop":13987,
        "cluster":12,
        "longitude":-118.3671825208,
        "latitude":37.4669421898
    },
    {
        "zipcode":"80465",
        "name":"Morrison",
        "state_name":"Colorado",
        "state":"CO",
        "pop":16773,
        "cluster":13,
        "longitude":-105.2097473852,
        "latitude":39.6106353017
    },
    {
        "zipcode":"87410",
        "name":"Aztec",
        "state_name":"New Mexico",
        "state":"NM",
        "pop":18463,
        "cluster":14,
        "longitude":-107.9325671598,
        "latitude":36.8745443438
    },
    {
        "zipcode":"81625",
        "name":"Craig",
        "state_name":"Colorado",
        "state":"CO",
        "pop":13057,
        "cluster":15,
        "longitude":-107.752048932,
        "latitude":40.6490200222
    },
    {
        "zipcode":"81050",
        "name":"La Junta",
        "state_name":"Colorado",
        "state":"CO",
        "pop":10579,
        "cluster":16,
        "longitude":-103.5187924545,
        "latitude":37.9418567135
    },
    {
        "zipcode":"81082",
        "name":"Trinidad",
        "state_name":"Colorado",
        "state":"CO",
        "pop":12346,
        "cluster":17,
        "longitude":-104.4977743049,
        "latitude":37.1995102913
    },
    {
        "zipcode":"81101",
        "name":"Alamosa",
        "state_name":"Colorado",
        "state":"CO",
        "pop":16110,
        "cluster":18,
        "longitude":-105.8517101475,
        "latitude":37.4667916106
    },
    {
        "zipcode":"33040",
        "name":"Key West",
        "state_name":"Florida",
        "state":"FL",
        "pop":34952,
        "cluster":19,
        "longitude":-81.7608513479,
        "latitude":24.5879009131
    },
    {
        "zipcode":"99403",
        "name":"Clarkston",
        "state_name":"Washington",
        "state":"WA",
        "pop":19652,
        "cluster":20,
        "longitude":-117.2450136834,
        "latitude":46.3858696772
    },
    {
        "zipcode":"83713",
        "name":"Boise",
        "state_name":"Idaho",
        "state":"ID",
        "pop":30809,
        "cluster":21,
        "longitude":-116.3341314984,
        "latitude":43.6389789865
    },
    {
        "zipcode":"83202",
        "name":"Pocatello",
        "state_name":"Idaho",
        "state":"ID",
        "pop":20723,
        "cluster":22,
        "longitude":-112.5074641159,
        "latitude":42.9741811393
    },
    {
        "zipcode":"83333",
        "name":"Hailey",
        "state_name":"Idaho",
        "state":"ID",
        "pop":10523,
        "cluster":23,
        "longitude":-114.2946923698,
        "latitude":43.5600740312
    },
    {
        "zipcode":"99217",
        "name":"Spokane",
        "state_name":"Washington",
        "state":"WA",
        "pop":19037,
        "cluster":24,
        "longitude":-117.2530701469,
        "latitude":47.7411687766
    },
    {
        "zipcode":"68028",
        "name":"Gretna",
        "state_name":"Nebraska",
        "state":"NE",
        "pop":14765,
        "cluster":25,
        "longitude":-96.2548807699,
        "latitude":41.1095193947
    },
    {
        "zipcode":"57108",
        "name":"Sioux Falls",
        "state_name":"South Dakota",
        "state":"SD",
        "pop":24036,
        "cluster":26,
        "longitude":-96.7048356487,
        "latitude":43.4772826377
    },
    {
        "zipcode":"73942",
        "name":"Guymon",
        "state_name":"Oklahoma",
        "state":"OK",
        "pop":13721,
        "cluster":27,
        "longitude":-101.4575419452,
        "latitude":36.7491519586
    },
    {
        "zipcode":"67801",
        "name":"Dodge City",
        "state_name":"Kansas",
        "state":"KS",
        "pop":31795,
        "cluster":28,
        "longitude":-100.0593533374,
        "latitude":37.7149446365
    },
    {
        "zipcode":"67530",
        "name":"Great Bend",
        "state_name":"Kansas",
        "state":"KS",
        "pop":19026,
        "cluster":29,
        "longitude":-98.8072782871,
        "latitude":38.3651415484
    },
    {
        "zipcode":"04730",
        "name":"Houlton",
        "state_name":"Maine",
        "state":"ME",
        "pop":10103,
        "cluster":30,
        "longitude":-67.9055805174,
        "latitude":46.1394733807
    },
    {
        "zipcode":"49783",
        "name":"Sault Sainte Marie",
        "state_name":"Michigan",
        "state":"MI",
        "pop":18374,
        "cluster":31,
        "longitude":-84.2942665026,
        "latitude":46.4067028478
    },
    {
        "zipcode":"49707",
        "name":"Alpena",
        "state_name":"Michigan",
        "state":"MI",
        "pop":22292,
        "cluster":32,
        "longitude":-83.5024231835,
        "latitude":45.0869570106
    },
    {
        "zipcode":"56721",
        "name":"East Grand Forks",
        "state_name":"Minnesota",
        "state":"MN",
        "pop":10489,
        "cluster":33,
        "longitude":-96.9415984181,
        "latitude":47.9681026613
    },
    {
        "zipcode":"55811",
        "name":"Duluth",
        "state_name":"Minnesota",
        "state":"MN",
        "pop":27683,
        "cluster":34,
        "longitude":-92.2233471971,
        "latitude":46.8404951485
    },
    {
        "zipcode":"56258",
        "name":"Marshall",
        "state_name":"Minnesota",
        "state":"MN",
        "pop":16132,
        "cluster":35,
        "longitude":-95.7616300753,
        "latitude":44.4430694618
    },
    {
        "zipcode":"63501",
        "name":"Kirksville",
        "state_name":"Missouri",
        "state":"MO",
        "pop":21642,
        "cluster":36,
        "longitude":-92.6024717867,
        "latitude":40.1561024434
    },
    {
        "zipcode":"59715",
        "name":"Bozeman",
        "state_name":"Montana",
        "state":"MT",
        "pop":36686,
        "cluster":37,
        "longitude":-110.9060286761,
        "latitude":45.7327886502
    },
    {
        "zipcode":"59808",
        "name":"Missoula",
        "state_name":"Montana",
        "state":"MT",
        "pop":20780,
        "cluster":38,
        "longitude":-114.0715817423,
        "latitude":47.000512491
    },
    {
        "zipcode":"59501",
        "name":"Havre",
        "state_name":"Montana",
        "state":"MT",
        "pop":13001,
        "cluster":39,
        "longitude":-109.7865554973,
        "latitude":48.6827004647
    },
    {
        "zipcode":"59602",
        "name":"Helena",
        "state_name":"Montana",
        "state":"MT",
        "pop":27846,
        "cluster":40,
        "longitude":-111.9318701567,
        "latitude":46.7294703446
    },
    {
        "zipcode":"59102",
        "name":"Billings",
        "state_name":"Montana",
        "state":"MT",
        "pop":49972,
        "cluster":41,
        "longitude":-108.5797546912,
        "latitude":45.7756374927
    },
    {
        "zipcode":"59301",
        "name":"Miles City",
        "state_name":"Montana",
        "state":"MT",
        "pop":11777,
        "cluster":42,
        "longitude":-105.7422388294,
        "latitude":46.2433831506
    },
    {
        "zipcode":"69361",
        "name":"Scottsbluff",
        "state_name":"Nebraska",
        "state":"NE",
        "pop":18049,
        "cluster":43,
        "longitude":-103.6211334941,
        "latitude":41.9534118364
    },
    {
        "zipcode":"68847",
        "name":"Kearney",
        "state_name":"Nebraska",
        "state":"NE",
        "pop":18426,
        "cluster":44,
        "longitude":-99.0206911099,
        "latitude":40.7492486183
    },
    {
        "zipcode":"69101",
        "name":"North Platte",
        "state_name":"Nebraska",
        "state":"NE",
        "pop":29452,
        "cluster":45,
        "longitude":-100.7868149533,
        "latitude":41.1405301285
    },
    {
        "zipcode":"89815",
        "name":"Spring Creek",
        "state_name":"Nevada",
        "state":"NV",
        "pop":15419,
        "cluster":46,
        "longitude":-115.7129947775,
        "latitude":40.4851987291
    },
    {
        "zipcode":"89445",
        "name":"Winnemucca",
        "state_name":"Nevada",
        "state":"NV",
        "pop":16985,
        "cluster":47,
        "longitude":-118.0842457856,
        "latitude":40.9916790789
    },
    {
        "zipcode":"84780",
        "name":"Washington",
        "state_name":"Utah",
        "state":"UT",
        "pop":25795,
        "cluster":48,
        "longitude":-113.4843175941,
        "latitude":37.1255503106
    },
    {
        "zipcode":"03570",
        "name":"Berlin",
        "state_name":"New Hampshire",
        "state":"NH",
        "pop":10763,
        "cluster":49,
        "longitude":-71.2152649087,
        "latitude":44.4808722256
    },
    {
        "zipcode":"87122",
        "name":"Albuquerque",
        "state_name":"New Mexico",
        "state":"NM",
        "pop":20340,
        "cluster":50,
        "longitude":-106.4610698322,
        "latitude":35.1545320374
    },
    {
        "zipcode":"79331",
        "name":"Lamesa",
        "state_name":"Texas",
        "state":"TX",
        "pop":12718,
        "cluster":51,
        "longitude":-101.9506271285,
        "latitude":32.7138832634
    },
    {
        "zipcode":"88210",
        "name":"Artesia",
        "state_name":"New Mexico",
        "state":"NM",
        "pop":19003,
        "cluster":52,
        "longitude":-104.3473983553,
        "latitude":32.7742494182
    },
    {
        "zipcode":"79119",
        "name":"Amarillo",
        "state_name":"Texas",
        "state":"TX",
        "pop":17577,
        "cluster":53,
        "longitude":-102.0280559554,
        "latitude":35.1083404609
    },
    {
        "zipcode":"79835",
        "name":"Canutillo",
        "state_name":"Texas",
        "state":"TX",
        "pop":13881,
        "cluster":54,
        "longitude":-106.5903157558,
        "latitude":31.9468649262
    },
    {
        "zipcode":"88061",
        "name":"Silver City",
        "state_name":"New Mexico",
        "state":"NM",
        "pop":19650,
        "cluster":55,
        "longitude":-108.3023833515,
        "latitude":32.8193033566
    },
    {
        "zipcode":"87020",
        "name":"Grants",
        "state_name":"New Mexico",
        "state":"NM",
        "pop":14036,
        "cluster":56,
        "longitude":-107.8610973604,
        "latitude":35.1930256696
    },
    {
        "zipcode":"87701",
        "name":"Las Vegas",
        "state_name":"New Mexico",
        "state":"NM",
        "pop":20113,
        "cluster":57,
        "longitude":-104.9364314632,
        "latitude":35.5344934219
    },
    {
        "zipcode":"58501",
        "name":"Bismarck",
        "state_name":"North Dakota",
        "state":"ND",
        "pop":31354,
        "cluster":58,
        "longitude":-100.7019951775,
        "latitude":46.8194406929
    },
    {
        "zipcode":"58801",
        "name":"Williston",
        "state_name":"North Dakota",
        "state":"ND",
        "pop":37116,
        "cluster":59,
        "longitude":-103.7425382465,
        "latitude":48.2553105684
    },
    {
        "zipcode":"58703",
        "name":"Minot",
        "state_name":"North Dakota",
        "state":"ND",
        "pop":24751,
        "cluster":60,
        "longitude":-101.3141078359,
        "latitude":48.3295040344
    },
    {
        "zipcode":"58601",
        "name":"Dickinson",
        "state_name":"North Dakota",
        "state":"ND",
        "pop":30728,
        "cluster":61,
        "longitude":-102.8293536669,
        "latitude":46.9082557057
    },
    {
        "zipcode":"58401",
        "name":"Jamestown",
        "state_name":"North Dakota",
        "state":"ND",
        "pop":17935,
        "cluster":62,
        "longitude":-98.765708384,
        "latitude":46.8803100825
    },
    {
        "zipcode":"73801",
        "name":"Woodward",
        "state_name":"Oklahoma",
        "state":"OK",
        "pop":16098,
        "cluster":63,
        "longitude":-99.441569884,
        "latitude":36.4120580275
    },
    {
        "zipcode":"99320",
        "name":"Benton City",
        "state_name":"Washington",
        "state":"WA",
        "pop":10267,
        "cluster":64,
        "longitude":-119.5102308375,
        "latitude":46.3180879409
    },
    {
        "zipcode":"97701",
        "name":"Bend",
        "state_name":"Oregon",
        "state":"OR",
        "pop":38954,
        "cluster":65,
        "longitude":-121.0485277279,
        "latitude":44.0217192742
    },
    {
        "zipcode":"57401",
        "name":"Aberdeen",
        "state_name":"South Dakota",
        "state":"SD",
        "pop":32878,
        "cluster":66,
        "longitude":-98.5313418492,
        "latitude":45.471286657
    },
    {
        "zipcode":"57350",
        "name":"Huron",
        "state_name":"South Dakota",
        "state":"SD",
        "pop":15020,
        "cluster":67,
        "longitude":-98.2048432859,
        "latitude":44.4011671417
    },
    {
        "zipcode":"57701",
        "name":"Rapid City",
        "state_name":"South Dakota",
        "state":"SD",
        "pop":48498,
        "cluster":68,
        "longitude":-103.2033749397,
        "latitude":44.1263798172
    },
    {
        "zipcode":"57501",
        "name":"Pierre",
        "state_name":"South Dakota",
        "state":"SD",
        "pop":17180,
        "cluster":69,
        "longitude":-100.2904623061,
        "latitude":44.542168919
    },
    {
        "zipcode":"79603",
        "name":"Abilene",
        "state_name":"Texas",
        "state":"TX",
        "pop":25311,
        "cluster":70,
        "longitude":-99.8840579725,
        "latitude":32.4134956188
    },
    {
        "zipcode":"78840",
        "name":"Del Rio",
        "state_name":"Texas",
        "state":"TX",
        "pop":49357,
        "cluster":71,
        "longitude":-100.8534563281,
        "latitude":29.7726796239
    },
    {
        "zipcode":"78541",
        "name":"Edinburg",
        "state_name":"Texas",
        "state":"TX",
        "pop":46898,
        "cluster":72,
        "longitude":-98.2729444454,
        "latitude":26.4636987199
    },
    {
        "zipcode":"76903",
        "name":"San Angelo",
        "state_name":"Texas",
        "state":"TX",
        "pop":33199,
        "cluster":73,
        "longitude":-100.4390070262,
        "latitude":31.4834589731
    },
    {
        "zipcode":"78852",
        "name":"Eagle Pass",
        "state_name":"Texas",
        "state":"TX",
        "pop":57650,
        "cluster":74,
        "longitude":-100.2844301593,
        "latitude":28.6532370158
    },
    {
        "zipcode":"79772",
        "name":"Pecos",
        "state_name":"Texas",
        "state":"TX",
        "pop":11809,
        "cluster":75,
        "longitude":-103.6977035688,
        "latitude":31.42297287
    },
    {
        "zipcode":"79735",
        "name":"Fort Stockton",
        "state_name":"Texas",
        "state":"TX",
        "pop":14201,
        "cluster":76,
        "longitude":-102.7781438385,
        "latitude":30.6812409034
    },
    {
        "zipcode":"76801",
        "name":"Brownwood",
        "state_name":"Texas",
        "state":"TX",
        "pop":26790,
        "cluster":77,
        "longitude":-99.0468139031,
        "latitude":31.7328517139
    },
    {
        "zipcode":"79070",
        "name":"Perryton",
        "state_name":"Texas",
        "state":"TX",
        "pop":10468,
        "cluster":78,
        "longitude":-100.7991142088,
        "latitude":36.2434007257
    },
    {
        "zipcode":"84105",
        "name":"Salt Lake City",
        "state_name":"Utah",
        "state":"UT",
        "pop":22970,
        "cluster":79,
        "longitude":-111.8593648545,
        "latitude":40.7382746566
    },
    {
        "zipcode":"84532",
        "name":"Moab",
        "state_name":"Utah",
        "state":"UT",
        "pop":10874,
        "cluster":80,
        "longitude":-109.6083718552,
        "latitude":38.2869837034
    },
    {
        "zipcode":"84078",
        "name":"Vernal",
        "state_name":"Utah",
        "state":"UT",
        "pop":30860,
        "cluster":81,
        "longitude":-109.6333946603,
        "latitude":40.1018484869
    },
    {
        "zipcode":"84501",
        "name":"Price",
        "state_name":"Utah",
        "state":"UT",
        "pop":14097,
        "cluster":82,
        "longitude":-110.8064950829,
        "latitude":39.5658193816
    },
    {
        "zipcode":"82501",
        "name":"Riverton",
        "state_name":"Wyoming",
        "state":"WY",
        "pop":19232,
        "cluster":83,
        "longitude":-108.3642794428,
        "latitude":43.0685070608
    },
    {
        "zipcode":"82716",
        "name":"Gillette",
        "state_name":"Wyoming",
        "state":"WY",
        "pop":19653,
        "cluster":84,
        "longitude":-105.6592315768,
        "latitude":44.4949443846
    },
    {
        "zipcode":"82601",
        "name":"Casper",
        "state_name":"Wyoming",
        "state":"WY",
        "pop":28696,
        "cluster":85,
        "longitude":-106.3406731739,
        "latitude":43.1072487035
    },
    {
        "zipcode":"83001",
        "name":"Jackson",
        "state_name":"Wyoming",
        "state":"WY",
        "pop":18072,
        "cluster":86,
        "longitude":-110.5415942839,
        "latitude":43.447621661
    },
    {
        "zipcode":"82935",
        "name":"Green River",
        "state_name":"Wyoming",
        "state":"WY",
        "pop":13819,
        "cluster":87,
        "longitude":-109.7195034933,
        "latitude":41.8431512701
    },
    {
        "zipcode":"82414",
        "name":"Cody",
        "state_name":"Wyoming",
        "state":"WY",
        "pop":16360,
        "cluster":88,
        "longitude":-109.6155625375,
        "latitude":44.545822887
    },
    {
        "zipcode":"82801",
        "name":"Sheridan",
        "state_name":"Wyoming",
        "state":"WY",
        "pop":26206,
        "cluster":89,
        "longitude":-106.8839685354,
        "latitude":44.8014975144
    }
]