[
    {
        "store_id":"2242860",
        "store_name":"Richmond",
        "street":"3600 Klose Way",
        "city":"Richmond",
        "state":"CA",
        "zip":"94806",
        "url":"https:\/\/locations.99only.com\/ca\/richmond\/discount-store-297.html",
        "latitude":"37.9825283",
        "longitude":"-122.3179684",
        "state_name":"California",
        "brand":"99 Cents Only",
        "updated":"2024-03-14"
    },
    {
        "store_id":"2242847",
        "store_name":"Pinole",
        "street":"620 San Pablo Ave",
        "city":"Pinole",
        "state":"CA",
        "zip":"94564",
        "url":"https:\/\/locations.99only.com\/ca\/pinole\/discount-store-275.html",
        "latitude":"38.0035999",
        "longitude":"-122.3152692",
        "state_name":"California",
        "brand":"99 Cents Only",
        "updated":"2024-03-14"
    },
    {
        "store_id":"2242779",
        "store_name":"San Leandro",
        "street":"699 Lewelling Boulevard",
        "city":"San Leandro",
        "state":"CA",
        "zip":"94578",
        "url":"https:\/\/locations.99only.com\/ca\/sanleandro\/discount-store-180.html",
        "latitude":"37.6878718",
        "longitude":"-122.1351291",
        "state_name":"California",
        "brand":"99 Cents Only",
        "updated":"2024-03-14"
    },
    {
        "store_id":"2242809",
        "store_name":"Hayward",
        "street":"20882 Mission Blvd",
        "city":"Hayward",
        "state":"CA",
        "zip":"94541",
        "url":"https:\/\/locations.99only.com\/ca\/hayward\/discount-store-217.html",
        "latitude":"37.684944",
        "longitude":"-122.0980352",
        "state_name":"California",
        "brand":"99 Cents Only",
        "updated":"2024-03-14"
    },
    {
        "store_id":"2242834",
        "store_name":"Concord - Willow Pass",
        "street":"1701 A Willow Pass Rd",
        "city":"Concord",
        "state":"CA",
        "zip":"94520",
        "url":"https:\/\/locations.99only.com\/ca\/concord\/discount-store-247.html",
        "latitude":"37.9742306",
        "longitude":"-122.0413494",
        "state_name":"California",
        "brand":"99 Cents Only",
        "updated":"2024-03-14"
    },
    {
        "store_id":"2242823",
        "store_name":"Vallejo",
        "street":"42 Springstowne Center",
        "city":"Vallejo",
        "state":"CA",
        "zip":"94591",
        "url":"https:\/\/locations.99only.com\/ca\/vallejo\/discount-store-232.html",
        "latitude":"38.1044467",
        "longitude":"-122.2158396",
        "state_name":"California",
        "brand":"99 Cents Only",
        "updated":"2024-03-14"
    },
    {
        "store_id":"2242951",
        "store_name":"Vallejo - Sonoma",
        "street":"3684 Sonoma Blvd",
        "city":"Vallejo",
        "state":"CA",
        "zip":"94590",
        "url":"https:\/\/locations.99only.com\/ca\/vallejo\/discount-store-410.html",
        "latitude":"38.1248284",
        "longitude":"-122.2538234",
        "state_name":"California",
        "brand":"99 Cents Only",
        "updated":"2024-03-14"
    },
    {
        "store_id":"2242796",
        "store_name":"Concord",
        "street":"4665 Clayton Rd",
        "city":"Concord",
        "state":"CA",
        "zip":"94521",
        "url":"https:\/\/locations.99only.com\/ca\/concord\/discount-store-201.html",
        "latitude":"37.9624119",
        "longitude":"-121.9835335",
        "state_name":"California",
        "brand":"99 Cents Only",
        "updated":"2024-03-14"
    },
    {
        "store_id":"2242872",
        "store_name":"Fremont",
        "street":"41989 Fremont Blvd",
        "city":"Fremont",
        "state":"CA",
        "zip":"94538",
        "url":"https:\/\/locations.99only.com\/ca\/fremont\/discount-store-320.html",
        "latitude":"37.5243848",
        "longitude":"-121.9584204",
        "state_name":"California",
        "brand":"99 Cents Only",
        "updated":"2024-03-14"
    },
    {
        "store_id":"2242820",
        "store_name":"Antioch",
        "street":"2515 Somersville Rd",
        "city":"Antioch",
        "state":"CA",
        "zip":"94509",
        "url":"https:\/\/locations.99only.com\/ca\/antioch\/discount-store-228.html",
        "latitude":"38.0002186",
        "longitude":"-121.8385581",
        "state_name":"California",
        "brand":"99 Cents Only",
        "updated":"2024-03-14"
    },
    {
        "store_id":"2242697",
        "store_name":"Silverlake",
        "street":"3600 W. Sunset Blvd",
        "city":"Los Angeles",
        "state":"CA",
        "zip":"90026",
        "url":"https:\/\/locations.99only.com\/ca\/losangeles\/discount-store-83.html",
        "latitude":"34.08999",
        "longitude":"-118.27736",
        "state_name":"California",
        "brand":"99 Cents Only",
        "updated":"2024-03-14"
    },
    {
        "store_id":"2242680",
        "store_name":"Los Angeles - Washington",
        "street":"422 E. Washington Blvd",
        "city":"Los Angeles",
        "state":"CA",
        "zip":"90015",
        "url":"https:\/\/locations.99only.com\/ca\/losangeles\/discount-store-62.html",
        "latitude":"34.0287877",
        "longitude":"-118.2611832",
        "state_name":"California",
        "brand":"99 Cents Only",
        "updated":"2024-03-14"
    },
    {
        "store_id":"2242681",
        "store_name":"Sunset",
        "street":"5270 Sunset Blvd",
        "city":"Los Angeles",
        "state":"CA",
        "zip":"90027",
        "url":"https:\/\/locations.99only.com\/ca\/losangeles\/discount-store-63.html",
        "latitude":"34.0976862",
        "longitude":"-118.3050067",
        "state_name":"California",
        "brand":"99 Cents Only",
        "updated":"2024-03-14"
    },
    {
        "store_id":"2242670",
        "store_name":"Los Angeles - North Broadway",
        "street":"2606 North Broadway",
        "city":"Los Angeles",
        "state":"CA",
        "zip":"90031",
        "url":"https:\/\/locations.99only.com\/ca\/losangeles\/discount-store-51.html",
        "latitude":"34.0732892",
        "longitude":"-118.2153355",
        "state_name":"California",
        "brand":"99 Cents Only",
        "updated":"2024-03-14"
    },
    {
        "store_id":"2242938",
        "store_name":"Crenshaw",
        "street":"3060 Crenshaw Blvd",
        "city":"Los Angeles",
        "state":"CA",
        "zip":"90016",
        "url":"https:\/\/locations.99only.com\/ca\/losangeles\/discount-store-394.html",
        "latitude":"34.0259197",
        "longitude":"-118.3347939",
        "state_name":"California",
        "brand":"99 Cents Only",
        "updated":"2024-03-14"
    },
    {
        "store_id":"2242698",
        "store_name":"La Brea",
        "street":"852 N. La Brea Ave",
        "city":"Los Angeles",
        "state":"CA",
        "zip":"90038",
        "url":"https:\/\/locations.99only.com\/ca\/losangeles\/discount-store-84.html",
        "latitude":"34.0868782",
        "longitude":"-118.3437293",
        "state_name":"California",
        "brand":"99 Cents Only",
        "updated":"2024-03-14"
    },
    {
        "store_id":"2242651",
        "store_name":"Fairfax",
        "street":"601 S. Fairfax Ave",
        "city":"Los Angeles",
        "state":"CA",
        "zip":"90036",
        "url":"https:\/\/locations.99only.com\/ca\/losangeles\/discount-store-16.html",
        "latitude":"34.0646705",
        "longitude":"-118.3616753",
        "state_name":"California",
        "brand":"99 Cents Only",
        "updated":"2024-03-14"
    },
    {
        "store_id":"2242661",
        "store_name":"Wilshire",
        "street":"6121 Wilshire Blvd",
        "city":"Los Angeles",
        "state":"CA",
        "zip":"90048",
        "url":"https:\/\/locations.99only.com\/ca\/losangeles\/discount-store-41.html",
        "latitude":"34.0634111",
        "longitude":"-118.3623813",
        "state_name":"California",
        "brand":"99 Cents Only",
        "updated":"2024-03-14"
    },
    {
        "store_id":"2242677",
        "store_name":"East LA",
        "street":"3451 Whittier Blvd",
        "city":"Los Angeles",
        "state":"CA",
        "zip":"90023",
        "url":"https:\/\/locations.99only.com\/ca\/losangeles\/discount-store-59.html",
        "latitude":"34.0272627",
        "longitude":"-118.1990224",
        "state_name":"California",
        "brand":"99 Cents Only",
        "updated":"2024-03-14"
    },
    {
        "store_id":"2242656",
        "store_name":"Huntington Park - Pacific",
        "street":"6124 Pacific Blvd",
        "city":"Huntington Park",
        "state":"CA",
        "zip":"90255",
        "url":"https:\/\/locations.99only.com\/ca\/huntingtonpark\/discount-store-33.html",
        "latitude":"33.9846696",
        "longitude":"-118.224805",
        "state_name":"California",
        "brand":"99 Cents Only",
        "updated":"2024-03-14"
    },
    {
        "store_id":"2242660",
        "store_name":"Lankershim",
        "street":"4304 Lankershim Blvd",
        "city":"North Hollywood",
        "state":"CA",
        "zip":"91602",
        "url":"https:\/\/locations.99only.com\/ca\/northhollywood\/discount-store-40.html",
        "latitude":"34.1485731",
        "longitude":"-118.3644056",
        "state_name":"California",
        "brand":"99 Cents Only",
        "updated":"2024-03-14"
    },
    {
        "store_id":"2242978",
        "store_name":"Livermore",
        "street":"1490 Railroad Ave",
        "city":"Livermore",
        "state":"CA",
        "zip":"94550",
        "url":"https:\/\/locations.99only.com\/ca\/livermore\/discount-store-447.html",
        "latitude":"37.6814209",
        "longitude":"-121.7783869",
        "state_name":"California",
        "brand":"99 Cents Only",
        "updated":"2024-03-14"
    },
    {
        "store_id":"2242936",
        "store_name":"Inglewood - Crenshaw",
        "street":"8451 Crenshaw Blvd",
        "city":"Inglewood",
        "state":"CA",
        "zip":"90305",
        "url":"https:\/\/locations.99only.com\/ca\/inglewood\/discount-store-392.html",
        "latitude":"33.9613371",
        "longitude":"-118.3272915",
        "state_name":"California",
        "brand":"99 Cents Only",
        "updated":"2024-03-14"
    },
    {
        "store_id":"2242673",
        "store_name":"Glendale",
        "street":"6401 San Fernando Rd",
        "city":"Glendale",
        "state":"CA",
        "zip":"91201",
        "url":"https:\/\/locations.99only.com\/ca\/glendale\/discount-store-54.html",
        "latitude":"34.1659314",
        "longitude":"-118.2887022",
        "state_name":"California",
        "brand":"99 Cents Only",
        "updated":"2024-03-14"
    },
    {
        "store_id":"2242664",
        "store_name":"Walnut Park",
        "street":"2566 E. Florence Ave",
        "city":"Huntington Park",
        "state":"CA",
        "zip":"90255",
        "url":"https:\/\/locations.99only.com\/ca\/huntingtonpark\/discount-store-44.html",
        "latitude":"33.9740068",
        "longitude":"-118.2258445",
        "state_name":"California",
        "brand":"99 Cents Only",
        "updated":"2024-03-14"
    },
    {
        "store_id":"2242650",
        "store_name":"Maywood",
        "street":"6161 Atlantic Blvd",
        "city":"Maywood",
        "state":"CA",
        "zip":"90270",
        "url":"https:\/\/locations.99only.com\/ca\/maywood\/discount-store-14.html",
        "latitude":"33.981915",
        "longitude":"-118.1867752",
        "state_name":"California",
        "brand":"99 Cents Only",
        "updated":"2024-03-14"
    },
    {
        "store_id":"2242736",
        "store_name":"Lynwood",
        "street":"10821 Long Beach Blvd.",
        "city":"Lynwood",
        "state":"CA",
        "zip":"90262",
        "url":"https:\/\/locations.99only.com\/ca\/lynwood\/discount-store-130.html",
        "latitude":"33.9346308",
        "longitude":"-118.2136905",
        "state_name":"California",
        "brand":"99 Cents Only",
        "updated":"2024-03-14"
    },
    {
        "store_id":"2242684",
        "store_name":"Downey",
        "street":"11916 Paramount Blvd",
        "city":"Downey",
        "state":"CA",
        "zip":"90241",
        "url":"https:\/\/locations.99only.com\/ca\/downey\/discount-store-67.html",
        "latitude":"33.9340483",
        "longitude":"-118.1438117",
        "state_name":"California",
        "brand":"99 Cents Only",
        "updated":"2024-03-14"
    },
    {
        "store_id":"2242977",
        "store_name":"Via Campo",
        "street":"2809 Via Campo",
        "city":"Montebello",
        "state":"CA",
        "zip":"90640",
        "url":"https:\/\/locations.99only.com\/ca\/montebello\/discount-store-445.html",
        "latitude":"34.0314707",
        "longitude":"-118.1279549",
        "state_name":"California",
        "brand":"99 Cents Only",
        "updated":"2024-03-14"
    },
    {
        "store_id":"2242646",
        "store_name":"Montebello",
        "street":"1521 Beverly Blvd",
        "city":"Montebello",
        "state":"CA",
        "zip":"90640",
        "url":"https:\/\/locations.99only.com\/ca\/montebello\/discount-store-3.html",
        "latitude":"34.018947",
        "longitude":"-118.1155139",
        "state_name":"California",
        "brand":"99 Cents Only",
        "updated":"2024-03-14"
    },
    {
        "store_id":"2242909",
        "store_name":"Inglewood - Imperial",
        "street":"2762 Imperial Hwy",
        "city":"Inglewood",
        "state":"CA",
        "zip":"90303",
        "url":"https:\/\/locations.99only.com\/ca\/inglewood\/discount-store-364.html",
        "latitude":"33.9309083",
        "longitude":"-118.3244133",
        "state_name":"California",
        "brand":"99 Cents Only",
        "updated":"2024-03-14"
    },
    {
        "store_id":"2242919",
        "store_name":"Ladera Heights",
        "street":"6921 La Tijera Blvd",
        "city":"Los Angeles",
        "state":"CA",
        "zip":"90045",
        "url":"https:\/\/locations.99only.com\/ca\/losangeles\/discount-store-375.html",
        "latitude":"33.9760305",
        "longitude":"-118.3742313",
        "state_name":"California",
        "brand":"99 Cents Only",
        "updated":"2024-03-14"
    },
    {
        "store_id":"2242720",
        "store_name":"Burbank",
        "street":"2407 W. Victory Blvd",
        "city":"Burbank",
        "state":"CA",
        "zip":"91506",
        "url":"https:\/\/locations.99only.com\/ca\/burbank\/discount-store-111.html",
        "latitude":"34.1848362",
        "longitude":"-118.3375197",
        "state_name":"California",
        "brand":"99 Cents Only",
        "updated":"2024-03-14"
    },
    {
        "store_id":"2242732",
        "store_name":"Highland Park",
        "street":"6235 York Blvd",
        "city":"Los Angeles",
        "state":"CA",
        "zip":"90042",
        "url":"https:\/\/locations.99only.com\/ca\/losangeles\/discount-store-125.html",
        "latitude":"34.1152155",
        "longitude":"-118.1827535",
        "state_name":"California",
        "brand":"99 Cents Only",
        "updated":"2024-03-14"
    },
    {
        "store_id":"2242783",
        "store_name":"Alhambra",
        "street":"2810 W. Alhambra Rd",
        "city":"Alhambra",
        "state":"CA",
        "zip":"91801",
        "url":"https:\/\/locations.99only.com\/ca\/alhambra\/discount-store-184.html",
        "latitude":"34.0978818",
        "longitude":"-118.1545993",
        "state_name":"California",
        "brand":"99 Cents Only",
        "updated":"2024-03-14"
    },
    {
        "store_id":"2242648",
        "store_name":"Pasadena",
        "street":"442 N. Los Robles Ave",
        "city":"Pasadena",
        "state":"CA",
        "zip":"91101",
        "url":"https:\/\/locations.99only.com\/ca\/pasadena\/discount-store-7.html",
        "latitude":"34.1534338",
        "longitude":"-118.1404085",
        "state_name":"California",
        "brand":"99 Cents Only",
        "updated":"2024-03-14"
    },
    {
        "store_id":"2242652",
        "store_name":"Hawthorne - 118th Street",
        "street":"11811 Hawthorne Blvd",
        "city":"Hawthorne",
        "state":"CA",
        "zip":"90250",
        "url":"https:\/\/locations.99only.com\/ca\/hawthorne\/discount-store-19.html",
        "latitude":"33.9270991",
        "longitude":"-118.3537639",
        "state_name":"California",
        "brand":"99 Cents Only",
        "updated":"2024-03-14"
    },
    {
        "store_id":"2242795",
        "store_name":"Gardena",
        "street":"15505 S. Normandie Ave",
        "city":"Gardena",
        "state":"CA",
        "zip":"90247",
        "url":"https:\/\/locations.99only.com\/ca\/gardena\/discount-store-199.html",
        "latitude":"33.8898509",
        "longitude":"-118.3006263",
        "state_name":"California",
        "brand":"99 Cents Only",
        "updated":"2024-03-14"
    },
    {
        "store_id":"2242900",
        "store_name":"Long Beach - Willow",
        "street":"1851 Willow St",
        "city":"Long Beach",
        "state":"CA",
        "zip":"90755",
        "url":"https:\/\/locations.99only.com\/ca\/longbeach\/discount-store-355.html",
        "latitude":"33.8051803",
        "longitude":"-118.1690426",
        "state_name":"California",
        "brand":"99 Cents Only",
        "updated":"2024-03-14"
    },
    {
        "store_id":"2242835",
        "store_name":"Long Beach - 20th Street",
        "street":"2012 Long Beach Blvd",
        "city":"Long Beach",
        "state":"CA",
        "zip":"90806",
        "url":"https:\/\/locations.99only.com\/ca\/longbeach\/discount-store-251.html",
        "latitude":"33.7943944",
        "longitude":"-118.1886032",
        "state_name":"California",
        "brand":"99 Cents Only",
        "updated":"2024-03-14"
    },
    {
        "store_id":"2242772",
        "store_name":"Long Beach - Orange Street",
        "street":"1190 E. Carson Street",
        "city":"Long Beach",
        "state":"CA",
        "zip":"90806",
        "url":"https:\/\/locations.99only.com\/ca\/longbeach\/discount-store-173.html",
        "latitude":"33.8317687",
        "longitude":"-118.1770865",
        "state_name":"California",
        "brand":"99 Cents Only",
        "updated":"2024-03-14"
    },
    {
        "store_id":"2242676",
        "store_name":"Lakewood",
        "street":"4929 Woodruff Ave",
        "city":"Lakewood",
        "state":"CA",
        "zip":"90713",
        "url":"https:\/\/locations.99only.com\/ca\/lakewood\/discount-store-58.html",
        "latitude":"33.8471723",
        "longitude":"-118.1167655",
        "state_name":"California",
        "brand":"99 Cents Only",
        "updated":"2024-03-14"
    },
    {
        "store_id":"2242666",
        "store_name":"Hawaiian Gardens",
        "street":"12125 Carson Blvd",
        "city":"Hawaiian Gardens",
        "state":"CA",
        "zip":"90716",
        "url":"https:\/\/locations.99only.com\/ca\/hawaiiangardens\/discount-store-46.html",
        "latitude":"33.8319694",
        "longitude":"-118.0733103",
        "state_name":"California",
        "brand":"99 Cents Only",
        "updated":"2024-03-14"
    },
    {
        "store_id":"2242873",
        "store_name":"Artesia",
        "street":"11732 South St",
        "city":"Artesia",
        "state":"CA",
        "zip":"90701",
        "url":"https:\/\/locations.99only.com\/ca\/artesia\/discount-store-321.html",
        "latitude":"33.8580158",
        "longitude":"-118.0835475",
        "state_name":"California",
        "brand":"99 Cents Only",
        "updated":"2024-03-14"
    },
    {
        "store_id":"2242851",
        "store_name":"Wilmington",
        "street":"401 W Anaheim St",
        "city":"Wilmington",
        "state":"CA",
        "zip":"90744",
        "url":"https:\/\/locations.99only.com\/ca\/wilmington\/discount-store-283.html",
        "latitude":"33.7800475",
        "longitude":"-118.2673385",
        "state_name":"California",
        "brand":"99 Cents Only",
        "updated":"2024-03-14"
    },
    {
        "store_id":"2242745",
        "store_name":"Garden Grove - Valley View",
        "street":"12431 Valley View St",
        "city":"Garden Grove",
        "state":"CA",
        "zip":"92845",
        "url":"https:\/\/locations.99only.com\/ca\/gardengrove\/discount-store-141.html",
        "latitude":"33.7817379",
        "longitude":"-118.0309592",
        "state_name":"California",
        "brand":"99 Cents Only",
        "updated":"2024-03-14"
    },
    {
        "store_id":"2242958",
        "store_name":"Cypress - Walker",
        "street":"9937 Walker St",
        "city":"Cypress",
        "state":"CA",
        "zip":"90630",
        "url":"https:\/\/locations.99only.com\/ca\/cypress\/discount-store-418.html",
        "latitude":"33.8180747",
        "longitude":"-118.0380947",
        "state_name":"California",
        "brand":"99 Cents Only",
        "updated":"2024-03-14"
    },
    {
        "store_id":"2242947",
        "store_name":"Paramount - Downey",
        "street":"15727 Downey Ave",
        "city":"Paramount",
        "state":"CA",
        "zip":"90723",
        "url":"https:\/\/locations.99only.com\/ca\/paramount\/discount-store-406.html",
        "latitude":"33.8904001",
        "longitude":"-118.1527755",
        "state_name":"California",
        "brand":"99 Cents Only",
        "updated":"2024-03-14"
    },
    {
        "store_id":"2242662",
        "store_name":"Woodman",
        "street":"8625 Woodman Ave",
        "city":"Arleta",
        "state":"CA",
        "zip":"91331",
        "url":"https:\/\/locations.99only.com\/ca\/arleta\/discount-store-42.html",
        "latitude":"34.2269624",
        "longitude":"-118.4342909",
        "state_name":"California",
        "brand":"99 Cents Only",
        "updated":"2024-03-14"
    },
    {
        "store_id":"2242819",
        "store_name":"North Hills",
        "street":"8723 Sepulveda Blvd",
        "city":"North Hills",
        "state":"CA",
        "zip":"91343",
        "url":"https:\/\/locations.99only.com\/ca\/northhills\/discount-store-227.html",
        "latitude":"34.2290839",
        "longitude":"-118.4689832",
        "state_name":"California",
        "brand":"99 Cents Only",
        "updated":"2024-03-14"
    },
    {
        "store_id":"2242695",
        "store_name":"Van Nuys",
        "street":"6755 Van Nuys Blvd",
        "city":"Van Nuys",
        "state":"CA",
        "zip":"91405",
        "url":"https:\/\/locations.99only.com\/ca\/vannuys\/discount-store-81.html",
        "latitude":"34.1937993",
        "longitude":"-118.4489349",
        "state_name":"California",
        "brand":"99 Cents Only",
        "updated":"2024-03-14"
    },
    {
        "store_id":"2242679",
        "store_name":"North Hollywood",
        "street":"12711 Sherman Way",
        "city":"North Hollywood",
        "state":"CA",
        "zip":"91605",
        "url":"https:\/\/locations.99only.com\/ca\/northhollywood\/discount-store-61.html",
        "latitude":"34.2023039",
        "longitude":"-118.4098295",
        "state_name":"California",
        "brand":"99 Cents Only",
        "updated":"2024-03-14"
    },
    {
        "store_id":"2242940",
        "store_name":"Sun Valley",
        "street":"8437 Laurel Canyon Blvd",
        "city":"Sun Valley",
        "state":"CA",
        "zip":"91352",
        "url":"https:\/\/locations.99only.com\/ca\/sunvalley\/discount-store-399.html",
        "latitude":"34.224329",
        "longitude":"-118.3982821",
        "state_name":"California",
        "brand":"99 Cents Only",
        "updated":"2024-03-14"
    },
    {
        "store_id":"2242868",
        "store_name":"North Hollywood - Laurel Canyon",
        "street":"6639 Laurel Canyon Bl",
        "city":"North Hollywood",
        "state":"CA",
        "zip":"91606",
        "url":"https:\/\/locations.99only.com\/ca\/northhollywood\/discount-store-315.html",
        "latitude":"34.1913992",
        "longitude":"-118.3974605",
        "state_name":"California",
        "brand":"99 Cents Only",
        "updated":"2024-03-14"
    },
    {
        "store_id":"2243029",
        "store_name":"Van Nuys",
        "street":"16107 Victory Blvd",
        "city":"Van Nuys",
        "state":"CA",
        "zip":"91406",
        "url":"https:\/\/locations.99only.com\/ca\/vannuys\/discount-store-450.html",
        "latitude":"34.1870079",
        "longitude":"-118.4850363",
        "state_name":"California",
        "brand":"99 Cents Only",
        "updated":"2024-03-14"
    },
    {
        "store_id":"2242674",
        "store_name":"Granada Hill",
        "street":"17040 Chatsworth St",
        "city":"Granada Hills",
        "state":"CA",
        "zip":"91344",
        "url":"https:\/\/locations.99only.com\/ca\/granadahills\/discount-store-55.html",
        "latitude":"34.2639928",
        "longitude":"-118.5038219",
        "state_name":"California",
        "brand":"99 Cents Only",
        "updated":"2024-03-14"
    },
    {
        "store_id":"2242821",
        "store_name":"North Hollywood - Victory",
        "street":"10911 Victory Boulevard",
        "city":"North Hollywood",
        "state":"CA",
        "zip":"91506",
        "url":"https:\/\/locations.99only.com\/ca\/northhollywood\/discount-store-230.html",
        "latitude":"34.187210",
        "longitude":"-118.368960",
        "state_name":"California",
        "brand":"99 Cents Only",
        "updated":"2024-03-14"
    },
    {
        "store_id":"2242667",
        "store_name":"Reseda",
        "street":"18215 Sherman Way",
        "city":"Reseda",
        "state":"CA",
        "zip":"91335",
        "url":"https:\/\/locations.99only.com\/ca\/reseda\/discount-store-47.html",
        "latitude":"34.2020416",
        "longitude":"-118.5299114",
        "state_name":"California",
        "brand":"99 Cents Only",
        "updated":"2024-03-14"
    },
    {
        "store_id":"2242906",
        "store_name":"West LA - Pico",
        "street":"11040 W Pico Blvd",
        "city":"Los Angeles",
        "state":"CA",
        "zip":"90064",
        "url":"https:\/\/locations.99only.com\/ca\/losangeles\/discount-store-361.html",
        "latitude":"34.0373645",
        "longitude":"-118.4333762",
        "state_name":"California",
        "brand":"99 Cents Only",
        "updated":"2024-03-14"
    },
    {
        "store_id":"2242657",
        "store_name":"Santa Monica",
        "street":"2801 Pico Blvd",
        "city":"Santa Monica",
        "state":"CA",
        "zip":"90405",
        "url":"https:\/\/locations.99only.com\/ca\/santamonica\/discount-store-35.html",
        "latitude":"34.024626",
        "longitude":"-118.4604925",
        "state_name":"California",
        "brand":"99 Cents Only",
        "updated":"2024-03-14"
    },
    {
        "store_id":"2242863",
        "store_name":"Redondo Beach",
        "street":"2701 Manhattan Beach Blvd",
        "city":"Redondo Beach",
        "state":"CA",
        "zip":"90278",
        "url":"https:\/\/locations.99only.com\/ca\/redondobeach\/discount-store-310.html",
        "latitude":"33.8885475",
        "longitude":"-118.3624299",
        "state_name":"California",
        "brand":"99 Cents Only",
        "updated":"2024-03-14"
    },
    {
        "store_id":"2242842",
        "store_name":"Torrance - 182nd Street",
        "street":"1820 W. 182nd St",
        "city":"Torrance",
        "state":"CA",
        "zip":"90504",
        "url":"https:\/\/locations.99only.com\/ca\/torrance\/discount-store-266.html",
        "latitude":"33.8645752",
        "longitude":"-118.3100422",
        "state_name":"California",
        "brand":"99 Cents Only",
        "updated":"2024-03-14"
    },
    {
        "store_id":"2242921",
        "store_name":"El Segundo",
        "street":"300 Richmond St",
        "city":"El Segundo",
        "state":"CA",
        "zip":"90245",
        "url":"https:\/\/locations.99only.com\/ca\/elsegundo\/discount-store-377.html",
        "latitude":"33.919876",
        "longitude":"-118.4169601",
        "state_name":"California",
        "brand":"99 Cents Only",
        "updated":"2024-03-14"
    },
    {
        "store_id":"2242683",
        "store_name":"South Bay",
        "street":"5130 190th St",
        "city":"Torrance",
        "state":"CA",
        "zip":"90504",
        "url":"https:\/\/locations.99only.com\/ca\/torrance\/discount-store-65.html",
        "latitude":"33.8581561",
        "longitude":"-118.3669202",
        "state_name":"California",
        "brand":"99 Cents Only",
        "updated":"2024-03-14"
    },
    {
        "store_id":"2242659",
        "store_name":"Santa Ana",
        "street":"1514 N. Main St",
        "city":"Santa Ana",
        "state":"CA",
        "zip":"92701",
        "url":"https:\/\/locations.99only.com\/ca\/santaana\/discount-store-39.html",
        "latitude":"33.7583434",
        "longitude":"-117.8678641",
        "state_name":"California",
        "brand":"99 Cents Only",
        "updated":"2024-03-14"
    },
    {
        "store_id":"2242928",
        "store_name":"Tustin",
        "street":"13721 Newport Ave",
        "city":"Tustin",
        "state":"CA",
        "zip":"92780",
        "url":"https:\/\/locations.99only.com\/ca\/tustin\/discount-store-384.html",
        "latitude":"33.7418548",
        "longitude":"-117.8203528",
        "state_name":"California",
        "brand":"99 Cents Only",
        "updated":"2024-03-14"
    },
    {
        "store_id":"2242889",
        "store_name":"Orange",
        "street":"789 South Tustin St",
        "city":"Orange",
        "state":"CA",
        "zip":"92866",
        "url":"https:\/\/locations.99only.com\/ca\/orange\/discount-store-341.html",
        "latitude":"33.7755169",
        "longitude":"-117.8350749",
        "state_name":"California",
        "brand":"99 Cents Only",
        "updated":"2024-03-14"
    },
    {
        "store_id":"2242963",
        "store_name":"Tustin - Red Hill",
        "street":"14551 Red Hill Ave",
        "city":"Tustin",
        "state":"CA",
        "zip":"92780",
        "url":"https:\/\/locations.99only.com\/ca\/tustin\/discount-store-425.html",
        "latitude":"33.7276803",
        "longitude":"-117.8226253",
        "state_name":"California",
        "brand":"99 Cents Only",
        "updated":"2024-03-14"
    },
    {
        "store_id":"2242692",
        "store_name":"Santa Ana - Bristol",
        "street":"2311 S. Bristol St",
        "city":"Santa Ana",
        "state":"CA",
        "zip":"92704",
        "url":"https:\/\/locations.99only.com\/ca\/santaana\/discount-store-77.html",
        "latitude":"33.7154917",
        "longitude":"-117.8844042",
        "state_name":"California",
        "brand":"99 Cents Only",
        "updated":"2024-03-14"
    },
    {
        "store_id":"2242647",
        "store_name":"Garden Grove",
        "street":"13061 Harbor Blvd",
        "city":"Garden Grove",
        "state":"CA",
        "zip":"92843",
        "url":"https:\/\/locations.99only.com\/ca\/gardengrove\/discount-store-5.html",
        "latitude":"33.7733897",
        "longitude":"-117.9216506",
        "state_name":"California",
        "brand":"99 Cents Only",
        "updated":"2024-03-14"
    },
    {
        "store_id":"2242663",
        "store_name":"Garden Grove - Westminster",
        "street":"9920 Westminster Ave",
        "city":"Garden Grove",
        "state":"CA",
        "zip":"92844",
        "url":"https:\/\/locations.99only.com\/ca\/gardengrove\/discount-store-43.html",
        "latitude":"33.7583988",
        "longitude":"-117.9557452",
        "state_name":"California",
        "brand":"99 Cents Only",
        "updated":"2024-03-14"
    },
    {
        "store_id":"2242712",
        "store_name":"Anaheim - State College",
        "street":"2270 E. Lincoln Ave",
        "city":"Anaheim",
        "state":"CA",
        "zip":"92806",
        "url":"https:\/\/locations.99only.com\/ca\/anaheim\/discount-store-100.html",
        "latitude":"33.8378922",
        "longitude":"-117.8848486",
        "state_name":"California",
        "brand":"99 Cents Only",
        "updated":"2024-03-14"
    },
    {
        "store_id":"2242709",
        "store_name":"Huntington Beach - Brookhurst",
        "street":"19050 Brookhurst St",
        "city":"Huntington Beach",
        "state":"CA",
        "zip":"92646",
        "url":"https:\/\/locations.99only.com\/ca\/huntingtonbeach\/discount-store-97.html",
        "latitude":"33.6858654",
        "longitude":"-117.9529066",
        "state_name":"California",
        "brand":"99 Cents Only",
        "updated":"2024-03-14"
    },
    {
        "store_id":"2242954",
        "store_name":"Anaheim - Euclid",
        "street":"910 S. Euclid St",
        "city":"Anaheim",
        "state":"CA",
        "zip":"92802",
        "url":"https:\/\/locations.99only.com\/ca\/anaheim\/discount-store-414.html",
        "latitude":"33.819685",
        "longitude":"-117.9406554",
        "state_name":"California",
        "brand":"99 Cents Only",
        "updated":"2024-03-14"
    },
    {
        "store_id":"2242690",
        "store_name":"Huntington Beach - Beach Blvd",
        "street":"16672 Beach Blvd",
        "city":"Huntington Beach",
        "state":"CA",
        "zip":"92647",
        "url":"https:\/\/locations.99only.com\/ca\/huntingtonbeach\/discount-store-75.html",
        "latitude":"33.7203397",
        "longitude":"-117.9875915",
        "state_name":"California",
        "brand":"99 Cents Only",
        "updated":"2024-03-14"
    },
    {
        "store_id":"2242916",
        "store_name":"Garden Grove - Magnolia",
        "street":"11072 Magnolia St.",
        "city":"Garden Grove",
        "state":"CA",
        "zip":"92841",
        "url":"https:\/\/locations.99only.com\/ca\/gardengrove\/discount-store-372.html",
        "latitude":"33.8021122",
        "longitude":"-117.9742314",
        "state_name":"California",
        "brand":"99 Cents Only",
        "updated":"2024-03-14"
    },
    {
        "store_id":"2242756",
        "store_name":"Bellflower",
        "street":"14317 Clark Ave",
        "city":"Bellflower",
        "state":"CA",
        "zip":"90706",
        "url":"https:\/\/locations.99only.com\/ca\/bellflower\/discount-store-152.html",
        "latitude":"33.9032882",
        "longitude":"-118.1352177",
        "state_name":"California",
        "brand":"99 Cents Only",
        "updated":"2024-03-14"
    },
    {
        "store_id":"2242908",
        "store_name":"Santa Fe Springs",
        "street":"11550 Telegraph Rd",
        "city":"Santa Fe Springs",
        "state":"CA",
        "zip":"90670",
        "url":"https:\/\/locations.99only.com\/ca\/santafesprings\/discount-store-363.html",
        "latitude":"33.9471863",
        "longitude":"-118.087486",
        "state_name":"California",
        "brand":"99 Cents Only",
        "updated":"2024-03-14"
    },
    {
        "store_id":"2242668",
        "store_name":"Harbor City",
        "street":"955 W. Sepulveda Blvd",
        "city":"Harbor City",
        "state":"CA",
        "zip":"90502",
        "url":"https:\/\/locations.99only.com\/ca\/harborcity\/discount-store-48.html",
        "latitude":"33.8117539",
        "longitude":"-118.2913055",
        "state_name":"California",
        "brand":"99 Cents Only",
        "updated":"2024-03-14"
    },
    {
        "store_id":"2242665",
        "store_name":"San Pedro",
        "street":"938 S. Gaffey St",
        "city":"San Pedro",
        "state":"CA",
        "zip":"90731",
        "url":"https:\/\/locations.99only.com\/ca\/sanpedro\/discount-store-45.html",
        "latitude":"33.7354332",
        "longitude":"-118.2920819",
        "state_name":"California",
        "brand":"99 Cents Only",
        "updated":"2024-03-14"
    },
    {
        "store_id":"2242922",
        "store_name":"Carson",
        "street":"619 E. University Dr",
        "city":"Carson",
        "state":"CA",
        "zip":"90746",
        "url":"https:\/\/locations.99only.com\/ca\/carson\/discount-store-378.html",
        "latitude":"33.859165",
        "longitude":"-118.2651789",
        "state_name":"California",
        "brand":"99 Cents Only",
        "updated":"2024-03-14"
    },
    {
        "store_id":"2242864",
        "store_name":"Lomita",
        "street":"2159-2167 Pacific Coast Hwy",
        "city":"Lomita",
        "state":"CA",
        "zip":"90717",
        "url":"https:\/\/locations.99only.com\/ca\/lomita\/discount-store-311.html",
        "latitude":"33.7902843",
        "longitude":"-118.3188894",
        "state_name":"California",
        "brand":"99 Cents Only",
        "updated":"2024-03-14"
    },
    {
        "store_id":"2243014",
        "store_name":"Houston - Bellaire",
        "street":"5800 Bellaire Suite 1-101",
        "city":"Houston",
        "state":"TX",
        "zip":"77081",
        "url":"https:\/\/locations.99only.com\/tx\/houston\/discount-store-2860.html",
        "latitude":"29.7062061",
        "longitude":"-95.4839459",
        "state_name":"Texas",
        "brand":"99 Cents Only",
        "updated":"2024-03-14"
    },
    {
        "store_id":"2242981",
        "store_name":"Houston - Westheimer",
        "street":"7639 Westheimer",
        "city":"Houston",
        "state":"TX",
        "zip":"77063",
        "url":"https:\/\/locations.99only.com\/tx\/houston\/discount-store-2802.html",
        "latitude":"29.7363451",
        "longitude":"-95.5039196",
        "state_name":"Texas",
        "brand":"99 Cents Only",
        "updated":"2024-03-14"
    },
    {
        "store_id":"2242990",
        "store_name":"Houston - Gessner",
        "street":"8700 S. Gessner, #100",
        "city":"Houston",
        "state":"TX",
        "zip":"77074",
        "url":"https:\/\/locations.99only.com\/tx\/houston\/discount-store-2816.html",
        "latitude":"29.685835",
        "longitude":"-95.5296598",
        "state_name":"Texas",
        "brand":"99 Cents Only",
        "updated":"2024-03-14"
    },
    {
        "store_id":"2243026",
        "store_name":"Houston - Stella Link",
        "street":"9333 Stella Link Rd",
        "city":"Houston",
        "state":"TX",
        "zip":"77025",
        "url":"https:\/\/locations.99only.com\/tx\/houston\/discount-store-2883.html",
        "latitude":"29.6805473",
        "longitude":"-95.4392094",
        "state_name":"Texas",
        "brand":"99 Cents Only",
        "updated":"2024-03-14"
    },
    {
        "store_id":"2242999",
        "store_name":"Houston - Chimney Rock",
        "street":"11320 Chimney Rock Rd",
        "city":"Houston",
        "state":"TX",
        "zip":"77035",
        "url":"https:\/\/locations.99only.com\/tx\/houston\/discount-store-2836.html",
        "latitude":"29.657472",
        "longitude":"-95.4780269",
        "state_name":"Texas",
        "brand":"99 Cents Only",
        "updated":"2024-03-14"
    },
    {
        "store_id":"2242988",
        "store_name":"Houston - Bissonnet",
        "street":"11873 Bissonnet St",
        "city":"Houston",
        "state":"TX",
        "zip":"77099",
        "url":"https:\/\/locations.99only.com\/tx\/houston\/discount-store-2814.html",
        "latitude":"29.6741349",
        "longitude":"-95.5860573",
        "state_name":"Texas",
        "brand":"99 Cents Only",
        "updated":"2024-03-14"
    },
    {
        "store_id":"2242998",
        "store_name":"Houston - Westheimer\/Hwy 6",
        "street":"14310 Westheimer Rd",
        "city":"Houston",
        "state":"TX",
        "zip":"77077",
        "url":"https:\/\/locations.99only.com\/tx\/houston\/discount-store-2835.html",
        "latitude":"29.736546",
        "longitude":"-95.6411278",
        "state_name":"Texas",
        "brand":"99 Cents Only",
        "updated":"2024-03-14"
    },
    {
        "store_id":"2243017",
        "store_name":"Houston - Tidwell",
        "street":"5550 N. Fwy",
        "city":"Houston",
        "state":"TX",
        "zip":"77076",
        "url":"https:\/\/locations.99only.com\/tx\/houston\/discount-store-2874.html",
        "latitude":"29.8480935",
        "longitude":"-95.3927726",
        "state_name":"Texas",
        "brand":"99 Cents Only",
        "updated":"2024-03-14"
    },
    {
        "store_id":"2243010",
        "store_name":"Houston - Lawndale",
        "street":"7061 Lawndale St",
        "city":"Houston",
        "state":"TX",
        "zip":"77023",
        "url":"https:\/\/locations.99only.com\/tx\/houston\/discount-store-2852.html",
        "latitude":"29.7182918",
        "longitude":"-95.2957943",
        "state_name":"Texas",
        "brand":"99 Cents Only",
        "updated":"2024-03-14"
    },
    {
        "store_id":"2243008",
        "store_name":"Houston - Hobby",
        "street":"8330 Broadway St",
        "city":"Houston",
        "state":"TX",
        "zip":"77061",
        "url":"https:\/\/locations.99only.com\/tx\/houston\/discount-store-2850.html",
        "latitude":"29.6708081",
        "longitude":"-95.2779809",
        "state_name":"Texas",
        "brand":"99 Cents Only",
        "updated":"2024-03-14"
    },
    {
        "store_id":"2242701",
        "store_name":"Woodland Hills",
        "street":"19836 Ventura Blvd",
        "city":"Woodland Hills",
        "state":"CA",
        "zip":"91364",
        "url":"https:\/\/locations.99only.com\/ca\/woodlandhills\/discount-store-87.html",
        "latitude":"34.1715144",
        "longitude":"-118.5642234",
        "state_name":"California",
        "brand":"99 Cents Only",
        "updated":"2024-03-14"
    },
    {
        "store_id":"2242654",
        "store_name":"Pico Rivera",
        "street":"9535 Whittier Blvd",
        "city":"Pico Rivera",
        "state":"CA",
        "zip":"90660",
        "url":"https:\/\/locations.99only.com\/ca\/picorivera\/discount-store-31.html",
        "latitude":"33.99783",
        "longitude":"-118.0746821",
        "state_name":"California",
        "brand":"99 Cents Only",
        "updated":"2024-03-14"
    },
    {
        "store_id":"2242710",
        "store_name":"Pasadena - Colorado",
        "street":"1720 E. Colorado Blvd",
        "city":"Pasadena",
        "state":"CA",
        "zip":"91106",
        "url":"https:\/\/locations.99only.com\/ca\/pasadena\/discount-store-98.html",
        "latitude":"34.1456324",
        "longitude":"-118.1151025",
        "state_name":"California",
        "brand":"99 Cents Only",
        "updated":"2024-03-14"
    },
    {
        "store_id":"2242653",
        "store_name":"Temple City",
        "street":"9565 Las Tunas Dr",
        "city":"Temple City",
        "state":"CA",
        "zip":"91780",
        "url":"https:\/\/locations.99only.com\/ca\/templecity\/discount-store-28.html",
        "latitude":"34.1068232",
        "longitude":"-118.0616297",
        "state_name":"California",
        "brand":"99 Cents Only",
        "updated":"2024-03-14"
    },
    {
        "store_id":"2242686",
        "store_name":"Arcadia",
        "street":"140 E. Duarte Rd",
        "city":"Arcadia",
        "state":"CA",
        "zip":"91006",
        "url":"https:\/\/locations.99only.com\/ca\/arcadia\/discount-store-69.html",
        "latitude":"34.1299324",
        "longitude":"-118.026568",
        "state_name":"California",
        "brand":"99 Cents Only",
        "updated":"2024-03-14"
    },
    {
        "store_id":"2242671",
        "store_name":"El Monte",
        "street":"11114 Ramona Blvd",
        "city":"El Monte",
        "state":"CA",
        "zip":"91731",
        "url":"https:\/\/locations.99only.com\/ca\/elmonte\/discount-store-52.html",
        "latitude":"34.0726051",
        "longitude":"-118.0309592",
        "state_name":"California",
        "brand":"99 Cents Only",
        "updated":"2024-03-14"
    },
    {
        "store_id":"2242844",
        "store_name":"San Jose",
        "street":"1915 W. San Carlos St",
        "city":"San Jose",
        "state":"CA",
        "zip":"95128",
        "url":"https:\/\/locations.99only.com\/ca\/sanjose\/discount-store-270.html",
        "latitude":"37.3237555",
        "longitude":"-121.9292671",
        "state_name":"California",
        "brand":"99 Cents Only",
        "updated":"2024-03-14"
    },
    {
        "store_id":"2242816",
        "store_name":"Gilroy",
        "street":"260 East 10th St",
        "city":"Gilroy",
        "state":"CA",
        "zip":"95020",
        "url":"https:\/\/locations.99only.com\/ca\/gilroy\/discount-store-224.html",
        "latitude":"37.0001673",
        "longitude":"-121.5619227",
        "state_name":"California",
        "brand":"99 Cents Only",
        "updated":"2024-03-14"
    },
    {
        "store_id":"2242969",
        "store_name":"Tracy - Grant Line",
        "street":"2888 W Grant Line Rd",
        "city":"Tracy",
        "state":"CA",
        "zip":"95304",
        "url":"https:\/\/locations.99only.com\/ca\/tracy\/discount-store-433.html",
        "latitude":"37.7523169",
        "longitude":"-121.4695184",
        "state_name":"California",
        "brand":"99 Cents Only",
        "updated":"2024-03-14"
    },
    {
        "store_id":"2242784",
        "store_name":"Tracy",
        "street":"1320 W. 11th St",
        "city":"Tracy",
        "state":"CA",
        "zip":"95376",
        "url":"https:\/\/locations.99only.com\/ca\/tracy\/discount-store-185.html",
        "latitude":"37.7391972",
        "longitude":"-121.4422254",
        "state_name":"California",
        "brand":"99 Cents Only",
        "updated":"2024-03-14"
    },
    {
        "store_id":"2242853",
        "store_name":"San Diego - Market Street",
        "street":"2611 Market Street",
        "city":"San Diego",
        "state":"CA",
        "zip":"92101",
        "url":"https:\/\/locations.99only.com\/ca\/sandiego\/discount-store-287.html",
        "latitude":"32.7112935",
        "longitude":"-117.1377935",
        "state_name":"California",
        "brand":"99 Cents Only",
        "updated":"2024-03-14"
    },
    {
        "store_id":"2242805",
        "store_name":"San Diego - Marketplace",
        "street":"265 Marketplace Ave",
        "city":"San Diego",
        "state":"CA",
        "zip":"92113",
        "url":"https:\/\/locations.99only.com\/ca\/sandiego\/discount-store-212.html",
        "latitude":"32.7029596",
        "longitude":"-117.1000473",
        "state_name":"California",
        "brand":"99 Cents Only",
        "updated":"2024-03-14"
    },
    {
        "store_id":"2242748",
        "store_name":"San Diego - University",
        "street":"5931 University Ave",
        "city":"San Diego",
        "state":"CA",
        "zip":"92115",
        "url":"https:\/\/locations.99only.com\/ca\/sandiego\/discount-store-144.html",
        "latitude":"32.7494904",
        "longitude":"-117.0692488",
        "state_name":"California",
        "brand":"99 Cents Only",
        "updated":"2024-03-14"
    },
    {
        "store_id":"2242713",
        "store_name":"National City",
        "street":"1320 Highland Ave",
        "city":"National City",
        "state":"CA",
        "zip":"91950",
        "url":"https:\/\/locations.99only.com\/ca\/nationalcity\/discount-store-101.html",
        "latitude":"32.6730826",
        "longitude":"-117.0977238",
        "state_name":"California",
        "brand":"99 Cents Only",
        "updated":"2024-03-14"
    },
    {
        "store_id":"2242754",
        "store_name":"La Mesa",
        "street":"7908 El Cajon Blvd",
        "city":"La Mesa",
        "state":"CA",
        "zip":"91941",
        "url":"https:\/\/locations.99only.com\/ca\/lamesa\/discount-store-150.html",
        "latitude":"32.7700679",
        "longitude":"-117.0269048",
        "state_name":"California",
        "brand":"99 Cents Only",
        "updated":"2024-03-14"
    },
    {
        "store_id":"2242746",
        "store_name":"San Diego - Clairemont",
        "street":"4140 Clairemont Mesa Blvd",
        "city":"San Diego",
        "state":"CA",
        "zip":"92117",
        "url":"https:\/\/locations.99only.com\/ca\/sandiego\/discount-store-142.html",
        "latitude":"32.830411",
        "longitude":"-117.2022827",
        "state_name":"California",
        "brand":"99 Cents Only",
        "updated":"2024-03-14"
    },
    {
        "store_id":"2242858",
        "store_name":"El Cajon - Fletcher",
        "street":"2320 Fletcher Pkwy",
        "city":"El Cajon",
        "state":"CA",
        "zip":"92020",
        "url":"https:\/\/locations.99only.com\/ca\/elcajon\/discount-store-293.html",
        "latitude":"32.8032086",
        "longitude":"-116.9960035",
        "state_name":"California",
        "brand":"99 Cents Only",
        "updated":"2024-03-14"
    },
    {
        "store_id":"2242975",
        "store_name":"Chula Vista - 3rd Ave",
        "street":"1030 3rd Ave",
        "city":"Chula Vista",
        "state":"CA",
        "zip":"91911",
        "url":"https:\/\/locations.99only.com\/ca\/chulavista\/discount-store-443.html",
        "latitude":"32.6154852",
        "longitude":"-117.0715014",
        "state_name":"California",
        "brand":"99 Cents Only",
        "updated":"2024-03-14"
    },
    {
        "store_id":"2242955",
        "store_name":"Santee - Mission Gorge",
        "street":"9751 Mission Gorge Rd",
        "city":"Santee",
        "state":"CA",
        "zip":"92071",
        "url":"https:\/\/locations.99only.com\/ca\/santee\/discount-store-415.html",
        "latitude":"32.8372428",
        "longitude":"-116.9851502",
        "state_name":"California",
        "brand":"99 Cents Only",
        "updated":"2024-03-14"
    },
    {
        "store_id":"2242689",
        "store_name":"San Diego",
        "street":"1862 Palm Ave",
        "city":"San Diego",
        "state":"CA",
        "zip":"92154",
        "url":"https:\/\/locations.99only.com\/ca\/sandiego\/discount-store-73.html",
        "latitude":"32.5846273",
        "longitude":"-117.0934743",
        "state_name":"California",
        "brand":"99 Cents Only",
        "updated":"2024-03-14"
    },
    {
        "store_id":"2243004",
        "store_name":"Dallas - Live Oak",
        "street":"4500 Live Oak St",
        "city":"Dallas",
        "state":"TX",
        "zip":"75204",
        "url":"https:\/\/locations.99only.com\/tx\/dallas\/discount-store-2845.html",
        "latitude":"32.7991208",
        "longitude":"-96.7755859",
        "state_name":"Texas",
        "brand":"99 Cents Only",
        "updated":"2024-03-14"
    },
    {
        "store_id":"2243005",
        "store_name":"Dallas - Bruton",
        "street":"9009 Bruton Rd",
        "city":"Dallas",
        "state":"TX",
        "zip":"75217",
        "url":"https:\/\/locations.99only.com\/tx\/dallas\/discount-store-2847.html",
        "latitude":"32.7491775",
        "longitude":"-96.6662969",
        "state_name":"Texas",
        "brand":"99 Cents Only",
        "updated":"2024-03-14"
    },
    {
        "store_id":"2243000",
        "store_name":"Dallas - Preston",
        "street":"13444 Preston Rd",
        "city":"Dallas",
        "state":"TX",
        "zip":"75240",
        "url":"https:\/\/locations.99only.com\/tx\/dallas\/discount-store-2837.html",
        "latitude":"32.9313022",
        "longitude":"-96.8025304",
        "state_name":"Texas",
        "brand":"99 Cents Only",
        "updated":"2024-03-14"
    },
    {
        "store_id":"2242993",
        "store_name":"Garland - Centerville",
        "street":"950 W. Centerville Rd",
        "city":"Garland",
        "state":"TX",
        "zip":"75041",
        "url":"https:\/\/locations.99only.com\/tx\/garland\/discount-store-2821.html",
        "latitude":"32.8585714",
        "longitude":"-96.643602",
        "state_name":"Texas",
        "brand":"99 Cents Only",
        "updated":"2024-03-14"
    },
    {
        "store_id":"2243019",
        "store_name":"Mesquite",
        "street":"3330 N. Galloway Ave",
        "city":"Mesquite",
        "state":"TX",
        "zip":"75150",
        "url":"https:\/\/locations.99only.com\/tx\/mesquite\/discount-store-2876.html",
        "latitude":"32.8118397",
        "longitude":"-96.6090008",
        "state_name":"Texas",
        "brand":"99 Cents Only",
        "updated":"2024-03-14"
    },
    {
        "store_id":"2243022",
        "store_name":"Duncanville",
        "street":"410 E.Camp Wisdom Rd",
        "city":"Duncanville",
        "state":"TX",
        "zip":"75116",
        "url":"https:\/\/locations.99only.com\/tx\/duncanville\/discount-store-2879.html",
        "latitude":"32.661428",
        "longitude":"-96.902027",
        "state_name":"Texas",
        "brand":"99 Cents Only",
        "updated":"2024-03-14"
    },
    {
        "store_id":"2242994",
        "store_name":"Garland - Buckingham",
        "street":"1445 West Buckingham Road",
        "city":"Garland",
        "state":"TX",
        "zip":"75040",
        "url":"https:\/\/locations.99only.com\/tx\/garland\/discount-store-2822.html",
        "latitude":"32.9317057",
        "longitude":"-96.6498884",
        "state_name":"Texas",
        "brand":"99 Cents Only",
        "updated":"2024-03-14"
    },
    {
        "store_id":"2243002",
        "store_name":"Dallas - Frankford",
        "street":"3632 Frankford Rd",
        "city":"Dallas",
        "state":"TX",
        "zip":"75287",
        "url":"https:\/\/locations.99only.com\/tx\/dallas\/discount-store-2840.html",
        "latitude":"32.9956878",
        "longitude":"-96.8542551",
        "state_name":"Texas",
        "brand":"99 Cents Only",
        "updated":"2024-03-14"
    },
    {
        "store_id":"2243027",
        "store_name":"Arlington",
        "street":"908 E. Pioneer Pkwy",
        "city":"Arlington",
        "state":"TX",
        "zip":"76010",
        "url":"https:\/\/locations.99only.com\/tx\/arlington\/discount-store-2885.html",
        "latitude":"32.7069288",
        "longitude":"-97.0964924",
        "state_name":"Texas",
        "brand":"99 Cents Only",
        "updated":"2024-03-14"
    },
    {
        "store_id":"2242992",
        "store_name":"Colleyville",
        "street":"3901 Colleyville Blvd",
        "city":"Colleyville",
        "state":"TX",
        "zip":"76034",
        "url":"https:\/\/locations.99only.com\/tx\/colleyville\/discount-store-2818.html",
        "latitude":"32.8668879",
        "longitude":"-97.171029",
        "state_name":"Texas",
        "brand":"99 Cents Only",
        "updated":"2024-03-14"
    },
    {
        "store_id":"2242944",
        "store_name":"S. El Monte - Durfee",
        "street":"2035 Durfee St",
        "city":"South El Monte",
        "state":"CA",
        "zip":"91733",
        "url":"https:\/\/locations.99only.com\/ca\/southelmonte\/discount-store-403.html",
        "latitude":"34.0472292",
        "longitude":"-118.0298762",
        "state_name":"California",
        "brand":"99 Cents Only",
        "updated":"2024-03-14"
    },
    {
        "store_id":"2242688",
        "store_name":"Baldwin Park",
        "street":"14151 Ramona Blvd",
        "city":"Baldwin Park",
        "state":"CA",
        "zip":"91706",
        "url":"https:\/\/locations.99only.com\/ca\/baldwinpark\/discount-store-72.html",
        "latitude":"34.0867895",
        "longitude":"-117.9653546",
        "state_name":"California",
        "brand":"99 Cents Only",
        "updated":"2024-03-14"
    },
    {
        "store_id":"2242675",
        "store_name":"La Puente",
        "street":"1617 Hacienda Blvd",
        "city":"La Puente",
        "state":"CA",
        "zip":"91744",
        "url":"https:\/\/locations.99only.com\/ca\/lapuente\/discount-store-56.html",
        "latitude":"34.0494561",
        "longitude":"-117.9473251",
        "state_name":"California",
        "brand":"99 Cents Only",
        "updated":"2024-03-14"
    },
    {
        "store_id":"2242885",
        "store_name":"Duarte",
        "street":"1327 E. Huntington Dr",
        "city":"Duarte",
        "state":"CA",
        "zip":"91010",
        "url":"https:\/\/locations.99only.com\/ca\/duarte\/discount-store-336.html",
        "latitude":"34.1405291",
        "longitude":"-117.9758786",
        "state_name":"California",
        "brand":"99 Cents Only",
        "updated":"2024-03-14"
    },
    {
        "store_id":"2242791",
        "store_name":"Hacienda Heights",
        "street":"1120 Hacienda Blvd",
        "city":"Hacienda Heights",
        "state":"CA",
        "zip":"91745",
        "url":"https:\/\/locations.99only.com\/ca\/haciendaheights\/discount-store-193.html",
        "latitude":"34.0098399",
        "longitude":"-117.9619338",
        "state_name":"California",
        "brand":"99 Cents Only",
        "updated":"2024-03-14"
    },
    {
        "store_id":"2242888",
        "store_name":"Covina - Azusa Avenue",
        "street":"543 N. Azusa Ave",
        "city":"Covina",
        "state":"CA",
        "zip":"91722",
        "url":"https:\/\/locations.99only.com\/ca\/covina\/discount-store-340.html",
        "latitude":"34.0897646",
        "longitude":"-117.9089722",
        "state_name":"California",
        "brand":"99 Cents Only",
        "updated":"2024-03-14"
    },
    {
        "store_id":"2242965",
        "store_name":"West Covina - Amar",
        "street":"1516 Amar Rd",
        "city":"West Covina",
        "state":"CA",
        "zip":"91792",
        "url":"https:\/\/locations.99only.com\/ca\/westcovina\/discount-store-428.html",
        "latitude":"34.0294197",
        "longitude":"-117.9141443",
        "state_name":"California",
        "brand":"99 Cents Only",
        "updated":"2024-03-14"
    },
    {
        "store_id":"2242655",
        "store_name":"Norwalk",
        "street":"14029 Pioneer Blvd",
        "city":"Norwalk",
        "state":"CA",
        "zip":"90650",
        "url":"https:\/\/locations.99only.com\/ca\/norwalk\/discount-store-32.html",
        "latitude":"33.9035403",
        "longitude":"-118.0834163",
        "state_name":"California",
        "brand":"99 Cents Only",
        "updated":"2024-03-14"
    },
    {
        "store_id":"2242941",
        "store_name":"Canoga Park - DeSoto",
        "street":"6820 De Soto Ave",
        "city":"Canoga Park",
        "state":"CA",
        "zip":"91303",
        "url":"https:\/\/locations.99only.com\/ca\/canogapark\/discount-store-400.html",
        "latitude":"34.1946272",
        "longitude":"-118.5872752",
        "state_name":"California",
        "brand":"99 Cents Only",
        "updated":"2024-03-14"
    },
    {
        "store_id":"2242970",
        "store_name":"Northridge - Tampa",
        "street":"8750 Tampa Ave",
        "city":"Northridge",
        "state":"CA",
        "zip":"91324",
        "url":"https:\/\/locations.99only.com\/ca\/northridge\/discount-store-435.html",
        "latitude":"34.2296496",
        "longitude":"-118.5527188",
        "state_name":"California",
        "brand":"99 Cents Only",
        "updated":"2024-03-14"
    },
    {
        "store_id":"2242672",
        "store_name":"Fullerton",
        "street":"1845 N. Orangethorpe Ave",
        "city":"Fullerton",
        "state":"CA",
        "zip":"92833",
        "url":"https:\/\/locations.99only.com\/ca\/fullerton\/discount-store-53.html",
        "latitude":"33.859812",
        "longitude":"-117.961748",
        "state_name":"California",
        "brand":"99 Cents Only",
        "updated":"2024-03-14"
    },
    {
        "store_id":"2242786",
        "store_name":"Fullerton - Chapman",
        "street":"2450 E. Chapman Ave",
        "city":"Fullerton",
        "state":"CA",
        "zip":"92831",
        "url":"https:\/\/locations.99only.com\/ca\/fullerton\/discount-store-187.html",
        "latitude":"33.8731389",
        "longitude":"-117.8878242",
        "state_name":"California",
        "brand":"99 Cents Only",
        "updated":"2024-03-14"
    },
    {
        "store_id":"2242966",
        "store_name":"Norwalk - NW",
        "street":"12301 Norwalk Blvd",
        "city":"Norwalk",
        "state":"CA",
        "zip":"90650",
        "url":"https:\/\/locations.99only.com\/ca\/norwalk\/discount-store-429.html",
        "latitude":"33.9197218",
        "longitude":"-118.0739505",
        "state_name":"California",
        "brand":"99 Cents Only",
        "updated":"2024-03-14"
    },
    {
        "store_id":"2242802",
        "store_name":"Salinas",
        "street":"102 E. Laurel Dr",
        "city":"Salinas",
        "state":"CA",
        "zip":"93906",
        "url":"https:\/\/locations.99only.com\/ca\/salinas\/discount-store-208.html",
        "latitude":"36.6982184",
        "longitude":"-121.6508584",
        "state_name":"California",
        "brand":"99 Cents Only",
        "updated":"2024-03-14"
    },
    {
        "store_id":"2242711",
        "store_name":"San Ysidro",
        "street":"121 Louisiana Ave",
        "city":"San Ysidro",
        "state":"CA",
        "zip":"92173",
        "url":"https:\/\/locations.99only.com\/ca\/sanysidro\/discount-store-99.html",
        "latitude":"32.5498475",
        "longitude":"-117.0381238",
        "state_name":"California",
        "brand":"99 Cents Only",
        "updated":"2024-03-14"
    },
    {
        "store_id":"2242773",
        "store_name":"Costa Mesa",
        "street":"2180 Harbor Blvd",
        "city":"Costa Mesa",
        "state":"CA",
        "zip":"92627",
        "url":"https:\/\/locations.99only.com\/ca\/costamesa\/discount-store-174.html",
        "latitude":"33.6538034",
        "longitude":"-117.9188358",
        "state_name":"California",
        "brand":"99 Cents Only",
        "updated":"2024-03-14"
    },
    {
        "store_id":"2242729",
        "store_name":"Placentia",
        "street":"1260 E. Yorba Linda Blvd",
        "city":"Placentia",
        "state":"CA",
        "zip":"92870",
        "url":"https:\/\/locations.99only.com\/ca\/placentia\/discount-store-122.html",
        "latitude":"33.8874163",
        "longitude":"-117.8400246",
        "state_name":"California",
        "brand":"99 Cents Only",
        "updated":"2024-03-14"
    },
    {
        "store_id":"2242669",
        "store_name":"Huntington Beach",
        "street":"15962 Springdale  St",
        "city":"Huntington Beach",
        "state":"CA",
        "zip":"92649",
        "url":"https:\/\/locations.99only.com\/ca\/huntingtonbeach\/discount-store-49.html",
        "latitude":"33.7307532",
        "longitude":"-118.0225998",
        "state_name":"California",
        "brand":"99 Cents Only",
        "updated":"2024-03-14"
    },
    {
        "store_id":"2242658",
        "store_name":"La Mirada",
        "street":"14540 E. Leffingwell Rd",
        "city":"La Mirada",
        "state":"CA",
        "zip":"90638",
        "url":"https:\/\/locations.99only.com\/ca\/lamirada\/discount-store-37.html",
        "latitude":"33.9241108",
        "longitude":"-118.0213534",
        "state_name":"California",
        "brand":"99 Cents Only",
        "updated":"2024-03-14"
    },
    {
        "store_id":"2243003",
        "store_name":"Houston - Little York",
        "street":"10702 Easttex Fwy",
        "city":"Houston",
        "state":"TX",
        "zip":"77093",
        "url":"https:\/\/locations.99only.com\/tx\/houston\/discount-store-2843.html",
        "latitude":"29.8680007",
        "longitude":"-95.3273248",
        "state_name":"Texas",
        "brand":"99 Cents Only",
        "updated":"2024-03-14"
    },
    {
        "store_id":"2242996",
        "store_name":"Houston - Almeda Genoa",
        "street":"10220 Almeda Genoa Road",
        "city":"Houston",
        "state":"TX",
        "zip":"77034",
        "url":"https:\/\/locations.99only.com\/tx\/houston\/discount-store-2830.html",
        "latitude":"29.6267414",
        "longitude":"-95.2324589",
        "state_name":"Texas",
        "brand":"99 Cents Only",
        "updated":"2024-03-14"
    },
    {
        "store_id":"2242983",
        "store_name":"Houston - Hwy 6\/Keith",
        "street":"4980 N. Highway 6",
        "city":"Houston",
        "state":"TX",
        "zip":"77084",
        "url":"https:\/\/locations.99only.com\/tx\/houston\/discount-store-2804.html",
        "latitude":"29.8497982",
        "longitude":"-95.6445628",
        "state_name":"Texas",
        "brand":"99 Cents Only",
        "updated":"2024-03-14"
    },
    {
        "store_id":"2243020",
        "store_name":"Katy - Fry",
        "street":"3111 N. Fry Rd",
        "city":"Katy",
        "state":"TX",
        "zip":"77449",
        "url":"https:\/\/locations.99only.com\/tx\/katy\/discount-store-2877.html",
        "latitude":"29.8168612",
        "longitude":"-95.7210974",
        "state_name":"Texas",
        "brand":"99 Cents Only",
        "updated":"2024-03-14"
    },
    {
        "store_id":"2242836",
        "store_name":"Brea - Imperial",
        "street":"820 East Imperial Hwy",
        "city":"Brea",
        "state":"CA",
        "zip":"92821",
        "url":"https:\/\/locations.99only.com\/ca\/brea\/discount-store-253.html",
        "latitude":"33.9126688",
        "longitude":"-117.8927565",
        "state_name":"California",
        "brand":"99 Cents Only",
        "updated":"2024-03-14"
    },
    {
        "store_id":"2242813",
        "store_name":"Brea",
        "street":"1261 W. Central Ave",
        "city":"Brea",
        "state":"CA",
        "zip":"92821",
        "url":"https:\/\/locations.99only.com\/ca\/brea\/discount-store-221.html",
        "latitude":"33.9326429",
        "longitude":"-117.9171194",
        "state_name":"California",
        "brand":"99 Cents Only",
        "updated":"2024-03-14"
    },
    {
        "store_id":"2242962",
        "store_name":"Sylmar - Gladstone",
        "street":"13237 Gladstone Ave",
        "city":"Sylmar",
        "state":"CA",
        "zip":"91342",
        "url":"https:\/\/locations.99only.com\/ca\/sylmar\/discount-store-422.html",
        "latitude":"34.3114001",
        "longitude":"-118.4297275",
        "state_name":"California",
        "brand":"99 Cents Only",
        "updated":"2024-03-14"
    },
    {
        "store_id":"2242987",
        "store_name":"Houston - Bammel",
        "street":"13749 State Hwy 249",
        "city":"Houston",
        "state":"TX",
        "zip":"77086",
        "url":"https:\/\/locations.99only.com\/tx\/houston\/discount-store-2813.html",
        "latitude":"29.9195",
        "longitude":"-95.4957244",
        "state_name":"Texas",
        "brand":"99 Cents Only",
        "updated":"2024-03-14"
    },
    {
        "store_id":"2242781",
        "store_name":"Phoenix - Thomas",
        "street":"7620 W. Thomas Rd",
        "city":"Phoenix",
        "state":"AZ",
        "zip":"85033",
        "url":"https:\/\/locations.99only.com\/az\/phoenix\/discount-store-182.html",
        "latitude":"33.4816262",
        "longitude":"-112.2217582",
        "state_name":"Arizona",
        "brand":"99 Cents Only",
        "updated":"2024-03-14"
    },
    {
        "store_id":"2242817",
        "store_name":"Phoenix - 51st Avenue",
        "street":"5010 W. Indian School Rd",
        "city":"Phoenix",
        "state":"AZ",
        "zip":"85031",
        "url":"https:\/\/locations.99only.com\/az\/phoenix\/discount-store-225.html",
        "latitude":"33.4963304",
        "longitude":"-112.1665875",
        "state_name":"Arizona",
        "brand":"99 Cents Only",
        "updated":"2024-03-14"
    },
    {
        "store_id":"2242777",
        "store_name":"Glendale (AZ)",
        "street":"5340 W. Glendale Ave",
        "city":"Glendale",
        "state":"AZ",
        "zip":"85301",
        "url":"https:\/\/locations.99only.com\/az\/glendale\/discount-store-178.html",
        "latitude":"33.5393014",
        "longitude":"-112.1741811",
        "state_name":"Arizona",
        "brand":"99 Cents Only",
        "updated":"2024-03-14"
    },
    {
        "store_id":"2242917",
        "store_name":"Laveen",
        "street":"3610 W. Baseline Rd",
        "city":"Laveen",
        "state":"AZ",
        "zip":"85339",
        "url":"https:\/\/locations.99only.com\/az\/laveen\/discount-store-373.html",
        "latitude":"33.3791032",
        "longitude":"-112.136408",
        "state_name":"Arizona",
        "brand":"99 Cents Only",
        "updated":"2024-03-14"
    },
    {
        "store_id":"2242724",
        "store_name":"Phoenix - Indian School",
        "street":"1240 Indian School Rd",
        "city":"Phoenix",
        "state":"AZ",
        "zip":"85014",
        "url":"https:\/\/locations.99only.com\/az\/phoenix\/discount-store-116.html",
        "latitude":"33.4950599",
        "longitude":"-112.0549959",
        "state_name":"Arizona",
        "brand":"99 Cents Only",
        "updated":"2024-03-14"
    },
    {
        "store_id":"2242737",
        "store_name":"Phoenix - Peoria",
        "street":"3518 W. Peoria Ave",
        "city":"Phoenix",
        "state":"AZ",
        "zip":"85029",
        "url":"https:\/\/locations.99only.com\/az\/phoenix\/discount-store-131.html",
        "latitude":"33.5833307",
        "longitude":"-112.1354766",
        "state_name":"Arizona",
        "brand":"99 Cents Only",
        "updated":"2024-03-14"
    },
    {
        "store_id":"2242850",
        "store_name":"Phoenix - Central Avenue",
        "street":"6018 S. Central Ave",
        "city":"Phoenix",
        "state":"AZ",
        "zip":"85042",
        "url":"https:\/\/locations.99only.com\/az\/phoenix\/discount-store-282.html",
        "latitude":"33.3916291",
        "longitude":"-112.0747811",
        "state_name":"Arizona",
        "brand":"99 Cents Only",
        "updated":"2024-03-14"
    },
    {
        "store_id":"2242822",
        "store_name":"Goodyear",
        "street":"13540 W. Van Buren St",
        "city":"Goodyear",
        "state":"AZ",
        "zip":"85338",
        "url":"https:\/\/locations.99only.com\/az\/goodyear\/discount-store-231.html",
        "latitude":"33.450992",
        "longitude":"-112.3508209",
        "state_name":"Arizona",
        "brand":"99 Cents Only",
        "updated":"2024-03-14"
    },
    {
        "store_id":"2242815",
        "store_name":"Phoenix - 12th Street",
        "street":"7830 N. 12th St",
        "city":"Phoenix",
        "state":"AZ",
        "zip":"85020",
        "url":"https:\/\/locations.99only.com\/az\/phoenix\/discount-store-223.html",
        "latitude":"33.5520185",
        "longitude":"-112.0583493",
        "state_name":"Arizona",
        "brand":"99 Cents Only",
        "updated":"2024-03-14"
    },
    {
        "store_id":"2242812",
        "store_name":"Peoria",
        "street":"8375 W. Thunderbird Rd",
        "city":"Peoria",
        "state":"AZ",
        "zip":"85381",
        "url":"https:\/\/locations.99only.com\/az\/peoria\/discount-store-220.html",
        "latitude":"33.6085347",
        "longitude":"-112.23924",
        "state_name":"Arizona",
        "brand":"99 Cents Only",
        "updated":"2024-03-14"
    },
    {
        "store_id":"2242914",
        "store_name":"Mira Mesa",
        "street":"10765 Camino Ruiz Blvd",
        "city":"San Diego",
        "state":"CA",
        "zip":"92126",
        "url":"https:\/\/locations.99only.com\/ca\/sandiego\/discount-store-369.html",
        "latitude":"32.9147336",
        "longitude":"-117.142744",
        "state_name":"California",
        "brand":"99 Cents Only",
        "updated":"2024-03-14"
    },
    {
        "store_id":"2242721",
        "store_name":"Rowland Heights",
        "street":"19033 E. Colima Rd",
        "city":"Rowland Heights",
        "state":"CA",
        "zip":"91748",
        "url":"https:\/\/locations.99only.com\/ca\/rowlandheights\/discount-store-112.html",
        "latitude":"33.9882724",
        "longitude":"-117.8882887",
        "state_name":"California",
        "brand":"99 Cents Only",
        "updated":"2024-03-14"
    },
    {
        "store_id":"2242960",
        "store_name":"Glendora - Barranca",
        "street":"1788 South Barranca Ave",
        "city":"Glendora",
        "state":"CA",
        "zip":"91740",
        "url":"https:\/\/locations.99only.com\/ca\/glendora\/discount-store-420.html",
        "latitude":"34.107246",
        "longitude":"-117.88059",
        "state_name":"California",
        "brand":"99 Cents Only",
        "updated":"2024-03-14"
    },
    {
        "store_id":"2242691",
        "store_name":"Whittier",
        "street":"15345 Whittier Blvd",
        "city":"Whittier",
        "state":"CA",
        "zip":"90603",
        "url":"https:\/\/locations.99only.com\/ca\/whittier\/discount-store-76.html",
        "latitude":"33.946775",
        "longitude":"-117.9987547",
        "state_name":"California",
        "brand":"99 Cents Only",
        "updated":"2024-03-14"
    },
    {
        "store_id":"2242887",
        "store_name":"Santa Barbara",
        "street":"424 State St",
        "city":"Santa Barbara",
        "state":"CA",
        "zip":"93101",
        "url":"https:\/\/locations.99only.com\/ca\/santabarbara\/discount-store-339.html",
        "latitude":"34.4166803",
        "longitude":"-119.6946927",
        "state_name":"California",
        "brand":"99 Cents Only",
        "updated":"2024-03-14"
    },
    {
        "store_id":"2242731",
        "store_name":"Ventura",
        "street":"2709 E. Main St",
        "city":"Ventura",
        "state":"CA",
        "zip":"93003",
        "url":"https:\/\/locations.99only.com\/ca\/ventura\/discount-store-124.html",
        "latitude":"34.2743125",
        "longitude":"-119.2601473",
        "state_name":"California",
        "brand":"99 Cents Only",
        "updated":"2024-03-14"
    },
    {
        "store_id":"2242806",
        "store_name":"Ventura - Victoria",
        "street":"1425 South Victoria Ave",
        "city":"Ventura",
        "state":"CA",
        "zip":"93003",
        "url":"https:\/\/locations.99only.com\/ca\/ventura\/discount-store-213.html",
        "latitude":"34.2616976",
        "longitude":"-119.2132275",
        "state_name":"California",
        "brand":"99 Cents Only",
        "updated":"2024-03-14"
    },
    {
        "store_id":"2242699",
        "store_name":"Port Hueneme",
        "street":"2551 N. Ventura Rd",
        "city":"Port Hueneme",
        "state":"CA",
        "zip":"93041",
        "url":"https:\/\/locations.99only.com\/ca\/porthueneme\/discount-store-85.html",
        "latitude":"34.1768977",
        "longitude":"-119.1962057",
        "state_name":"California",
        "brand":"99 Cents Only",
        "updated":"2024-03-14"
    },
    {
        "store_id":"2242726",
        "store_name":"Oxnard - Ventura Blvd",
        "street":"1855 E. Ventura Blvd",
        "city":"Oxnard",
        "state":"CA",
        "zip":"93036",
        "url":"https:\/\/locations.99only.com\/ca\/oxnard\/discount-store-118.html",
        "latitude":"34.2264501",
        "longitude":"-119.1522743",
        "state_name":"California",
        "brand":"99 Cents Only",
        "updated":"2024-03-14"
    },
    {
        "store_id":"2242925",
        "store_name":"Oxnard - Rose",
        "street":"4917 S Rose Ave",
        "city":"Oxnard",
        "state":"CA",
        "zip":"93033",
        "url":"https:\/\/locations.99only.com\/ca\/oxnard\/discount-store-381.html",
        "latitude":"34.1558542",
        "longitude":"-119.1607333",
        "state_name":"California",
        "brand":"99 Cents Only",
        "updated":"2024-03-14"
    },
    {
        "store_id":"2242722",
        "store_name":"Camarillo",
        "street":"301 Arneil Rd",
        "city":"Camarillo",
        "state":"CA",
        "zip":"93010",
        "url":"https:\/\/locations.99only.com\/ca\/camarillo\/discount-store-113.html",
        "latitude":"34.2197879",
        "longitude":"-119.0408558",
        "state_name":"California",
        "brand":"99 Cents Only",
        "updated":"2024-03-14"
    },
    {
        "store_id":"2242743",
        "store_name":"Lompoc",
        "street":"1309 N. H St",
        "city":"Lompoc",
        "state":"CA",
        "zip":"93436",
        "url":"https:\/\/locations.99only.com\/ca\/lompoc\/discount-store-139.html",
        "latitude":"34.659016",
        "longitude":"-120.4592677",
        "state_name":"California",
        "brand":"99 Cents Only",
        "updated":"2024-03-14"
    },
    {
        "store_id":"2242694",
        "store_name":"El Cajon",
        "street":"1766 E. Main St",
        "city":"El Cajon",
        "state":"CA",
        "zip":"92021",
        "url":"https:\/\/locations.99only.com\/ca\/elcajon\/discount-store-80.html",
        "latitude":"32.814494",
        "longitude":"-116.9183625",
        "state_name":"California",
        "brand":"99 Cents Only",
        "updated":"2024-03-14"
    },
    {
        "store_id":"2242825",
        "store_name":"Fresno - McKinley",
        "street":"1520 N. First St",
        "city":"Fresno",
        "state":"CA",
        "zip":"93703",
        "url":"https:\/\/locations.99only.com\/ca\/fresno\/discount-store-235.html",
        "latitude":"36.7636663",
        "longitude":"-119.7716468",
        "state_name":"California",
        "brand":"99 Cents Only",
        "updated":"2024-03-14"
    },
    {
        "store_id":"2242798",
        "store_name":"Fresno - Kings Canyon",
        "street":"4979 Kings Canyon Blvd",
        "city":"Fresno",
        "state":"CA",
        "zip":"93727",
        "url":"https:\/\/locations.99only.com\/ca\/fresno\/discount-store-204.html",
        "latitude":"36.7375294",
        "longitude":"-119.7287478",
        "state_name":"California",
        "brand":"99 Cents Only",
        "updated":"2024-03-14"
    },
    {
        "store_id":"2242845",
        "store_name":"Fresno - West Avenue",
        "street":"3110 N. West Ave",
        "city":"Fresno",
        "state":"CA",
        "zip":"93705",
        "url":"https:\/\/locations.99only.com\/ca\/fresno\/discount-store-271.html",
        "latitude":"36.7786092",
        "longitude":"-119.8257353",
        "state_name":"California",
        "brand":"99 Cents Only",
        "updated":"2024-03-14"
    },
    {
        "store_id":"2242742",
        "store_name":"Clovis",
        "street":"770 W. Shaw Ave",
        "city":"Clovis",
        "state":"CA",
        "zip":"93612",
        "url":"https:\/\/locations.99only.com\/ca\/clovis\/discount-store-138.html",
        "latitude":"36.8069864",
        "longitude":"-119.7256821",
        "state_name":"California",
        "brand":"99 Cents Only",
        "updated":"2024-03-14"
    },
    {
        "store_id":"2242757",
        "store_name":"Fresno",
        "street":"6036 N. First St",
        "city":"Fresno",
        "state":"CA",
        "zip":"93710",
        "url":"https:\/\/locations.99only.com\/ca\/fresno\/discount-store-154.html",
        "latitude":"36.8237524",
        "longitude":"-119.7703802",
        "state_name":"California",
        "brand":"99 Cents Only",
        "updated":"2024-03-14"
    },
    {
        "store_id":"2242879",
        "store_name":"Fresno - West Shaw",
        "street":"4170 West Shaw Ave",
        "city":"Fresno",
        "state":"CA",
        "zip":"93722",
        "url":"https:\/\/locations.99only.com\/ca\/fresno\/discount-store-328.html",
        "latitude":"36.809113",
        "longitude":"-119.8666043",
        "state_name":"California",
        "brand":"99 Cents Only",
        "updated":"2024-03-14"
    },
    {
        "store_id":"2242894",
        "store_name":"Sanger",
        "street":"2680 Jensen Ave",
        "city":"Sanger",
        "state":"CA",
        "zip":"93657",
        "url":"https:\/\/locations.99only.com\/ca\/sanger\/discount-store-348.html",
        "latitude":"36.7072754",
        "longitude":"-119.5759846",
        "state_name":"California",
        "brand":"99 Cents Only",
        "updated":"2024-03-14"
    },
    {
        "store_id":"2242789",
        "store_name":"Madera",
        "street":"1333 Country Club Dr",
        "city":"Madera",
        "state":"CA",
        "zip":"93638",
        "url":"https:\/\/locations.99only.com\/ca\/madera\/discount-store-191.html",
        "latitude":"36.9783259",
        "longitude":"-120.0720301",
        "state_name":"California",
        "brand":"99 Cents Only",
        "updated":"2024-03-14"
    },
    {
        "store_id":"2242855",
        "store_name":"Hanford",
        "street":"550 N. 11th Ave",
        "city":"Hanford",
        "state":"CA",
        "zip":"93230",
        "url":"https:\/\/locations.99only.com\/ca\/hanford\/discount-store-290.html",
        "latitude":"36.3297834",
        "longitude":"-119.6569786",
        "state_name":"California",
        "brand":"99 Cents Only",
        "updated":"2024-03-14"
    },
    {
        "store_id":"2242758",
        "store_name":"Visalia",
        "street":"2701 S. Mooney Blvd",
        "city":"Visalia",
        "state":"CA",
        "zip":"93277",
        "url":"https:\/\/locations.99only.com\/ca\/visalia\/discount-store-155.html",
        "latitude":"36.306585",
        "longitude":"-119.3153242",
        "state_name":"California",
        "brand":"99 Cents Only",
        "updated":"2024-03-14"
    },
    {
        "store_id":"2242933",
        "store_name":"Lake Forest - Muirlands",
        "street":"22631 Lake Forest Dr",
        "city":"Lake Forest",
        "state":"CA",
        "zip":"92630",
        "url":"https:\/\/locations.99only.com\/ca\/lakeforest\/discount-store-389.html",
        "latitude":"33.6347094",
        "longitude":"-117.7110376",
        "state_name":"California",
        "brand":"99 Cents Only",
        "updated":"2024-03-14"
    },
    {
        "store_id":"2242878",
        "store_name":"Foothill Ranch",
        "street":"26542 Towne Centre Dr",
        "city":"Foothill Ranch",
        "state":"CA",
        "zip":"92610",
        "url":"https:\/\/locations.99only.com\/ca\/foothillranch\/discount-store-327.html",
        "latitude":"33.6793335",
        "longitude":"-117.6679603",
        "state_name":"California",
        "brand":"99 Cents Only",
        "updated":"2024-03-14"
    },
    {
        "store_id":"2242794",
        "store_name":"Lake Forest",
        "street":"23829 El Toro Rd",
        "city":"Lake Forest",
        "state":"CA",
        "zip":"92630",
        "url":"https:\/\/locations.99only.com\/ca\/lakeforest\/discount-store-198.html",
        "latitude":"33.6169432",
        "longitude":"-117.7064554",
        "state_name":"California",
        "brand":"99 Cents Only",
        "updated":"2024-03-14"
    },
    {
        "store_id":"2242747",
        "store_name":"Las Vegas - Charleston",
        "street":"1155 E. Charleston Blvd",
        "city":"Las Vegas",
        "state":"NV",
        "zip":"89104",
        "url":"https:\/\/locations.99only.com\/nv\/lasvegas\/discount-store-143.html",
        "latitude":"36.1595051",
        "longitude":"-115.1376854",
        "state_name":"Nevada",
        "brand":"99 Cents Only",
        "updated":"2024-03-14"
    },
    {
        "store_id":"2242715",
        "store_name":"Las Vegas - Nellis",
        "street":"45 North Nellis Blvd",
        "city":"Las Vegas",
        "state":"NV",
        "zip":"89110",
        "url":"https:\/\/locations.99only.com\/nv\/lasvegas\/discount-store-105.html",
        "latitude":"36.1606265",
        "longitude":"-115.0636512",
        "state_name":"Nevada",
        "brand":"99 Cents Only",
        "updated":"2024-03-14"
    },
    {
        "store_id":"2242930",
        "store_name":"Las Vegas - Cheyenne",
        "street":"3258 N. Las Vegas Blvd",
        "city":"Las Vegas",
        "state":"NV",
        "zip":"89115",
        "url":"https:\/\/locations.99only.com\/nv\/lasvegas\/discount-store-386.html",
        "latitude":"36.2162334",
        "longitude":"-115.0930257",
        "state_name":"Nevada",
        "brand":"99 Cents Only",
        "updated":"2024-03-14"
    },
    {
        "store_id":"2242706",
        "store_name":"Las Vegas - Flamingo",
        "street":"1325 E. Flamingo Rd",
        "city":"Las Vegas",
        "state":"NV",
        "zip":"89119",
        "url":"https:\/\/locations.99only.com\/nv\/lasvegas\/discount-store-94.html",
        "latitude":"36.1139553",
        "longitude":"-115.1361104",
        "state_name":"Nevada",
        "brand":"99 Cents Only",
        "updated":"2024-03-14"
    },
    {
        "store_id":"2242792",
        "store_name":"Las Vegas - Decatur",
        "street":"1200 S. Decatur Blvd",
        "city":"Las Vegas",
        "state":"NV",
        "zip":"89102",
        "url":"https:\/\/locations.99only.com\/nv\/lasvegas\/discount-store-195.html",
        "latitude":"36.1573953",
        "longitude":"-115.2072944",
        "state_name":"Nevada",
        "brand":"99 Cents Only",
        "updated":"2024-03-14"
    },
    {
        "store_id":"2242859",
        "store_name":"Las Vegas - Ocotillo",
        "street":"2419 E. Tropicana",
        "city":"Las Vegas",
        "state":"NV",
        "zip":"89121",
        "url":"https:\/\/locations.99only.com\/nv\/lasvegas\/discount-store-294.html",
        "latitude":"36.0987103",
        "longitude":"-115.1182634",
        "state_name":"Nevada",
        "brand":"99 Cents Only",
        "updated":"2024-03-14"
    },
    {
        "store_id":"2242725",
        "store_name":"Las Vegas - Craig",
        "street":"1435 W. Craig Rd., Ste 3",
        "city":"North Las Vegas",
        "state":"NV",
        "zip":"89032",
        "url":"https:\/\/locations.99only.com\/nv\/northlasvegas\/discount-store-117.html",
        "latitude":"36.2378222",
        "longitude":"-115.1607472",
        "state_name":"Nevada",
        "brand":"99 Cents Only",
        "updated":"2024-03-14"
    },
    {
        "store_id":"2242738",
        "store_name":"Las Vegas - Tropicana",
        "street":"4910 Tropicana Ave",
        "city":"Las Vegas",
        "state":"NV",
        "zip":"89121",
        "url":"https:\/\/locations.99only.com\/nv\/lasvegas\/discount-store-132.html",
        "latitude":"36.1010066",
        "longitude":"-115.0656895",
        "state_name":"Nevada",
        "brand":"99 Cents Only",
        "updated":"2024-03-14"
    },
    {
        "store_id":"2242883",
        "store_name":"Las Vegas - Rancho",
        "street":"3141 N. Rancho Dr",
        "city":"Las Vegas",
        "state":"NV",
        "zip":"89130",
        "url":"https:\/\/locations.99only.com\/nv\/lasvegas\/discount-store-333.html",
        "latitude":"36.216137",
        "longitude":"-115.2133427",
        "state_name":"Nevada",
        "brand":"99 Cents Only",
        "updated":"2024-03-14"
    },
    {
        "store_id":"2242728",
        "store_name":"Las Vegas - Spring Mountain",
        "street":"7239 Spring Mountain Rd.",
        "city":"Las Vegas",
        "state":"NV",
        "zip":"89117",
        "url":"https:\/\/locations.99only.com\/nv\/lasvegas\/discount-store-120.html",
        "latitude":"36.1253256",
        "longitude":"-115.2497704",
        "state_name":"Nevada",
        "brand":"99 Cents Only",
        "updated":"2024-03-14"
    },
    {
        "store_id":"2242703",
        "store_name":"Azusa",
        "street":"307 N. Citrus Ave",
        "city":"Azusa",
        "state":"CA",
        "zip":"91702",
        "url":"https:\/\/locations.99only.com\/ca\/azusa\/discount-store-90.html",
        "latitude":"34.126854",
        "longitude":"-117.8914864",
        "state_name":"California",
        "brand":"99 Cents Only",
        "updated":"2024-03-14"
    },
    {
        "store_id":"2242890",
        "store_name":"San Dimas",
        "street":"602 W Arrow Hwy",
        "city":"San Dimas",
        "state":"CA",
        "zip":"91773",
        "url":"https:\/\/locations.99only.com\/ca\/sandimas\/discount-store-343.html",
        "latitude":"34.1035935",
        "longitude":"-117.8189998",
        "state_name":"California",
        "brand":"99 Cents Only",
        "updated":"2024-03-14"
    },
    {
        "store_id":"2242818",
        "store_name":"Pomona - Arrow Hwy",
        "street":"602 East Arrow Hwy",
        "city":"Pomona",
        "state":"CA",
        "zip":"91767",
        "url":"https:\/\/locations.99only.com\/ca\/pomona\/discount-store-226.html",
        "latitude":"34.0895682",
        "longitude":"-117.7386659",
        "state_name":"California",
        "brand":"99 Cents Only",
        "updated":"2024-03-14"
    },
    {
        "store_id":"2242696",
        "store_name":"Pomona",
        "street":"606 E. Holt Ave",
        "city":"Pomona",
        "state":"CA",
        "zip":"91767",
        "url":"https:\/\/locations.99only.com\/ca\/pomona\/discount-store-82.html",
        "latitude":"34.0618117",
        "longitude":"-117.7390783",
        "state_name":"California",
        "brand":"99 Cents Only",
        "updated":"2024-03-14"
    },
    {
        "store_id":"2242752",
        "store_name":"Montclair",
        "street":"5200 Moreno St",
        "city":"Montclair",
        "state":"CA",
        "zip":"91763",
        "url":"https:\/\/locations.99only.com\/ca\/montclair\/discount-store-148.html",
        "latitude":"34.0899963",
        "longitude":"-117.6919748",
        "state_name":"California",
        "brand":"99 Cents Only",
        "updated":"2024-03-14"
    },
    {
        "store_id":"2242682",
        "store_name":"Ontario",
        "street":"430 N. Mountain Ave",
        "city":"Ontario",
        "state":"CA",
        "zip":"91761",
        "url":"https:\/\/locations.99only.com\/ca\/ontario\/discount-store-64.html",
        "latitude":"34.067906",
        "longitude":"-117.6692436",
        "state_name":"California",
        "brand":"99 Cents Only",
        "updated":"2024-03-14"
    },
    {
        "store_id":"2242753",
        "store_name":"Chino",
        "street":"12170 Central Avenue",
        "city":"Chino",
        "state":"CA",
        "zip":"91762",
        "url":"https:\/\/locations.99only.com\/ca\/chino\/discount-store-149.html",
        "latitude":"34.0321859",
        "longitude":"-117.6912075",
        "state_name":"California",
        "brand":"99 Cents Only",
        "updated":"2024-03-14"
    },
    {
        "store_id":"2242716",
        "store_name":"Upland",
        "street":"229 E. Foothill Blvd",
        "city":"Upland",
        "state":"CA",
        "zip":"91786",
        "url":"https:\/\/locations.99only.com\/ca\/upland\/discount-store-107.html",
        "latitude":"34.10706",
        "longitude":"-117.6481019",
        "state_name":"California",
        "brand":"99 Cents Only",
        "updated":"2024-03-14"
    },
    {
        "store_id":"2242979",
        "store_name":"Ontario - S. Euclid",
        "street":"1714 S. Euclid Ave",
        "city":"Ontario",
        "state":"CA",
        "zip":"91762",
        "url":"https:\/\/locations.99only.com\/ca\/ontario\/discount-store-448.html",
        "latitude":"34.0425342",
        "longitude":"-117.65201",
        "state_name":"California",
        "brand":"99 Cents Only",
        "updated":"2024-03-14"
    },
    {
        "store_id":"2242708",
        "store_name":"Chino Hills",
        "street":"4050 Chino Hills Pkwy",
        "city":"Chino",
        "state":"CA",
        "zip":"91710",
        "url":"https:\/\/locations.99only.com\/ca\/chino\/discount-store-96.html",
        "latitude":"33.9838544",
        "longitude":"-117.7161695",
        "state_name":"California",
        "brand":"99 Cents Only",
        "updated":"2024-03-14"
    },
    {
        "store_id":"2242920",
        "store_name":"Ontario - Grove",
        "street":"2522 S. Grove Ave",
        "city":"Ontario",
        "state":"CA",
        "zip":"91761",
        "url":"https:\/\/locations.99only.com\/ca\/ontario\/discount-store-376.html",
        "latitude":"34.0276995",
        "longitude":"-117.6286386",
        "state_name":"California",
        "brand":"99 Cents Only",
        "updated":"2024-03-14"
    },
    {
        "store_id":"2242760",
        "store_name":"Las Vegas - Lake Mead",
        "street":"7470 W. Lakemead Blvd",
        "city":"Las Vegas",
        "state":"NV",
        "zip":"89128",
        "url":"https:\/\/locations.99only.com\/nv\/lasvegas\/discount-store-159.html",
        "latitude":"36.1974586",
        "longitude":"-115.2569943",
        "state_name":"Nevada",
        "brand":"99 Cents Only",
        "updated":"2024-03-14"
    },
    {
        "store_id":"2242804",
        "store_name":"Las Vegas - Beltway",
        "street":"4920 S. Fort Apache Rd",
        "city":"Las Vegas",
        "state":"NV",
        "zip":"89148",
        "url":"https:\/\/locations.99only.com\/nv\/lasvegas\/discount-store-211.html",
        "latitude":"36.0992136",
        "longitude":"-115.2958896",
        "state_name":"Nevada",
        "brand":"99 Cents Only",
        "updated":"2024-03-14"
    },
    {
        "store_id":"2242870",
        "store_name":"Poway",
        "street":"12369 Poway Rd",
        "city":"Poway",
        "state":"CA",
        "zip":"92064",
        "url":"https:\/\/locations.99only.com\/ca\/poway\/discount-store-318.html",
        "latitude":"32.9509348",
        "longitude":"-117.0632228",
        "state_name":"California",
        "brand":"99 Cents Only",
        "updated":"2024-03-14"
    },
    {
        "store_id":"2242874",
        "store_name":"Phoenix - 43rd Avenue",
        "street":"4240 W. Bell Rd",
        "city":"Glendale",
        "state":"AZ",
        "zip":"85308",
        "url":"https:\/\/locations.99only.com\/az\/glendale\/discount-store-322.html",
        "latitude":"33.6408339",
        "longitude":"-112.1505305",
        "state_name":"Arizona",
        "brand":"99 Cents Only",
        "updated":"2024-03-14"
    },
    {
        "store_id":"2242797",
        "store_name":"Phoenix - Tatum",
        "street":"12805 N. Tatum Blvd",
        "city":"Phoenix",
        "state":"AZ",
        "zip":"85032",
        "url":"https:\/\/locations.99only.com\/az\/phoenix\/discount-store-203.html",
        "latitude":"33.6021495",
        "longitude":"-111.9765435",
        "state_name":"Arizona",
        "brand":"99 Cents Only",
        "updated":"2024-03-14"
    },
    {
        "store_id":"2242769",
        "store_name":"Sacramento - Elkhorn",
        "street":"4319 Elkhorn Blvd",
        "city":"Sacramento",
        "state":"CA",
        "zip":"95842",
        "url":"https:\/\/locations.99only.com\/ca\/sacramento\/discount-store-168.html",
        "latitude":"38.69561",
        "longitude":"-121.3625614",
        "state_name":"California",
        "brand":"99 Cents Only",
        "updated":"2024-03-14"
    },
    {
        "store_id":"2242956",
        "store_name":"Citrus Heights",
        "street":"7424 Greenback Ln",
        "city":"Citrus Heights",
        "state":"CA",
        "zip":"95610",
        "url":"https:\/\/locations.99only.com\/ca\/citrusheights\/discount-store-416.html",
        "latitude":"38.6775318",
        "longitude":"-121.2911319",
        "state_name":"California",
        "brand":"99 Cents Only",
        "updated":"2024-03-14"
    },
    {
        "store_id":"2242774",
        "store_name":"El Camino",
        "street":"2224 El Camino Ave",
        "city":"Sacramento",
        "state":"CA",
        "zip":"95821",
        "url":"https:\/\/locations.99only.com\/ca\/sacramento\/discount-store-175.html",
        "latitude":"38.6098144",
        "longitude":"-121.4137419",
        "state_name":"California",
        "brand":"99 Cents Only",
        "updated":"2024-03-14"
    },
    {
        "store_id":"2242881",
        "store_name":"Roseville - Douglas",
        "street":"1617 Douglas Blvd Suite 2",
        "city":"Roseville",
        "state":"CA",
        "zip":"95661",
        "url":"https:\/\/locations.99only.com\/ca\/roseville\/discount-store-331.html",
        "latitude":"38.7454703",
        "longitude":"-121.2642908",
        "state_name":"California",
        "brand":"99 Cents Only",
        "updated":"2024-03-14"
    },
    {
        "store_id":"2242761",
        "store_name":"Rancho Cordova",
        "street":"2868 Zinfandel Dr",
        "city":"Rancho Cordova",
        "state":"CA",
        "zip":"95670",
        "url":"https:\/\/locations.99only.com\/ca\/ranchocordova\/discount-store-160.html",
        "latitude":"38.594089",
        "longitude":"-121.2892796",
        "state_name":"California",
        "brand":"99 Cents Only",
        "updated":"2024-03-14"
    },
    {
        "store_id":"2242929",
        "store_name":"Roseville - Fairway",
        "street":"10261 Fairway Dr",
        "city":"Roseville",
        "state":"CA",
        "zip":"95678",
        "url":"https:\/\/locations.99only.com\/ca\/roseville\/discount-store-385.html",
        "latitude":"38.787622",
        "longitude":"-121.2816807",
        "state_name":"California",
        "brand":"99 Cents Only",
        "updated":"2024-03-14"
    },
    {
        "store_id":"2242782",
        "store_name":"Northgate",
        "street":"2351 Northgate Blvd",
        "city":"Sacramento",
        "state":"CA",
        "zip":"95833",
        "url":"https:\/\/locations.99only.com\/ca\/sacramento\/discount-store-183.html",
        "latitude":"38.6093295",
        "longitude":"-121.4772173",
        "state_name":"California",
        "brand":"99 Cents Only",
        "updated":"2024-03-14"
    },
    {
        "store_id":"2242803",
        "store_name":"Sacramento - Folsom",
        "street":"8387 Folsom Blvd",
        "city":"Sacramento",
        "state":"CA",
        "zip":"95826",
        "url":"https:\/\/locations.99only.com\/ca\/sacramento\/discount-store-209.html",
        "latitude":"38.5488821",
        "longitude":"-121.3953446",
        "state_name":"California",
        "brand":"99 Cents Only",
        "updated":"2024-03-14"
    },
    {
        "store_id":"2242950",
        "store_name":"Folsom - Riley",
        "street":"1012 Riley St",
        "city":"Folsom",
        "state":"CA",
        "zip":"95630",
        "url":"https:\/\/locations.99only.com\/ca\/folsom\/discount-store-409.html",
        "latitude":"38.6705358",
        "longitude":"-121.168512",
        "state_name":"California",
        "brand":"99 Cents Only",
        "updated":"2024-03-14"
    },
    {
        "store_id":"2242827",
        "store_name":"Sacramento - Stockton",
        "street":"5930 Stockton Blvd",
        "city":"Sacramento",
        "state":"CA",
        "zip":"95824",
        "url":"https:\/\/locations.99only.com\/ca\/sacramento\/discount-store-237.html",
        "latitude":"38.5184594",
        "longitude":"-121.4412433",
        "state_name":"California",
        "brand":"99 Cents Only",
        "updated":"2024-03-14"
    },
    {
        "store_id":"2242918",
        "store_name":"Las Vegas - Blue Diamond",
        "street":"3835 Blue Diamond Rd",
        "city":"Las Vegas",
        "state":"NV",
        "zip":"89139",
        "url":"https:\/\/locations.99only.com\/nv\/lasvegas\/discount-store-374.html",
        "latitude":"36.0384333",
        "longitude":"-115.1909852",
        "state_name":"Nevada",
        "brand":"99 Cents Only",
        "updated":"2024-03-14"
    },
    {
        "store_id":"2242961",
        "store_name":"Las Vegas - Eastern \/ Warm Springs",
        "street":"7380 S. Eastern Ave",
        "city":"Las Vegas",
        "state":"NV",
        "zip":"89123",
        "url":"https:\/\/locations.99only.com\/nv\/lasvegas\/discount-store-421.html",
        "latitude":"36.055626",
        "longitude":"-115.1167462",
        "state_name":"Nevada",
        "brand":"99 Cents Only",
        "updated":"2024-03-14"
    },
    {
        "store_id":"2242771",
        "store_name":"Henderson - Marks",
        "street":"520 Marks St. #C",
        "city":"Henderson",
        "state":"NV",
        "zip":"89014",
        "url":"https:\/\/locations.99only.com\/nv\/henderson\/discount-store-171.html",
        "latitude":"36.0599995",
        "longitude":"-115.0355707",
        "state_name":"Nevada",
        "brand":"99 Cents Only",
        "updated":"2024-03-14"
    },
    {
        "store_id":"2242891",
        "store_name":"Henderson - Boulder",
        "street":"716 S Boulder Hwy",
        "city":"Henderson",
        "state":"NV",
        "zip":"89015",
        "url":"https:\/\/locations.99only.com\/nv\/henderson\/discount-store-344.html",
        "latitude":"36.0309305",
        "longitude":"-114.9690215",
        "state_name":"Nevada",
        "brand":"99 Cents Only",
        "updated":"2024-03-14"
    },
    {
        "store_id":"2242751",
        "store_name":"Las Vegas - Eastern",
        "street":"9230 S. Eastern Ave",
        "city":"Henderson",
        "state":"NV",
        "zip":"89052",
        "url":"https:\/\/locations.99only.com\/nv\/henderson\/discount-store-147.html",
        "latitude":"36.0216502",
        "longitude":"-115.1169315",
        "state_name":"Nevada",
        "brand":"99 Cents Only",
        "updated":"2024-03-14"
    },
    {
        "store_id":"2242982",
        "store_name":"Katy - Mason",
        "street":"21961 Katy Fwy",
        "city":"Katy",
        "state":"TX",
        "zip":"77450",
        "url":"https:\/\/locations.99only.com\/tx\/katy\/discount-store-2803.html",
        "latitude":"29.7816724",
        "longitude":"-95.7531051",
        "state_name":"Texas",
        "brand":"99 Cents Only",
        "updated":"2024-03-14"
    },
    {
        "store_id":"2242974",
        "store_name":"Los Ba\u00f1os - Pacheco",
        "street":"1209 W Pacheco Blvd",
        "city":"Los Ba\u00f1os",
        "state":"CA",
        "zip":"93635",
        "url":"https:\/\/locations.99only.com\/ca\/losbanos\/discount-store-441.html",
        "latitude":"37.0562804",
        "longitude":"-120.8715159",
        "state_name":"California",
        "brand":"99 Cents Only",
        "updated":"2024-03-14"
    },
    {
        "store_id":"2242897",
        "store_name":"Sacramento - Florin",
        "street":"4440 Florin Rd",
        "city":"Sacramento",
        "state":"CA",
        "zip":"95823",
        "url":"https:\/\/locations.99only.com\/ca\/sacramento\/discount-store-352.html",
        "latitude":"38.4947732",
        "longitude":"-121.4530276",
        "state_name":"California",
        "brand":"99 Cents Only",
        "updated":"2024-03-14"
    },
    {
        "store_id":"2242949",
        "store_name":"Escondido - Parkway",
        "street":"385 N. Escondido Blvd",
        "city":"Escondido",
        "state":"CA",
        "zip":"92025",
        "url":"https:\/\/locations.99only.com\/ca\/escondido\/discount-store-408.html",
        "latitude":"33.1221254",
        "longitude":"-117.0873532",
        "state_name":"California",
        "brand":"99 Cents Only",
        "updated":"2024-03-14"
    },
    {
        "store_id":"2242985",
        "store_name":"Houston - Jones",
        "street":"10787 Jones Rd",
        "city":"Houston",
        "state":"TX",
        "zip":"77065",
        "url":"https:\/\/locations.99only.com\/tx\/houston\/discount-store-2809.html",
        "latitude":"29.9306017",
        "longitude":"-95.5864676",
        "state_name":"Texas",
        "brand":"99 Cents Only",
        "updated":"2024-03-14"
    },
    {
        "store_id":"2243007",
        "store_name":"San Antonio - Basse West",
        "street":"3025 West Ave",
        "city":"San Antonio",
        "state":"TX",
        "zip":"78201",
        "url":"https:\/\/locations.99only.com\/tx\/sanantonio\/discount-store-2849.html",
        "latitude":"29.4880414",
        "longitude":"-98.5268744",
        "state_name":"Texas",
        "brand":"99 Cents Only",
        "updated":"2024-03-14"
    },
    {
        "store_id":"2243013",
        "store_name":"San Antonio - Callaghan",
        "street":"4350 Callaghan  Rd",
        "city":"San Antonio",
        "state":"TX",
        "zip":"78228",
        "url":"https:\/\/locations.99only.com\/tx\/sanantonio\/discount-store-2859.html",
        "latitude":"29.467531",
        "longitude":"-98.6011286",
        "state_name":"Texas",
        "brand":"99 Cents Only",
        "updated":"2024-03-14"
    },
    {
        "store_id":"2243011",
        "store_name":"San Antonio - Dellcrest",
        "street":"1864 S. WW White Rd",
        "city":"San Antonio",
        "state":"TX",
        "zip":"78220",
        "url":"https:\/\/locations.99only.com\/tx\/sanantonio\/discount-store-2855.html",
        "latitude":"29.3997877",
        "longitude":"-98.4041595",
        "state_name":"Texas",
        "brand":"99 Cents Only",
        "updated":"2024-03-14"
    },
    {
        "store_id":"2243006",
        "store_name":"San Antonio - Walzem",
        "street":"5464 Walzem Rd, Suite 3",
        "city":"San Antonio",
        "state":"TX",
        "zip":"78218",
        "url":"https:\/\/locations.99only.com\/tx\/sanantonio\/discount-store-2848.html",
        "latitude":"29.5086978",
        "longitude":"-98.3833912",
        "state_name":"Texas",
        "brand":"99 Cents Only",
        "updated":"2024-03-14"
    },
    {
        "store_id":"2243001",
        "store_name":"San Antonio - Thousand Oaks Drive",
        "street":"2942 Thousand Oaks Dr",
        "city":"San Antonio",
        "state":"TX",
        "zip":"78247",
        "url":"https:\/\/locations.99only.com\/tx\/sanantonio\/discount-store-2839.html",
        "latitude":"29.5752471",
        "longitude":"-98.4402716",
        "state_name":"Texas",
        "brand":"99 Cents Only",
        "updated":"2024-03-14"
    },
    {
        "store_id":"2242904",
        "store_name":"Thousand Oaks",
        "street":"950 E. Avenida de los Arboles",
        "city":"Thousand Oaks",
        "state":"CA",
        "zip":"91360",
        "url":"https:\/\/locations.99only.com\/ca\/thousandoaks\/discount-store-359.html",
        "latitude":"34.2151787",
        "longitude":"-118.8615986",
        "state_name":"California",
        "brand":"99 Cents Only",
        "updated":"2024-03-14"
    },
    {
        "store_id":"2242807",
        "store_name":"Simi Valley - Los Angeles Ave",
        "street":"1293B Los Angeles Ave",
        "city":"Simi Valley",
        "state":"CA",
        "zip":"93065",
        "url":"https:\/\/locations.99only.com\/ca\/simivalley\/discount-store-214.html",
        "latitude":"34.2732522",
        "longitude":"-118.7752754",
        "state_name":"California",
        "brand":"99 Cents Only",
        "updated":"2024-03-14"
    },
    {
        "store_id":"2242832",
        "store_name":"Vista",
        "street":"705 E. Vista Way",
        "city":"Vista",
        "state":"CA",
        "zip":"92084",
        "url":"https:\/\/locations.99only.com\/ca\/vista\/discount-store-244.html",
        "latitude":"33.2070565",
        "longitude":"-117.2353684",
        "state_name":"California",
        "brand":"99 Cents Only",
        "updated":"2024-03-14"
    },
    {
        "store_id":"2242862",
        "store_name":"San Marcos",
        "street":"155 S. Rancho Sante Fe Rd",
        "city":"San Marcos",
        "state":"CA",
        "zip":"92078",
        "url":"https:\/\/locations.99only.com\/ca\/sanmarcos\/discount-store-307.html",
        "latitude":"33.1470846",
        "longitude":"-117.1988015",
        "state_name":"California",
        "brand":"99 Cents Only",
        "updated":"2024-03-14"
    },
    {
        "store_id":"2242707",
        "store_name":"Oceanside",
        "street":"1036 Mission Ave",
        "city":"Oceanside",
        "state":"CA",
        "zip":"92054",
        "url":"https:\/\/locations.99only.com\/ca\/oceanside\/discount-store-95.html",
        "latitude":"33.1997705",
        "longitude":"-117.3753268",
        "state_name":"California",
        "brand":"99 Cents Only",
        "updated":"2024-03-14"
    },
    {
        "store_id":"2242957",
        "store_name":"Escondido - Ash",
        "street":"415 North Ash St",
        "city":"Escondido",
        "state":"CA",
        "zip":"92027",
        "url":"https:\/\/locations.99only.com\/ca\/escondido\/discount-store-417.html",
        "latitude":"33.1306917",
        "longitude":"-117.0682834",
        "state_name":"California",
        "brand":"99 Cents Only",
        "updated":"2024-03-14"
    },
    {
        "store_id":"2242902",
        "store_name":"Escondido - Valley",
        "street":"2010 E. Valley Pkwy",
        "city":"Escondido",
        "state":"CA",
        "zip":"92027",
        "url":"https:\/\/locations.99only.com\/ca\/escondido\/discount-store-357.html",
        "latitude":"33.1386301",
        "longitude":"-117.051733",
        "state_name":"California",
        "brand":"99 Cents Only",
        "updated":"2024-03-14"
    },
    {
        "store_id":"2242884",
        "store_name":"Temecula",
        "street":"40355 Winchester Rd",
        "city":"Temecula",
        "state":"CA",
        "zip":"92591",
        "url":"https:\/\/locations.99only.com\/ca\/temecula\/discount-store-334.html",
        "latitude":"33.5332584",
        "longitude":"-117.1517315",
        "state_name":"California",
        "brand":"99 Cents Only",
        "updated":"2024-03-14"
    },
    {
        "store_id":"2242733",
        "store_name":"Murrieta",
        "street":"25270 Madison St",
        "city":"Murrieta",
        "state":"CA",
        "zip":"92562",
        "url":"https:\/\/locations.99only.com\/ca\/murrieta\/discount-store-127.html",
        "latitude":"33.554828",
        "longitude":"-117.1971669",
        "state_name":"California",
        "brand":"99 Cents Only",
        "updated":"2024-03-14"
    },
    {
        "store_id":"2243018",
        "store_name":"Houston - Greens",
        "street":"251 W Greens Rd",
        "city":"Houston",
        "state":"TX",
        "zip":"77067",
        "url":"https:\/\/locations.99only.com\/tx\/houston\/discount-store-2875.html",
        "latitude":"29.9479219",
        "longitude":"-95.4215699",
        "state_name":"Texas",
        "brand":"99 Cents Only",
        "updated":"2024-03-14"
    },
    {
        "store_id":"2243015",
        "store_name":"Houston - FM 1960",
        "street":"4849 FM1960 W",
        "city":"Houston",
        "state":"TX",
        "zip":"77069",
        "url":"https:\/\/locations.99only.com\/tx\/houston\/discount-store-2872.html",
        "latitude":"29.9841328",
        "longitude":"-95.5036449",
        "state_name":"Texas",
        "brand":"99 Cents Only",
        "updated":"2024-03-14"
    },
    {
        "store_id":"2243024",
        "store_name":"Humble - FM 1960",
        "street":"216 FM 1960",
        "city":"Humble",
        "state":"TX",
        "zip":"77338",
        "url":"https:\/\/locations.99only.com\/tx\/humble\/discount-store-2881.html",
        "latitude":"30.0027296",
        "longitude":"-95.2657502",
        "state_name":"Texas",
        "brand":"99 Cents Only",
        "updated":"2024-03-14"
    },
    {
        "store_id":"2242971",
        "store_name":"Fairfield - N. Texas",
        "street":"2525 N. Texas Street Ste B",
        "city":"Fairfield",
        "state":"CA",
        "zip":"94533",
        "url":"https:\/\/locations.99only.com\/ca\/fairfield\/discount-store-436.html",
        "latitude":"38.2752533",
        "longitude":"-122.0359767",
        "state_name":"California",
        "brand":"99 Cents Only",
        "updated":"2024-03-14"
    },
    {
        "store_id":"2242785",
        "store_name":"San Clemente",
        "street":"55 Via Pico Plz",
        "city":"San Clemente",
        "state":"CA",
        "zip":"92672",
        "url":"https:\/\/locations.99only.com\/ca\/sanclemente\/discount-store-186.html",
        "latitude":"33.4360264",
        "longitude":"-117.62002",
        "state_name":"California",
        "brand":"99 Cents Only",
        "updated":"2024-03-14"
    },
    {
        "store_id":"2242719",
        "store_name":"Rancho Cucamonga",
        "street":"9640 Baseline Rd",
        "city":"Rancho Cucamonga",
        "state":"CA",
        "zip":"91701",
        "url":"https:\/\/locations.99only.com\/ca\/ranchocucamonga\/discount-store-110.html",
        "latitude":"34.1225466",
        "longitude":"-117.5949356",
        "state_name":"California",
        "brand":"99 Cents Only",
        "updated":"2024-03-14"
    },
    {
        "store_id":"2242952",
        "store_name":"Moreno Valley - Cottonwood",
        "street":"22985 Cottonwood Ave",
        "city":"Moreno Valley",
        "state":"CA",
        "zip":"92553",
        "url":"https:\/\/locations.99only.com\/ca\/morenovalley\/discount-store-412.html",
        "latitude":"33.9237294",
        "longitude":"-117.261641",
        "state_name":"California",
        "brand":"99 Cents Only",
        "updated":"2024-03-14"
    },
    {
        "store_id":"2242700",
        "store_name":"Moreno Valley",
        "street":"24899 Alessandro Blvd",
        "city":"Moreno Valley",
        "state":"CA",
        "zip":"92553",
        "url":"https:\/\/locations.99only.com\/ca\/morenovalley\/discount-store-86.html",
        "latitude":"33.915925",
        "longitude":"-117.2277432",
        "state_name":"California",
        "brand":"99 Cents Only",
        "updated":"2024-03-14"
    },
    {
        "store_id":"2242946",
        "store_name":"Moreno Valley - Ironwood",
        "street":"23920 Ironwood Ave",
        "city":"Moreno Valley",
        "state":"CA",
        "zip":"92557",
        "url":"https:\/\/locations.99only.com\/ca\/morenovalley\/discount-store-405.html",
        "latitude":"33.9474688",
        "longitude":"-117.2454257",
        "state_name":"California",
        "brand":"99 Cents Only",
        "updated":"2024-03-14"
    },
    {
        "store_id":"2242869",
        "store_name":"Moreno Valley - Day Street",
        "street":"12530 Day St",
        "city":"Moreno Valley",
        "state":"CA",
        "zip":"92553",
        "url":"https:\/\/locations.99only.com\/ca\/morenovalley\/discount-store-317.html",
        "latitude":"33.9382192",
        "longitude":"-117.2780031",
        "state_name":"California",
        "brand":"99 Cents Only",
        "updated":"2024-03-14"
    },
    {
        "store_id":"2242714",
        "store_name":"Riverside",
        "street":"3477 Arlington Ave",
        "city":"Riverside",
        "state":"CA",
        "zip":"92506",
        "url":"https:\/\/locations.99only.com\/ca\/riverside\/discount-store-104.html",
        "latitude":"33.9471529",
        "longitude":"-117.3867102",
        "state_name":"California",
        "brand":"99 Cents Only",
        "updated":"2024-03-14"
    },
    {
        "store_id":"2242829",
        "store_name":"Colton",
        "street":"1080 S. Mount Vernon Ave",
        "city":"Colton",
        "state":"CA",
        "zip":"92324",
        "url":"https:\/\/locations.99only.com\/ca\/colton\/discount-store-240.html",
        "latitude":"34.0514468",
        "longitude":"-117.3067374",
        "state_name":"California",
        "brand":"99 Cents Only",
        "updated":"2024-03-14"
    },
    {
        "store_id":"2242780",
        "store_name":"Redlands",
        "street":"1678 W. Redlands Blvd",
        "city":"Redlands",
        "state":"CA",
        "zip":"92373",
        "url":"https:\/\/locations.99only.com\/ca\/redlands\/discount-store-181.html",
        "latitude":"34.0637032",
        "longitude":"-117.2120547",
        "state_name":"California",
        "brand":"99 Cents Only",
        "updated":"2024-03-14"
    },
    {
        "store_id":"2242685",
        "store_name":"San Bernardino",
        "street":"975-A South E. St",
        "city":"San Bernardino",
        "state":"CA",
        "zip":"92408",
        "url":"https:\/\/locations.99only.com\/ca\/sanbernardino\/discount-store-68.html",
        "latitude":"34.0833877",
        "longitude":"-117.2926861",
        "state_name":"California",
        "brand":"99 Cents Only",
        "updated":"2024-03-14"
    },
    {
        "store_id":"2242892",
        "store_name":"Colton - La Cadena",
        "street":"1481 N. La Cadena Dr",
        "city":"Colton",
        "state":"CA",
        "zip":"92324",
        "url":"https:\/\/locations.99only.com\/ca\/colton\/discount-store-345.html",
        "latitude":"34.0846836",
        "longitude":"-117.3153239",
        "state_name":"California",
        "brand":"99 Cents Only",
        "updated":"2024-03-14"
    },
    {
        "store_id":"2242740",
        "store_name":"Riverside - Magnolia",
        "street":"9915 Magnolia Ave",
        "city":"Riverside",
        "state":"CA",
        "zip":"92503",
        "url":"https:\/\/locations.99only.com\/ca\/riverside\/discount-store-134.html",
        "latitude":"33.9170068",
        "longitude":"-117.45518",
        "state_name":"California",
        "brand":"99 Cents Only",
        "updated":"2024-03-14"
    },
    {
        "store_id":"2242989",
        "store_name":"Pasadena (TX)",
        "street":"4100 Fairmont Pkwy",
        "city":"Pasadena",
        "state":"TX",
        "zip":"77504",
        "url":"https:\/\/locations.99only.com\/tx\/pasadena\/discount-store-2815.html",
        "latitude":"29.6497639",
        "longitude":"-95.1818248",
        "state_name":"Texas",
        "brand":"99 Cents Only",
        "updated":"2024-03-14"
    },
    {
        "store_id":"2242986",
        "store_name":"Houston - Wallisville",
        "street":"5809 E. Sam Houston Pkwy",
        "city":"Houston",
        "state":"TX",
        "zip":"77049",
        "url":"https:\/\/locations.99only.com\/tx\/houston\/discount-store-2810.html",
        "latitude":"29.81008",
        "longitude":"-95.16641",
        "state_name":"Texas",
        "brand":"99 Cents Only",
        "updated":"2024-03-14"
    },
    {
        "store_id":"2242765",
        "store_name":"Scottsdale - Thomas",
        "street":"7919 E. Thomas Rd.",
        "city":"Scottsdale",
        "state":"AZ",
        "zip":"85251",
        "url":"https:\/\/locations.99only.com\/az\/scottsdale\/discount-store-164.html",
        "latitude":"33.478899",
        "longitude":"-111.9096963",
        "state_name":"Arizona",
        "brand":"99 Cents Only",
        "updated":"2024-03-14"
    },
    {
        "store_id":"2242739",
        "store_name":"Tempe - Southern",
        "street":"790 E. Southern Ave",
        "city":"Tempe",
        "state":"AZ",
        "zip":"85282",
        "url":"https:\/\/locations.99only.com\/az\/tempe\/discount-store-133.html",
        "latitude":"33.393727",
        "longitude":"-111.9286812",
        "state_name":"Arizona",
        "brand":"99 Cents Only",
        "updated":"2024-03-14"
    },
    {
        "store_id":"2242767",
        "store_name":"Phoenix - Bell",
        "street":"2315 E. Bell Rd",
        "city":"Phoenix",
        "state":"AZ",
        "zip":"85022",
        "url":"https:\/\/locations.99only.com\/az\/phoenix\/discount-store-166.html",
        "latitude":"33.6390459",
        "longitude":"-112.0322671",
        "state_name":"Arizona",
        "brand":"99 Cents Only",
        "updated":"2024-03-14"
    },
    {
        "store_id":"2242801",
        "store_name":"Glendale - 67th Avenue",
        "street":"20165 N. 67th Ave",
        "city":"Glendale",
        "state":"AZ",
        "zip":"85308",
        "url":"https:\/\/locations.99only.com\/az\/glendale\/discount-store-207.html",
        "latitude":"33.6649594",
        "longitude":"-112.2016522",
        "state_name":"Arizona",
        "brand":"99 Cents Only",
        "updated":"2024-03-14"
    },
    {
        "store_id":"2242734",
        "store_name":"Bakersfield - Ming",
        "street":"4200 Ming Ave",
        "city":"Bakersfield",
        "state":"CA",
        "zip":"93309",
        "url":"https:\/\/locations.99only.com\/ca\/bakersfield\/discount-store-128.html",
        "latitude":"35.3401801",
        "longitude":"-119.0499362",
        "state_name":"California",
        "brand":"99 Cents Only",
        "updated":"2024-03-14"
    },
    {
        "store_id":"2242750",
        "store_name":"Bakersfield - White Lane",
        "street":"1501 White Ln",
        "city":"Bakersfield",
        "state":"CA",
        "zip":"93307",
        "url":"https:\/\/locations.99only.com\/ca\/bakersfield\/discount-store-146.html",
        "latitude":"35.3163797",
        "longitude":"-119.0195333",
        "state_name":"California",
        "brand":"99 Cents Only",
        "updated":"2024-03-14"
    },
    {
        "store_id":"2242838",
        "store_name":"Bakersfield - Olive",
        "street":"1121 Olive Dr",
        "city":"Bakersfield",
        "state":"CA",
        "zip":"93308",
        "url":"https:\/\/locations.99only.com\/ca\/bakersfield\/discount-store-258.html",
        "latitude":"35.4112479",
        "longitude":"-119.0446289",
        "state_name":"California",
        "brand":"99 Cents Only",
        "updated":"2024-03-14"
    },
    {
        "store_id":"2242735",
        "store_name":"Bakersfield - Mt. Vernon",
        "street":"2682 Mt. Vernon Ave",
        "city":"Bakersfield",
        "state":"CA",
        "zip":"93306",
        "url":"https:\/\/locations.99only.com\/ca\/bakersfield\/discount-store-129.html",
        "latitude":"35.3962627",
        "longitude":"-118.9690569",
        "state_name":"California",
        "brand":"99 Cents Only",
        "updated":"2024-03-14"
    },
    {
        "store_id":"2242972",
        "store_name":"Bakersfield - Niles",
        "street":"3815 Niles St",
        "city":"Bakersfield",
        "state":"CA",
        "zip":"93306",
        "url":"https:\/\/locations.99only.com\/ca\/bakersfield\/discount-store-438.html",
        "latitude":"35.3754766",
        "longitude":"-118.9413217",
        "state_name":"California",
        "brand":"99 Cents Only",
        "updated":"2024-03-14"
    },
    {
        "store_id":"2242937",
        "store_name":"Bakersfield - Centennial",
        "street":"8200 Centennial Plaza Way",
        "city":"Bakersfield",
        "state":"CA",
        "zip":"93312",
        "url":"https:\/\/locations.99only.com\/ca\/bakersfield\/discount-store-393.html",
        "latitude":"35.4019233",
        "longitude":"-119.0938989",
        "state_name":"California",
        "brand":"99 Cents Only",
        "updated":"2024-03-14"
    },
    {
        "store_id":"2242943",
        "store_name":"Wasco - Hwy 46",
        "street":"1304 Hwy 46",
        "city":"Wasco",
        "state":"CA",
        "zip":"93280",
        "url":"https:\/\/locations.99only.com\/ca\/wasco\/discount-store-402.html",
        "latitude":"35.6023111",
        "longitude":"-119.3416308",
        "state_name":"California",
        "brand":"99 Cents Only",
        "updated":"2024-03-14"
    },
    {
        "store_id":"2242882",
        "store_name":"Delano",
        "street":"626 Cecil Ave",
        "city":"Delano",
        "state":"CA",
        "zip":"93215",
        "url":"https:\/\/locations.99only.com\/ca\/delano\/discount-store-332.html",
        "latitude":"35.775536",
        "longitude":"-119.250747",
        "state_name":"California",
        "brand":"99 Cents Only",
        "updated":"2024-03-14"
    },
    {
        "store_id":"2242841",
        "store_name":"Stockton - March Lane",
        "street":"1449 W. March Ln",
        "city":"Stockton",
        "state":"CA",
        "zip":"95207",
        "url":"https:\/\/locations.99only.com\/ca\/stockton\/discount-store-264.html",
        "latitude":"37.9897927",
        "longitude":"-121.3233346",
        "state_name":"California",
        "brand":"99 Cents Only",
        "updated":"2024-03-14"
    },
    {
        "store_id":"2242776",
        "store_name":"Stockton - Hammer Lane",
        "street":"1120 E. Hammer Ln",
        "city":"Stockton",
        "state":"CA",
        "zip":"95210",
        "url":"https:\/\/locations.99only.com\/ca\/stockton\/discount-store-177.html",
        "latitude":"38.0193696",
        "longitude":"-121.2978613",
        "state_name":"California",
        "brand":"99 Cents Only",
        "updated":"2024-03-14"
    },
    {
        "store_id":"2242759",
        "store_name":"Lodi",
        "street":"300 W. Kettleman Ln",
        "city":"Lodi",
        "state":"CA",
        "zip":"95240",
        "url":"https:\/\/locations.99only.com\/ca\/lodi\/discount-store-157.html",
        "latitude":"38.1141564",
        "longitude":"-121.2773447",
        "state_name":"California",
        "brand":"99 Cents Only",
        "updated":"2024-03-14"
    },
    {
        "store_id":"2242866",
        "store_name":"Modesto - McHenry",
        "street":"2205 McHenry Ave",
        "city":"Modesto",
        "state":"CA",
        "zip":"95350",
        "url":"https:\/\/locations.99only.com\/ca\/modesto\/discount-store-313.html",
        "latitude":"37.6752558",
        "longitude":"-120.995429",
        "state_name":"California",
        "brand":"99 Cents Only",
        "updated":"2024-03-14"
    },
    {
        "store_id":"2242766",
        "store_name":"Ceres",
        "street":"1450 E. Hatch Rd",
        "city":"Modesto",
        "state":"CA",
        "zip":"95351",
        "url":"https:\/\/locations.99only.com\/ca\/modesto\/discount-store-165.html",
        "latitude":"37.6079937",
        "longitude":"-120.9709164",
        "state_name":"California",
        "brand":"99 Cents Only",
        "updated":"2024-03-14"
    },
    {
        "store_id":"2243025",
        "store_name":"Fort Worth - Alta Mere",
        "street":"455 Sherry Ln",
        "city":"Fort Worth",
        "state":"TX",
        "zip":"76114",
        "url":"https:\/\/locations.99only.com\/tx\/fortworth\/discount-store-2882.html",
        "latitude":"32.7520975",
        "longitude":"-97.428418",
        "state_name":"Texas",
        "brand":"99 Cents Only",
        "updated":"2024-03-14"
    },
    {
        "store_id":"2242995",
        "store_name":"Fort Worth",
        "street":"6732 Camp Bowie Blvd",
        "city":"Fort Worth",
        "state":"TX",
        "zip":"76116",
        "url":"https:\/\/locations.99only.com\/tx\/fortworth\/discount-store-2823.html",
        "latitude":"32.722308",
        "longitude":"-97.4338275",
        "state_name":"Texas",
        "brand":"99 Cents Only",
        "updated":"2024-03-14"
    },
    {
        "store_id":"2242964",
        "store_name":"Mesa - Gilbert",
        "street":"1045 S. Gilbert Rd",
        "city":"Mesa",
        "state":"AZ",
        "zip":"85204",
        "url":"https:\/\/locations.99only.com\/az\/mesa\/discount-store-426.html",
        "latitude":"33.3960107",
        "longitude":"-111.786898",
        "state_name":"Arizona",
        "brand":"99 Cents Only",
        "updated":"2024-03-14"
    },
    {
        "store_id":"2242861",
        "store_name":"Gilbert",
        "street":"750 N. Gilbert Rd",
        "city":"Gilbert",
        "state":"AZ",
        "zip":"85233",
        "url":"https:\/\/locations.99only.com\/az\/gilbert\/discount-store-306.html",
        "latitude":"33.3636775",
        "longitude":"-111.7925806",
        "state_name":"Arizona",
        "brand":"99 Cents Only",
        "updated":"2024-03-14"
    },
    {
        "store_id":"2242749",
        "store_name":"Mesa - Country Club",
        "street":"1120 S. Country Club Dr",
        "city":"Mesa",
        "state":"AZ",
        "zip":"85210",
        "url":"https:\/\/locations.99only.com\/az\/mesa\/discount-store-145.html",
        "latitude":"33.3949085",
        "longitude":"-111.8418819",
        "state_name":"Arizona",
        "brand":"99 Cents Only",
        "updated":"2024-03-14"
    },
    {
        "store_id":"2242959",
        "store_name":"Mesa - Stapley",
        "street":"2009 N Stapley Dr",
        "city":"Mesa",
        "state":"AZ",
        "zip":"85203",
        "url":"https:\/\/locations.99only.com\/az\/mesa\/discount-store-419.html",
        "latitude":"33.4521072",
        "longitude":"-111.8038526",
        "state_name":"Arizona",
        "brand":"99 Cents Only",
        "updated":"2024-03-14"
    },
    {
        "store_id":"2242764",
        "store_name":"Mesa - Main",
        "street":"4433 E. Main St",
        "city":"Mesa",
        "state":"AZ",
        "zip":"85205",
        "url":"https:\/\/locations.99only.com\/az\/mesa\/discount-store-163.html",
        "latitude":"33.4141798",
        "longitude":"-111.7351861",
        "state_name":"Arizona",
        "brand":"99 Cents Only",
        "updated":"2024-03-14"
    },
    {
        "store_id":"2242768",
        "store_name":"Chandler",
        "street":"1996 N. Alma School Rd",
        "city":"Chandler",
        "state":"AZ",
        "zip":"85224",
        "url":"https:\/\/locations.99only.com\/az\/chandler\/discount-store-167.html",
        "latitude":"33.334679",
        "longitude":"-111.8608643",
        "state_name":"Arizona",
        "brand":"99 Cents Only",
        "updated":"2024-03-14"
    },
    {
        "store_id":"2242875",
        "store_name":"Mesa - Power",
        "street":"2070 S. Power Rd",
        "city":"Mesa",
        "state":"AZ",
        "zip":"85208",
        "url":"https:\/\/locations.99only.com\/az\/mesa\/discount-store-324.html",
        "latitude":"33.3782064",
        "longitude":"-111.6879976",
        "state_name":"Arizona",
        "brand":"99 Cents Only",
        "updated":"2024-03-14"
    },
    {
        "store_id":"2242932",
        "store_name":"Scottsdale - Indian Bend",
        "street":"8950 E. Talking Stick Way",
        "city":"Scottsdale",
        "state":"AZ",
        "zip":"85250",
        "url":"https:\/\/locations.99only.com\/az\/scottsdale\/discount-store-388.html",
        "latitude":"33.5403989",
        "longitude":"-111.8892201",
        "state_name":"Arizona",
        "brand":"99 Cents Only",
        "updated":"2024-03-14"
    },
    {
        "store_id":"2242910",
        "store_name":"Rancho Cucamonga - Foothill",
        "street":"10848 Foothill Blvd",
        "city":"Rancho Cucamonga",
        "state":"CA",
        "zip":"91730",
        "url":"https:\/\/locations.99only.com\/ca\/ranchocucamonga\/discount-store-365.html",
        "latitude":"34.1078664",
        "longitude":"-117.5682032",
        "state_name":"California",
        "brand":"99 Cents Only",
        "updated":"2024-03-14"
    },
    {
        "store_id":"2242787",
        "store_name":"Turlock",
        "street":"701 N. Golden State Blvd",
        "city":"Turlock",
        "state":"CA",
        "zip":"95380",
        "url":"https:\/\/locations.99only.com\/ca\/turlock\/discount-store-188.html",
        "latitude":"37.4992757",
        "longitude":"-120.8515991",
        "state_name":"California",
        "brand":"99 Cents Only",
        "updated":"2024-03-14"
    },
    {
        "store_id":"2242857",
        "store_name":"Atwater",
        "street":"1870 Bellevue Rd",
        "city":"Atwater",
        "state":"CA",
        "zip":"95301",
        "url":"https:\/\/locations.99only.com\/ca\/atwater\/discount-store-292.html",
        "latitude":"37.3592954",
        "longitude":"-120.6129345",
        "state_name":"California",
        "brand":"99 Cents Only",
        "updated":"2024-03-14"
    },
    {
        "store_id":"2242755",
        "store_name":"Merced",
        "street":"1111 Olive Ave",
        "city":"Merced",
        "state":"CA",
        "zip":"95348",
        "url":"https:\/\/locations.99only.com\/ca\/merced\/discount-store-151.html",
        "latitude":"37.3203868",
        "longitude":"-120.4876936",
        "state_name":"California",
        "brand":"99 Cents Only",
        "updated":"2024-03-14"
    },
    {
        "store_id":"2242763",
        "store_name":"Porterville",
        "street":"825 W. Henderson Ave",
        "city":"Porterville",
        "state":"CA",
        "zip":"93257",
        "url":"https:\/\/locations.99only.com\/ca\/porterville\/discount-store-162.html",
        "latitude":"36.0791738",
        "longitude":"-119.0357186",
        "state_name":"California",
        "brand":"99 Cents Only",
        "updated":"2024-03-14"
    },
    {
        "store_id":"2242901",
        "store_name":"San Bernardino - Waterman",
        "street":"1003 N. Waterman Ave.",
        "city":"San Bernardino",
        "state":"CA",
        "zip":"92410",
        "url":"https:\/\/locations.99only.com\/ca\/sanbernardino\/discount-store-356.html",
        "latitude":"34.1179555",
        "longitude":"-117.2767049",
        "state_name":"California",
        "brand":"99 Cents Only",
        "updated":"2024-03-14"
    },
    {
        "store_id":"2242826",
        "store_name":"Rialto - Baseline",
        "street":"212 W. Baseline Rd",
        "city":"Rialto",
        "state":"CA",
        "zip":"92376",
        "url":"https:\/\/locations.99only.com\/ca\/rialto\/discount-store-236.html",
        "latitude":"34.1227842",
        "longitude":"-117.3730776",
        "state_name":"California",
        "brand":"99 Cents Only",
        "updated":"2024-03-14"
    },
    {
        "store_id":"2242905",
        "store_name":"San Bernardino - Rio",
        "street":"2028 E Highland Ave",
        "city":"San Bernardino",
        "state":"CA",
        "zip":"92404",
        "url":"https:\/\/locations.99only.com\/ca\/sanbernardino\/discount-store-360.html",
        "latitude":"34.1360529",
        "longitude":"-117.2426661",
        "state_name":"California",
        "brand":"99 Cents Only",
        "updated":"2024-03-14"
    },
    {
        "store_id":"2242730",
        "store_name":"Rialto",
        "street":"1321 W. Foothill Blvd",
        "city":"Rialto",
        "state":"CA",
        "zip":"92376",
        "url":"https:\/\/locations.99only.com\/ca\/rialto\/discount-store-123.html",
        "latitude":"34.1054926",
        "longitude":"-117.3969914",
        "state_name":"California",
        "brand":"99 Cents Only",
        "updated":"2024-03-14"
    },
    {
        "store_id":"2242702",
        "store_name":"Fontana",
        "street":"9255 Sierra Ave",
        "city":"Fontana",
        "state":"CA",
        "zip":"92335",
        "url":"https:\/\/locations.99only.com\/ca\/fontana\/discount-store-89.html",
        "latitude":"34.086327",
        "longitude":"-117.4351739",
        "state_name":"California",
        "brand":"99 Cents Only",
        "updated":"2024-03-14"
    },
    {
        "store_id":"2242852",
        "store_name":"Riverside - Limonite",
        "street":"8900 Limonite Ave",
        "city":"Riverside",
        "state":"CA",
        "zip":"92509",
        "url":"https:\/\/locations.99only.com\/ca\/riverside\/discount-store-285.html",
        "latitude":"33.9746972",
        "longitude":"-117.4777532",
        "state_name":"California",
        "brand":"99 Cents Only",
        "updated":"2024-03-14"
    },
    {
        "store_id":"2242927",
        "store_name":"Riverside - Van Buren",
        "street":"6230 Van Buren Blvd",
        "city":"Riverside",
        "state":"CA",
        "zip":"92503",
        "url":"https:\/\/locations.99only.com\/ca\/riverside\/discount-store-383.html",
        "latitude":"33.9444618",
        "longitude":"-117.455547",
        "state_name":"California",
        "brand":"99 Cents Only",
        "updated":"2024-03-14"
    },
    {
        "store_id":"2242903",
        "store_name":"Rohnert Park",
        "street":"415 Rohnert Park Expy",
        "city":"Rohnert Park",
        "state":"CA",
        "zip":"94928",
        "url":"https:\/\/locations.99only.com\/ca\/rohnertpark\/discount-store-358.html",
        "latitude":"38.3465129",
        "longitude":"-122.7191081",
        "state_name":"California",
        "brand":"99 Cents Only",
        "updated":"2024-03-14"
    },
    {
        "store_id":"2242790",
        "store_name":"Vacaville",
        "street":"551 Peabody Rd",
        "city":"Vacaville",
        "state":"CA",
        "zip":"95687",
        "url":"https:\/\/locations.99only.com\/ca\/vacaville\/discount-store-192.html",
        "latitude":"38.3455222",
        "longitude":"-121.9722906",
        "state_name":"California",
        "brand":"99 Cents Only",
        "updated":"2024-03-14"
    },
    {
        "store_id":"2242762",
        "store_name":"Surprise",
        "street":"12801 W. Bell Rd",
        "city":"Surprise",
        "state":"AZ",
        "zip":"85374",
        "url":"https:\/\/locations.99only.com\/az\/surprise\/discount-store-161.html",
        "latitude":"33.6371458",
        "longitude":"-112.3370272",
        "state_name":"Arizona",
        "brand":"99 Cents Only",
        "updated":"2024-03-14"
    },
    {
        "store_id":"2242984",
        "store_name":"Houston - Atascocita",
        "street":"7130 FM 1960",
        "city":"Humble",
        "state":"TX",
        "zip":"77346",
        "url":"https:\/\/locations.99only.com\/tx\/humble\/discount-store-2806.html",
        "latitude":"29.9974294",
        "longitude":"-95.1696928",
        "state_name":"Texas",
        "brand":"99 Cents Only",
        "updated":"2024-03-14"
    },
    {
        "store_id":"2242865",
        "store_name":"Tucson - Oracle",
        "street":"4144 N. Oracle Rd",
        "city":"Tucson",
        "state":"AZ",
        "zip":"85705",
        "url":"https:\/\/locations.99only.com\/az\/tucson\/discount-store-312.html",
        "latitude":"32.282403",
        "longitude":"-110.977177",
        "state_name":"Arizona",
        "brand":"99 Cents Only",
        "updated":"2024-03-14"
    },
    {
        "store_id":"2242800",
        "store_name":"Tucson - Golf Links",
        "street":"7125 E. Golf Links Rd",
        "city":"Tucson",
        "state":"AZ",
        "zip":"85730",
        "url":"https:\/\/locations.99only.com\/az\/tucson\/discount-store-206.html",
        "latitude":"32.1933855",
        "longitude":"-110.8395525",
        "state_name":"Arizona",
        "brand":"99 Cents Only",
        "updated":"2024-03-14"
    },
    {
        "store_id":"2242799",
        "store_name":"Tucson - Valencia",
        "street":"1675 W. Valencia Blvd",
        "city":"Tucson",
        "state":"AZ",
        "zip":"85746",
        "url":"https:\/\/locations.99only.com\/az\/tucson\/discount-store-205.html",
        "latitude":"32.1322397",
        "longitude":"-111.0006801",
        "state_name":"Arizona",
        "brand":"99 Cents Only",
        "updated":"2024-03-14"
    },
    {
        "store_id":"2242814",
        "store_name":"Tucson - Marana",
        "street":"4160 W. Ina Rd",
        "city":"Tucson",
        "state":"AZ",
        "zip":"85741",
        "url":"https:\/\/locations.99only.com\/az\/tucson\/discount-store-222.html",
        "latitude":"32.3385163",
        "longitude":"-111.0544265",
        "state_name":"Arizona",
        "brand":"99 Cents Only",
        "updated":"2024-03-14"
    },
    {
        "store_id":"2242831",
        "store_name":"Sahuarita",
        "street":"750 W. Calle Arroyo Sur",
        "city":"Sahuarita",
        "state":"AZ",
        "zip":"85614",
        "url":"https:\/\/locations.99only.com\/az\/sahuarita\/discount-store-243.html",
        "latitude":"31.913204",
        "longitude":"-110.9811204",
        "state_name":"Arizona",
        "brand":"99 Cents Only",
        "updated":"2024-03-14"
    },
    {
        "store_id":"2242953",
        "store_name":"Sonora",
        "street":"740 Mono Way",
        "city":"Sonora",
        "state":"CA",
        "zip":"95370",
        "url":"https:\/\/locations.99only.com\/ca\/sonora\/discount-store-413.html",
        "latitude":"37.974868",
        "longitude":"-120.3715635",
        "state_name":"California",
        "brand":"99 Cents Only",
        "updated":"2024-03-14"
    },
    {
        "store_id":"2242678",
        "store_name":"Newhall",
        "street":"24200 Lyons Ave",
        "city":"Newhall",
        "state":"CA",
        "zip":"91321",
        "url":"https:\/\/locations.99only.com\/ca\/newhall\/discount-store-60.html",
        "latitude":"34.3777469",
        "longitude":"-118.5587326",
        "state_name":"California",
        "brand":"99 Cents Only",
        "updated":"2024-03-14"
    },
    {
        "store_id":"2242924",
        "store_name":"Corona - McKinley",
        "street":"450 N McKinley",
        "city":"Corona",
        "state":"CA",
        "zip":"92879",
        "url":"https:\/\/locations.99only.com\/ca\/corona\/discount-store-380.html",
        "latitude":"33.8881755",
        "longitude":"-117.5227083",
        "state_name":"California",
        "brand":"99 Cents Only",
        "updated":"2024-03-14"
    },
    {
        "store_id":"2242968",
        "store_name":"Riverside - Magnolia \/ La Sierra",
        "street":"11160 Magnolia Ave",
        "city":"Riverside",
        "state":"CA",
        "zip":"92505",
        "url":"https:\/\/locations.99only.com\/ca\/riverside\/discount-store-431.html",
        "latitude":"33.9017776",
        "longitude":"-117.4767898",
        "state_name":"California",
        "brand":"99 Cents Only",
        "updated":"2024-03-14"
    },
    {
        "store_id":"2242923",
        "store_name":"Eastvale",
        "street":"7115 Hamner Ave",
        "city":"Eastvale",
        "state":"CA",
        "zip":"91752",
        "url":"https:\/\/locations.99only.com\/ca\/eastvale\/discount-store-379.html",
        "latitude":"33.9573739",
        "longitude":"-117.5588483",
        "state_name":"California",
        "brand":"99 Cents Only",
        "updated":"2024-03-14"
    },
    {
        "store_id":"2243028",
        "store_name":"El Paso",
        "street":"1000 S. Stanton Street",
        "city":"El Paso",
        "state":"TX",
        "zip":"79901",
        "url":"https:\/\/locations.99only.com\/tx\/elpaso\/discount-store-2886.html",
        "latitude":"31.7499518",
        "longitude":"-106.4828291",
        "state_name":"Texas",
        "brand":"99 Cents Only",
        "updated":"2024-03-14"
    },
    {
        "store_id":"2242915",
        "store_name":"Menifee",
        "street":"26100 Newport Rd",
        "city":"Menifee",
        "state":"CA",
        "zip":"92586",
        "url":"https:\/\/locations.99only.com\/ca\/menifee\/discount-store-371.html",
        "latitude":"33.685735",
        "longitude":"-117.2047739",
        "state_name":"California",
        "brand":"99 Cents Only",
        "updated":"2024-03-14"
    },
    {
        "store_id":"2242948",
        "store_name":"Chico - Pillsbury",
        "street":"2156 Pillsbury Rd",
        "city":"Chico",
        "state":"CA",
        "zip":"95926",
        "url":"https:\/\/locations.99only.com\/ca\/chico\/discount-store-407.html",
        "latitude":"39.7583904",
        "longitude":"-121.8458531",
        "state_name":"California",
        "brand":"99 Cents Only",
        "updated":"2024-03-14"
    },
    {
        "store_id":"2242871",
        "store_name":"Yuba City",
        "street":"830 Colusa Ave",
        "city":"Yuba City",
        "state":"CA",
        "zip":"95991",
        "url":"https:\/\/locations.99only.com\/ca\/yubacity\/discount-store-319.html",
        "latitude":"39.1411102",
        "longitude":"-121.6281654",
        "state_name":"California",
        "brand":"99 Cents Only",
        "updated":"2024-03-14"
    },
    {
        "store_id":"2242893",
        "store_name":"Reno",
        "street":"5695 S. Virginia St",
        "city":"Reno",
        "state":"NV",
        "zip":"89502",
        "url":"https:\/\/locations.99only.com\/nv\/reno\/discount-store-346.html",
        "latitude":"39.4735054",
        "longitude":"-119.7883369",
        "state_name":"Nevada",
        "brand":"99 Cents Only",
        "updated":"2024-03-14"
    },
    {
        "store_id":"2242895",
        "store_name":"Sparks",
        "street":"580 E. Prater Way",
        "city":"Sparks",
        "state":"NV",
        "zip":"89431",
        "url":"https:\/\/locations.99only.com\/nv\/sparks\/discount-store-349.html",
        "latitude":"39.5430136",
        "longitude":"-119.7363603",
        "state_name":"Nevada",
        "brand":"99 Cents Only",
        "updated":"2024-03-14"
    },
    {
        "store_id":"2242935",
        "store_name":"Carson City - William",
        "street":"2080 E. Williman St",
        "city":"Carson City",
        "state":"NV",
        "zip":"89701",
        "url":"https:\/\/locations.99only.com\/nv\/carsoncity\/discount-store-391.html",
        "latitude":"39.1746128",
        "longitude":"-119.7450018",
        "state_name":"Nevada",
        "brand":"99 Cents Only",
        "updated":"2024-03-14"
    },
    {
        "store_id":"2242811",
        "store_name":"Apache Junction",
        "street":"3003 W. Apache Trail",
        "city":"Apache Junction",
        "state":"AZ",
        "zip":"85120",
        "url":"https:\/\/locations.99only.com\/az\/apachejunction\/discount-store-219.html",
        "latitude":"33.413779",
        "longitude":"-111.5782244",
        "state_name":"Arizona",
        "brand":"99 Cents Only",
        "updated":"2024-03-14"
    },
    {
        "store_id":"2242991",
        "store_name":"Rosenberg",
        "street":"2516 Avenue H",
        "city":"Rosenberg",
        "state":"TX",
        "zip":"77471",
        "url":"https:\/\/locations.99only.com\/tx\/rosenberg\/discount-store-2817.html",
        "latitude":"29.5576739",
        "longitude":"-95.8005312",
        "state_name":"Texas",
        "brand":"99 Cents Only",
        "updated":"2024-03-14"
    },
    {
        "store_id":"2243021",
        "store_name":"McAllen",
        "street":"2246 W. Nolana Ave",
        "city":"McAllen",
        "state":"TX",
        "zip":"78504",
        "url":"https:\/\/locations.99only.com\/tx\/mcallen\/discount-store-2878.html",
        "latitude":"26.2418822",
        "longitude":"-98.2386877",
        "state_name":"Texas",
        "brand":"99 Cents Only",
        "updated":"2024-03-14"
    },
    {
        "store_id":"2243012",
        "store_name":"Harlingen",
        "street":"701 N. 13th St",
        "city":"Harlingen",
        "state":"TX",
        "zip":"78550",
        "url":"https:\/\/locations.99only.com\/tx\/harlingen\/discount-store-2857.html",
        "latitude":"26.199427",
        "longitude":"-97.6840756",
        "state_name":"Texas",
        "brand":"99 Cents Only",
        "updated":"2024-03-14"
    },
    {
        "store_id":"2242926",
        "store_name":"Ramona",
        "street":"1326 Main St.",
        "city":"Ramona",
        "state":"CA",
        "zip":"92065",
        "url":"https:\/\/locations.99only.com\/ca\/ramona\/discount-store-382.html",
        "latitude":"33.0385202",
        "longitude":"-116.8739177",
        "state_name":"California",
        "brand":"99 Cents Only",
        "updated":"2024-03-14"
    },
    {
        "store_id":"2242880",
        "store_name":"Valencia",
        "street":"23300 Valencia Blvd",
        "city":"Valencia",
        "state":"CA",
        "zip":"91355",
        "url":"https:\/\/locations.99only.com\/ca\/valencia\/discount-store-330.html",
        "latitude":"34.421452",
        "longitude":"-118.5452347",
        "state_name":"California",
        "brand":"99 Cents Only",
        "updated":"2024-03-14"
    },
    {
        "store_id":"2242997",
        "store_name":"Conroe",
        "street":"1420 Loop 336",
        "city":"Conroe",
        "state":"TX",
        "zip":"77304",
        "url":"https:\/\/locations.99only.com\/tx\/conroe\/discount-store-2831.html",
        "latitude":"30.3340028",
        "longitude":"-95.4823724",
        "state_name":"Texas",
        "brand":"99 Cents Only",
        "updated":"2024-03-14"
    },
    {
        "store_id":"2242839",
        "store_name":"Coachella",
        "street":"50249 Harrison St. #J",
        "city":"Coachella",
        "state":"CA",
        "zip":"92236",
        "url":"https:\/\/locations.99only.com\/ca\/coachella\/discount-store-261.html",
        "latitude":"33.6825035",
        "longitude":"-116.1822982",
        "state_name":"California",
        "brand":"99 Cents Only",
        "updated":"2024-03-14"
    },
    {
        "store_id":"2242727",
        "store_name":"La Quinta",
        "street":"79840 Hwy. 111",
        "city":"La Quinta",
        "state":"CA",
        "zip":"92253",
        "url":"https:\/\/locations.99only.com\/ca\/laquinta\/discount-store-119.html",
        "latitude":"33.708845",
        "longitude":"-116.2718944",
        "state_name":"California",
        "brand":"99 Cents Only",
        "updated":"2024-03-14"
    },
    {
        "store_id":"2242808",
        "store_name":"Palm Desert - A & B",
        "street":"72845 A & B Hwy 111",
        "city":"Palm Desert",
        "state":"CA",
        "zip":"92260",
        "url":"https:\/\/locations.99only.com\/ca\/palmdesert\/discount-store-216.html",
        "latitude":"33.7205202",
        "longitude":"-116.3932607",
        "state_name":"California",
        "brand":"99 Cents Only",
        "updated":"2024-03-14"
    },
    {
        "store_id":"2242886",
        "store_name":"Palm Desert - Monterey",
        "street":"34660 Monterey Ave",
        "city":"Palm Desert",
        "state":"CA",
        "zip":"92211",
        "url":"https:\/\/locations.99only.com\/ca\/palmdesert\/discount-store-338.html",
        "latitude":"33.7962578",
        "longitude":"-116.3875733",
        "state_name":"California",
        "brand":"99 Cents Only",
        "updated":"2024-03-14"
    },
    {
        "store_id":"2242840",
        "store_name":"Cathedral City",
        "street":"31033 Date Palm Dr",
        "city":"Cathedral City",
        "state":"CA",
        "zip":"92234",
        "url":"https:\/\/locations.99only.com\/ca\/cathedralcity\/discount-store-262.html",
        "latitude":"33.8225055",
        "longitude":"-116.4594062",
        "state_name":"California",
        "brand":"99 Cents Only",
        "updated":"2024-03-14"
    },
    {
        "store_id":"2242976",
        "store_name":"Palm Springs",
        "street":"102 S Sunrise Way",
        "city":"Palm Springs",
        "state":"CA",
        "zip":"92262",
        "url":"https:\/\/locations.99only.com\/ca\/palmsprings\/discount-store-444.html",
        "latitude":"33.8225054",
        "longitude":"-116.5273654",
        "state_name":"California",
        "brand":"99 Cents Only",
        "updated":"2024-03-14"
    },
    {
        "store_id":"2242934",
        "store_name":"Yucca Valley - 29 Palms",
        "street":"57980 29 Palms Hwy",
        "city":"Yucca Valley",
        "state":"CA",
        "zip":"92284",
        "url":"https:\/\/locations.99only.com\/ca\/yuccavalley\/discount-store-390.html",
        "latitude":"34.1294073",
        "longitude":"-116.3996545",
        "state_name":"California",
        "brand":"99 Cents Only",
        "updated":"2024-03-14"
    },
    {
        "store_id":"2242717",
        "store_name":"Hemet",
        "street":"3385 W. Florida Ave",
        "city":"Hemet",
        "state":"CA",
        "zip":"92545",
        "url":"https:\/\/locations.99only.com\/ca\/hemet\/discount-store-108.html",
        "latitude":"33.7454323",
        "longitude":"-117.0079599",
        "state_name":"California",
        "brand":"99 Cents Only",
        "updated":"2024-03-14"
    },
    {
        "store_id":"2242824",
        "store_name":"Lake Elsinore",
        "street":"18286 Collier Ave",
        "city":"Lake Elsinore",
        "state":"CA",
        "zip":"92530",
        "url":"https:\/\/locations.99only.com\/ca\/lakeelsinore\/discount-store-234.html",
        "latitude":"33.6923998",
        "longitude":"-117.33977",
        "state_name":"California",
        "brand":"99 Cents Only",
        "updated":"2024-03-14"
    },
    {
        "store_id":"2242945",
        "store_name":"Boulder City",
        "street":"800 Buchanan Blvd",
        "city":"Boulder City",
        "state":"NV",
        "zip":"89005",
        "url":"https:\/\/locations.99only.com\/nv\/bouldercity\/discount-store-404.html",
        "latitude":"35.972352",
        "longitude":"-114.8467083",
        "state_name":"Nevada",
        "brand":"99 Cents Only",
        "updated":"2024-03-14"
    },
    {
        "store_id":"2242912",
        "store_name":"Maricopa",
        "street":"44515 W. Edison Rd",
        "city":"Maricopa",
        "state":"AZ",
        "zip":"85138",
        "url":"https:\/\/locations.99only.com\/az\/maricopa\/discount-store-367.html",
        "latitude":"33.064366",
        "longitude":"-112.0464261",
        "state_name":"Arizona",
        "brand":"99 Cents Only",
        "updated":"2024-03-14"
    },
    {
        "store_id":"2242778",
        "store_name":"Yucaipa",
        "street":"12013 5th St",
        "city":"Yucaipa",
        "state":"CA",
        "zip":"92399",
        "url":"https:\/\/locations.99only.com\/ca\/yucaipa\/discount-store-179.html",
        "latitude":"34.0350724",
        "longitude":"-117.0555029",
        "state_name":"California",
        "brand":"99 Cents Only",
        "updated":"2024-03-14"
    },
    {
        "store_id":"2242705",
        "store_name":"Victorville",
        "street":"14670 Seventh St",
        "city":"Victorville",
        "state":"CA",
        "zip":"92395",
        "url":"https:\/\/locations.99only.com\/ca\/victorville\/discount-store-93.html",
        "latitude":"34.5182613",
        "longitude":"-117.3127067",
        "state_name":"California",
        "brand":"99 Cents Only",
        "updated":"2024-03-14"
    },
    {
        "store_id":"2242741",
        "store_name":"Victorville - Amargosa",
        "street":"12480 Amargosa Rd",
        "city":"Victorville",
        "state":"CA",
        "zip":"92392",
        "url":"https:\/\/locations.99only.com\/ca\/victorville\/discount-store-137.html",
        "latitude":"34.4779465",
        "longitude":"-117.3430092",
        "state_name":"California",
        "brand":"99 Cents Only",
        "updated":"2024-03-14"
    },
    {
        "store_id":"2242837",
        "store_name":"Apple Valley",
        "street":"19201 Bear Valley Rd",
        "city":"Apple Valley",
        "state":"CA",
        "zip":"92308",
        "url":"https:\/\/locations.99only.com\/ca\/applevalley\/discount-store-254.html",
        "latitude":"34.4705034",
        "longitude":"-117.2435468",
        "state_name":"California",
        "brand":"99 Cents Only",
        "updated":"2024-03-14"
    },
    {
        "store_id":"2242973",
        "store_name":"Apple Valley - Hwy 18",
        "street":"20220 Hwy 18",
        "city":"Apple Valley",
        "state":"CA",
        "zip":"92307",
        "url":"https:\/\/locations.99only.com\/ca\/applevalley\/discount-store-440.html",
        "latitude":"34.5289301",
        "longitude":"-117.2217714",
        "state_name":"California",
        "brand":"99 Cents Only",
        "updated":"2024-03-14"
    },
    {
        "store_id":"2242907",
        "store_name":"Hesperia - Main Street",
        "street":"17255 Main St",
        "city":"Hesperia",
        "state":"CA",
        "zip":"92345",
        "url":"https:\/\/locations.99only.com\/ca\/hesperia\/discount-store-362.html",
        "latitude":"34.4182918",
        "longitude":"-117.2871755",
        "state_name":"California",
        "brand":"99 Cents Only",
        "updated":"2024-03-14"
    },
    {
        "store_id":"2242849",
        "store_name":"Hesperia - Topaz",
        "street":"14073 Main St., Suite 108",
        "city":"Hesperia",
        "state":"CA",
        "zip":"92345",
        "url":"https:\/\/locations.99only.com\/ca\/hesperia\/discount-store-281.html",
        "latitude":"34.4260584",
        "longitude":"-117.3567816",
        "state_name":"California",
        "brand":"99 Cents Only",
        "updated":"2024-03-14"
    },
    {
        "store_id":"2243023",
        "store_name":"Waco",
        "street":"5912 Bosque Blvd, Suite 323",
        "city":"Waco",
        "state":"TX",
        "zip":"76710",
        "url":"https:\/\/locations.99only.com\/tx\/waco\/discount-store-2880.html",
        "latitude":"31.5297336",
        "longitude":"-97.1961597",
        "state_name":"Texas",
        "brand":"99 Cents Only",
        "updated":"2024-03-14"
    },
    {
        "store_id":"2242830",
        "store_name":"Yuma - 4th Avenue",
        "street":"1701 S. 4th Ave",
        "city":"Yuma",
        "state":"AZ",
        "zip":"85364",
        "url":"https:\/\/locations.99only.com\/az\/yuma\/discount-store-242.html",
        "latitude":"32.696118",
        "longitude":"-114.6235581",
        "state_name":"Arizona",
        "brand":"99 Cents Only",
        "updated":"2024-03-14"
    },
    {
        "store_id":"2242911",
        "store_name":"Yuma - Fortuna",
        "street":"11274 S Fortuna Rd",
        "city":"Yuma",
        "state":"AZ",
        "zip":"85367",
        "url":"https:\/\/locations.99only.com\/az\/yuma\/discount-store-366.html",
        "latitude":"32.6679493",
        "longitude":"-114.4451353",
        "state_name":"Arizona",
        "brand":"99 Cents Only",
        "updated":"2024-03-14"
    },
    {
        "store_id":"2242828",
        "store_name":"Calexico",
        "street":"401 E. 2nd St",
        "city":"Calexico",
        "state":"CA",
        "zip":"92231",
        "url":"https:\/\/locations.99only.com\/ca\/calexico\/discount-store-238.html",
        "latitude":"32.6669291",
        "longitude":"-115.4932524",
        "state_name":"California",
        "brand":"99 Cents Only",
        "updated":"2024-03-14"
    },
    {
        "store_id":"2242939",
        "store_name":"El Centro - Danenberg",
        "street":"524 E. Danenberg Dr",
        "city":"El Centro",
        "state":"CA",
        "zip":"92243",
        "url":"https:\/\/locations.99only.com\/ca\/elcentro\/discount-store-395.html",
        "latitude":"32.7669565",
        "longitude":"-115.518951",
        "state_name":"California",
        "brand":"99 Cents Only",
        "updated":"2024-03-14"
    },
    {
        "store_id":"2242896",
        "store_name":"Santa Maria - Broadway",
        "street":"1627 N. Broadway",
        "city":"Santa Maria",
        "state":"CA",
        "zip":"93458",
        "url":"https:\/\/locations.99only.com\/ca\/santamaria\/discount-store-351.html",
        "latitude":"34.968732",
        "longitude":"-120.436583",
        "state_name":"California",
        "brand":"99 Cents Only",
        "updated":"2024-03-14"
    },
    {
        "store_id":"2242744",
        "store_name":"Santa Maria",
        "street":"312 E. Betteravia Rd",
        "city":"Santa Maria",
        "state":"CA",
        "zip":"93454",
        "url":"https:\/\/locations.99only.com\/ca\/santamaria\/discount-store-140.html",
        "latitude":"34.9207017",
        "longitude":"-120.4321264",
        "state_name":"California",
        "brand":"99 Cents Only",
        "updated":"2024-03-14"
    },
    {
        "store_id":"2242942",
        "store_name":"San Luis Obispo",
        "street":"1308 Madonna Rd",
        "city":"San Luis Obispo",
        "state":"CA",
        "zip":"93405",
        "url":"https:\/\/locations.99only.com\/ca\/sanluisobispo\/discount-store-401.html",
        "latitude":"35.2580627",
        "longitude":"-120.6897691",
        "state_name":"California",
        "brand":"99 Cents Only",
        "updated":"2024-03-14"
    },
    {
        "store_id":"2242898",
        "store_name":"Atascadero",
        "street":"7101 El Camino Real",
        "city":"Atascadero",
        "state":"CA",
        "zip":"93422",
        "url":"https:\/\/locations.99only.com\/ca\/atascadero\/discount-store-353.html",
        "latitude":"35.4865554",
        "longitude":"-120.6629941",
        "state_name":"California",
        "brand":"99 Cents Only",
        "updated":"2024-03-14"
    },
    {
        "store_id":"2242687",
        "store_name":"Lancaster",
        "street":"44601 Valley Central Way",
        "city":"Lancaster",
        "state":"CA",
        "zip":"93536",
        "url":"https:\/\/locations.99only.com\/ca\/lancaster\/discount-store-70.html",
        "latitude":"34.6924537",
        "longitude":"-118.1736614",
        "state_name":"California",
        "brand":"99 Cents Only",
        "updated":"2024-03-14"
    },
    {
        "store_id":"2242876",
        "store_name":"Lancaster - Avenue J",
        "street":"1030 E. Avenue J",
        "city":"Lancaster",
        "state":"CA",
        "zip":"93535",
        "url":"https:\/\/locations.99only.com\/ca\/lancaster\/discount-store-325.html",
        "latitude":"34.6880241",
        "longitude":"-118.111355",
        "state_name":"California",
        "brand":"99 Cents Only",
        "updated":"2024-03-14"
    },
    {
        "store_id":"2242718",
        "store_name":"Palmdale",
        "street":"442 West Avenue P",
        "city":"Palmdale",
        "state":"CA",
        "zip":"93350",
        "url":"https:\/\/locations.99only.com\/ca\/palmdale\/discount-store-109.html",
        "latitude":"34.598050",
        "longitude":"-118.139060",
        "state_name":"California",
        "brand":"99 Cents Only",
        "updated":"2024-03-14"
    },
    {
        "store_id":"2242877",
        "store_name":"Palmdale - 20th Street",
        "street":"38360-B 20th St E",
        "city":"Palmdale",
        "state":"CA",
        "zip":"93550",
        "url":"https:\/\/locations.99only.com\/ca\/palmdale\/discount-store-326.html",
        "latitude":"34.579026",
        "longitude":"-118.0919671",
        "state_name":"California",
        "brand":"99 Cents Only",
        "updated":"2024-03-14"
    },
    {
        "store_id":"2242848",
        "store_name":"Tulare",
        "street":"1035 E. Prosperity Ave",
        "city":"Tulare",
        "state":"CA",
        "zip":"93274",
        "url":"https:\/\/locations.99only.com\/ca\/tulare\/discount-store-279.html",
        "latitude":"36.2242205",
        "longitude":"-119.3316592",
        "state_name":"California",
        "brand":"99 Cents Only",
        "updated":"2024-03-14"
    },
    {
        "store_id":"2242856",
        "store_name":"Barstow",
        "street":"1308 E. Main St",
        "city":"Barstow",
        "state":"CA",
        "zip":"92311",
        "url":"https:\/\/locations.99only.com\/ca\/barstow\/discount-store-291.html",
        "latitude":"34.8949085",
        "longitude":"-117.0075921",
        "state_name":"California",
        "brand":"99 Cents Only",
        "updated":"2024-03-14"
    },
    {
        "store_id":"2242788",
        "store_name":"Redding",
        "street":"2611 Hilltop Dr",
        "city":"Redding",
        "state":"CA",
        "zip":"96002",
        "url":"https:\/\/locations.99only.com\/ca\/redding\/discount-store-190.html",
        "latitude":"40.5697038",
        "longitude":"-122.3575415",
        "state_name":"California",
        "brand":"99 Cents Only",
        "updated":"2024-03-14"
    },
    {
        "store_id":"2242931",
        "store_name":"Casa Grande",
        "street":"1683 E. Florence Blvd",
        "city":"Casa Grande",
        "state":"AZ",
        "zip":"85122",
        "url":"https:\/\/locations.99only.com\/az\/casagrande\/discount-store-387.html",
        "latitude":"32.8782385",
        "longitude":"-111.7153996",
        "state_name":"Arizona",
        "brand":"99 Cents Only",
        "updated":"2024-03-14"
    },
    {
        "store_id":"2242843",
        "store_name":"El Centro",
        "street":"2101 Imperial Blvd",
        "city":"El Centro",
        "state":"CA",
        "zip":"92243",
        "url":"https:\/\/locations.99only.com\/ca\/elcentro\/discount-store-267.html",
        "latitude":"32.8131016",
        "longitude":"-115.567322",
        "state_name":"California",
        "brand":"99 Cents Only",
        "updated":"2024-03-14"
    },
    {
        "store_id":"2242967",
        "store_name":"Bullhead City - Hwy 46",
        "street":"3699 Highway 95",
        "city":"Bullhead City",
        "state":"AZ",
        "zip":"86442",
        "url":"https:\/\/locations.99only.com\/az\/bullheadcity\/discount-store-430.html",
        "latitude":"35.0528237",
        "longitude":"-114.5918998",
        "state_name":"Arizona",
        "brand":"99 Cents Only",
        "updated":"2024-03-14"
    },
    {
        "store_id":"2242913",
        "store_name":"Kingman",
        "street":"3140 Stockton Hill Rd.",
        "city":"Kingman",
        "state":"AZ",
        "zip":"86401",
        "url":"https:\/\/locations.99only.com\/az\/kingman\/discount-store-368.html",
        "latitude":"35.2152166",
        "longitude":"-114.0340271",
        "state_name":"Arizona",
        "brand":"99 Cents Only",
        "updated":"2024-03-14"
    },
    {
        "store_id":"2242867",
        "store_name":"Lake Havasu City",
        "street":"1795 Kiowa Blvd",
        "city":"Lake Havasu",
        "state":"AZ",
        "zip":"86403",
        "url":"https:\/\/locations.99only.com\/az\/lakehavasu\/discount-store-314.html",
        "latitude":"34.5033378",
        "longitude":"-114.3515065",
        "state_name":"Arizona",
        "brand":"99 Cents Only",
        "updated":"2024-03-14"
    },
    {
        "store_id":"2242980",
        "store_name":"Douglas - 5th St",
        "street":"204 5th St",
        "city":"Douglas",
        "state":"AZ",
        "zip":"85607",
        "url":"https:\/\/locations.99only.com\/az\/douglas\/discount-store-449.html",
        "latitude":"31.3390485",
        "longitude":"-109.5587434",
        "state_name":"Arizona",
        "brand":"99 Cents Only",
        "updated":"2024-03-14"
    }
]