[
    {
        "storeNumber":"379",
        "facilityType":"NIKE_OWNED_STORE",
        "phone":"13103937384",
        "name":"Nike Santa Monica",
        "region":"NORTH_AMERICA",
        "company":"Nike",
        "street":"395 Santa Monica Place #118",
        "city":"Santa Monica",
        "state":"CA",
        "postalCode":"90401-2369",
        "country":"USA",
        "open_date":"2010-08-06",
        "latitude":34.014015,
        "longitude":-118.494434,
        "state_name":"California"
    },
    {
        "storeNumber":"246",
        "facilityType":"NIKE_OWNED_STORE",
        "phone":"13239370168",
        "name":"Nike The Grove",
        "region":"NORTH_AMERICA",
        "company":"Nike",
        "street":"189 The Grove Drive, Space Q-3",
        "city":"Los Angeles",
        "state":"CA",
        "postalCode":"90036-6233",
        "country":"USA",
        "open_date":"2015-09-10",
        "latitude":34.071845,
        "longitude":-118.356646,
        "state_name":"California"
    },
    {
        "storeNumber":"466",
        "facilityType":"NIKE_OWNED_STORE",
        "phone":"13104699027",
        "name":"Nike Well Collective - El Segundo",
        "region":"NORTH_AMERICA",
        "company":"Nike",
        "street":"850 S. Pacific Coast Highway",
        "city":"El Segundo",
        "state":"CA",
        "postalCode":"90245-4836",
        "country":"USA",
        "open_date":"2023-01-26",
        "latitude":33.9024865,
        "longitude":-118.3944465,
        "state_name":"California"
    },
    {
        "storeNumber":"264",
        "facilityType":"NIKE_OWNED_STORE",
        "phone":"13234868638",
        "name":"Nike Community Store - Watts",
        "region":"NORTH_AMERICA",
        "company":"Nike",
        "street":"9801 S Alameda St",
        "city":"Los Angeles",
        "state":"CA",
        "postalCode":"90002-3158",
        "country":"USA",
        "open_date":"2020-08-27",
        "latitude":33.947451,
        "longitude":-118.229345,
        "state_name":"California"
    },
    {
        "storeNumber":"488",
        "facilityType":"NIKE_OWNED_STORE",
        "phone":"14243995017",
        "name":"Nike Del Amo",
        "region":"NORTH_AMERICA",
        "company":"Nike",
        "street":"3525 W Carson St, 439A",
        "city":"Torrance",
        "state":"CA",
        "postalCode":"90503-5738",
        "country":"USA",
        "open_date":"2023-05-25",
        "latitude":33.8337707,
        "longitude":-118.3506624,
        "state_name":"California"
    },
    {
        "storeNumber":"384",
        "facilityType":"NIKE_OWNED_STORE",
        "phone":"18183575680",
        "name":"Nike Well Collective - Glendale",
        "region":"NORTH_AMERICA",
        "company":"Nike",
        "street":"837 Americana Way, Suite D11",
        "city":"Glendale",
        "state":"CA",
        "postalCode":"91210-1509",
        "country":"USA",
        "open_date":"2020-02-20",
        "latitude":34.144367,
        "longitude":-118.255965,
        "state_name":"California"
    },
    {
        "storeNumber":"225",
        "facilityType":"NIKE_OWNED_STORE",
        "phone":"13233079866",
        "name":"Nike Community Store - East LA",
        "region":"NORTH_AMERICA",
        "company":"Nike",
        "street":"4585 Whittier Blvd",
        "city":"East Los Angeles",
        "state":"CA",
        "postalCode":"90022-2432",
        "country":"USA",
        "open_date":"2015-10-12",
        "latitude":34.02303,
        "longitude":-118.16816,
        "state_name":"California"
    },
    {
        "storeNumber":"275",
        "facilityType":"NIKE_OWNED_STORE",
        "phone":"13106266131",
        "name":"Nike Factory Store - Torrance",
        "region":"NORTH_AMERICA",
        "company":"Nike",
        "street":"2545 Pacific Coast Highway Suite A",
        "city":"Torrance",
        "state":"CA",
        "postalCode":"90505-7035",
        "country":"USA",
        "open_date":"2017-05-25",
        "latitude":33.791968,
        "longitude":-118.330102,
        "state_name":"California"
    },
    {
        "storeNumber":"339",
        "facilityType":"NIKE_OWNED_STORE",
        "phone":"13237201684",
        "name":"Nike Factory Store - Citadel",
        "region":"NORTH_AMERICA",
        "company":"Nike",
        "street":"Citadel Outlets",
        "city":"Commerce",
        "state":"CA",
        "postalCode":"90040-1523",
        "country":"USA",
        "open_date":"2010-11-09",
        "latitude":34.008167,
        "longitude":-118.151526,
        "state_name":"California"
    },
    {
        "storeNumber":"323",
        "facilityType":"NIKE_OWNED_STORE",
        "phone":"16267937862",
        "name":"Nike Well Collective - Pasadena",
        "region":"NORTH_AMERICA",
        "company":"Nike",
        "street":"One Colorado",
        "city":"Pasadena",
        "state":"CA",
        "postalCode":"91105-1922",
        "country":"USA",
        "open_date":"2014-11-16",
        "latitude":34.146029,
        "longitude":-118.151361,
        "state_name":"California"
    },
    {
        "storeNumber":"227",
        "facilityType":"NIKE_OWNED_STORE",
        "phone":"15624327304",
        "name":"Nike Factory Store - Long Beach",
        "region":"NORTH_AMERICA",
        "company":"Nike",
        "street":"The Pike Outlets at Rainbow Harbor",
        "city":"Long Beach",
        "state":"CA",
        "postalCode":"90802-8139",
        "country":"USA",
        "open_date":"2005-09-24",
        "latitude":33.764344,
        "longitude":-118.194423,
        "state_name":"California"
    },
    {
        "storeNumber":"328",
        "facilityType":"NIKE_OWNED_STORE",
        "phone":"15628000137",
        "name":"Nike Well Collective - Long Beach",
        "region":"NORTH_AMERICA",
        "company":"Nike",
        "street":"6440 E. Pacific Coast Hwy #130",
        "city":"Long Beach",
        "state":"CA",
        "postalCode":"90803-4268",
        "country":"USA",
        "open_date":"2019-11-01",
        "latitude":33.756586,
        "longitude":-118.110287,
        "state_name":"California"
    },
    {
        "storeNumber":"250",
        "facilityType":"NIKE_OWNED_STORE",
        "phone":"16612847679",
        "name":"Nike Clearance Store - Santa Clarita",
        "region":"NORTH_AMERICA",
        "company":"Nike",
        "street":"Valencia Marketplace",
        "city":"Valencia",
        "state":"CA",
        "postalCode":"91381-1707",
        "country":"USA",
        "open_date":"2017-08-31",
        "latitude":34.38716,
        "longitude":-118.570637,
        "state_name":"California"
    },
    {
        "storeNumber":"189",
        "facilityType":"NIKE_OWNED_STORE",
        "phone":"17144569172",
        "name":"Nike Factory Store - Orange",
        "region":"NORTH_AMERICA",
        "company":"Nike",
        "street":"Outlets at Orange",
        "city":"Orange",
        "state":"CA",
        "postalCode":"92868-3102",
        "country":"USA",
        "open_date":"2008-09-10",
        "latitude":33.78451,
        "longitude":-117.892805,
        "state_name":"California"
    },
    {
        "storeNumber":"303",
        "facilityType":"NIKE_OWNED_STORE",
        "phone":"17144360203",
        "name":"Nike South Coast Plaza",
        "region":"NORTH_AMERICA",
        "company":"Nike",
        "street":"South Coast Plaza",
        "city":"Costa Mesa",
        "state":"CA",
        "postalCode":"92626-1791",
        "country":"USA",
        "open_date":"2004-07-28",
        "latitude":33.692559,
        "longitude":-117.892834,
        "state_name":"California"
    },
    {
        "storeNumber":"64",
        "facilityType":"NIKE_OWNED_STORE",
        "phone":"18053844480",
        "name":"Nike Factory Store - Camarillo",
        "region":"NORTH_AMERICA",
        "company":"Nike",
        "street":"Camarillo Premium Outlets",
        "city":"Camarillo",
        "state":"CA",
        "postalCode":"93010-7748",
        "country":"USA",
        "open_date":"1998-10-03",
        "latitude":34.215963,
        "longitude":-119.057244,
        "state_name":"California"
    },
    {
        "storeNumber":"480",
        "facilityType":"NIKE_OWNED_STORE",
        "phone":"19513947004",
        "name":"Nike Well Collective - Irvine",
        "region":"NORTH_AMERICA",
        "company":"Nike",
        "street":"670 Spectrum Center Dr. STE 880",
        "city":"Irvine",
        "state":"CA",
        "postalCode":"92618-4956",
        "country":"USA",
        "open_date":"2023-06-22",
        "latitude":33.6499644,
        "longitude":-117.7436901,
        "state_name":"California"
    },
    {
        "storeNumber":"110",
        "facilityType":"NIKE_OWNED_STORE",
        "phone":"19099802448",
        "name":"Nike Factory Store - Ontario",
        "region":"NORTH_AMERICA",
        "company":"Nike",
        "street":"Ontario Mills",
        "city":"Ontario",
        "state":"CA",
        "postalCode":"91764-5220",
        "country":"USA",
        "open_date":"2001-10-26",
        "latitude":34.074062,
        "longitude":-117.55177,
        "state_name":"California"
    },
    {
        "storeNumber":"595",
        "facilityType":"NIKE_OWNED_STORE",
        "phone":"19093614184",
        "name":"Nike Well Collective - Rancho Cucamonga",
        "region":"NORTH_AMERICA",
        "company":"Nike",
        "street":"12431 S Mainstreet, Suite 1220",
        "city":"Rancho Cucamonga",
        "state":"CA",
        "postalCode":"91739-8883",
        "country":"USA",
        "open_date":"2023-10-05",
        "latitude":34.1107,
        "longitude":-117.534121,
        "state_name":"California"
    },
    {
        "storeNumber":"200",
        "facilityType":"NIKE_OWNED_STORE",
        "phone":"+1 (949) 498-2138",
        "name":"Nike Factory Store - San Clemente",
        "region":"NORTH_AMERICA",
        "company":"Nike",
        "street":"Plaza San Clemente",
        "city":"San Clemente",
        "state":"CA",
        "postalCode":"92672",
        "country":"USA",
        "open_date":"2018-01-01",
        "latitude":33.438522,
        "longitude":-117.626883,
        "state_name":"California"
    },
    {
        "storeNumber":"247",
        "facilityType":"NIKE_OWNED_STORE",
        "phone":"19093078903",
        "name":"Nike Factory Store - Redlands",
        "region":"NORTH_AMERICA",
        "company":"Nike",
        "street":"Mountain Grove at Citrus Plaza",
        "city":"Redlands",
        "state":"CA",
        "postalCode":"92374-5046",
        "country":"USA",
        "open_date":"2017-03-30",
        "latitude":34.076247,
        "longitude":-117.2027,
        "state_name":"California"
    },
    {
        "storeNumber":"209",
        "facilityType":"NIKE_OWNED_STORE",
        "phone":"16618582151",
        "name":"Nike Factory Store - Tejon Ranch",
        "region":"NORTH_AMERICA",
        "company":"Nike",
        "street":"Tejon Ranch",
        "city":"Arvin",
        "state":"CA",
        "postalCode":"93203-2458",
        "country":"USA",
        "open_date":"2014-08-07",
        "latitude":34.984494,
        "longitude":-118.941877,
        "state_name":"California"
    },
    {
        "storeNumber":"232",
        "facilityType":"NIKE_OWNED_STORE",
        "phone":"+1 (760) 929-0146",
        "name":"Nike Unite - Carlsbad",
        "region":"NORTH_AMERICA",
        "company":"Nike",
        "street":"Carlsbad Premium Outlets",
        "city":"Carlsbad",
        "state":"CA",
        "postalCode":"92008",
        "country":"USA",
        "open_date":"2018-01-01",
        "latitude":33.125323,
        "longitude":-117.320206,
        "state_name":"California"
    },
    {
        "storeNumber":"38",
        "facilityType":"NIKE_OWNED_STORE",
        "phone":"19518490466",
        "name":"Nike Factory Store - Cabazon",
        "region":"NORTH_AMERICA",
        "company":"Nike",
        "street":"Desert Hills Premium Outlets",
        "city":"Cabazon",
        "state":"CA",
        "postalCode":"92230-2116",
        "country":"USA",
        "open_date":"1990-10-05",
        "latitude":33.92675,
        "longitude":-116.813069,
        "state_name":"California"
    },
    {
        "storeNumber":"477",
        "facilityType":"NIKE_OWNED_STORE",
        "phone":"17604940249",
        "name":"Nike Well Collective - La Costa",
        "region":"NORTH_AMERICA",
        "company":"Nike",
        "street":"1905 Calle Barcelona, Suite 12",
        "city":"Carlsbad",
        "state":"CA",
        "postalCode":"92009-8450",
        "country":"USA",
        "open_date":"2023-05-31",
        "latitude":33.0706989,
        "longitude":-117.2664634,
        "state_name":"California"
    },
    {
        "storeNumber":"216",
        "facilityType":"NIKE_OWNED_STORE",
        "phone":"17602532810",
        "name":"Nike Factory Store - Barstow",
        "region":"NORTH_AMERICA",
        "company":"Nike",
        "street":"Outlets at Barstow",
        "city":"Barstow",
        "state":"CA",
        "postalCode":"92311-9414",
        "country":"USA",
        "open_date":"2013-05-23",
        "latitude":34.845608,
        "longitude":-117.084336,
        "state_name":"California"
    },
    {
        "storeNumber":"307",
        "facilityType":"NIKE_OWNED_STORE",
        "phone":"16192949385",
        "name":"Nike Well Collective - Fashion Valley",
        "region":"NORTH_AMERICA",
        "company":"Nike",
        "street":"Fashion Valley Mall",
        "city":"San Diego",
        "state":"CA",
        "postalCode":"92108-1156",
        "country":"USA",
        "open_date":"2004-11-15",
        "latitude":32.767911,
        "longitude":-117.168151,
        "state_name":"California"
    },
    {
        "storeNumber":"4",
        "facilityType":"NIKE_OWNED_STORE",
        "phone":"16196593460",
        "name":"Nike Clearance Store - Alpine",
        "region":"NORTH_AMERICA",
        "company":"Nike",
        "street":"Viejas Outlet Center",
        "city":"Alpine",
        "state":"CA",
        "postalCode":"91901-1697",
        "country":"USA",
        "open_date":"1998-06-13",
        "latitude":32.84014,
        "longitude":-116.704692,
        "state_name":"California"
    },
    {
        "storeNumber":"30",
        "facilityType":"NIKE_OWNED_STORE",
        "phone":"16194288849",
        "name":"Nike Factory Store - San Ysidro",
        "region":"NORTH_AMERICA",
        "company":"Nike",
        "street":"Las Americas Premium Outlets",
        "city":"San Ysidro",
        "state":"CA",
        "postalCode":"92173-3002",
        "country":"USA",
        "open_date":"1988-11-08",
        "latitude":32.5442297,
        "longitude":-117.0411319,
        "state_name":"California"
    },
    {
        "storeNumber":"345",
        "facilityType":"NIKE_OWNED_STORE",
        "phone":"18057731684",
        "name":"Nike Factory Store - Pismo Beach",
        "region":"NORTH_AMERICA",
        "company":"Nike",
        "street":"Pismo Beach Premium Outlets",
        "city":"Pismo Beach",
        "state":"CA",
        "postalCode":"93449-5007",
        "country":"USA",
        "open_date":"2009-02-10",
        "latitude":35.1364961,
        "longitude":-120.6295234,
        "state_name":"California"
    },
    {
        "storeNumber":"121",
        "facilityType":"NIKE_OWNED_STORE",
        "phone":"15596859711",
        "name":"Nike Factory Store - Tulare",
        "region":"NORTH_AMERICA",
        "company":"Nike",
        "street":"1553 Retherford St., #C080",
        "city":"Tulare",
        "state":"CA",
        "postalCode":"93274-0000",
        "country":"USA",
        "open_date":"2003-08-06",
        "latitude":36.2274851,
        "longitude":-119.3355132,
        "state_name":"California"
    },
    {
        "storeNumber":"445",
        "facilityType":"NIKE_OWNED_STORE",
        "phone":"17024308910",
        "name":"Nike Well Collective - Red Rock",
        "region":"NORTH_AMERICA",
        "company":"Nike",
        "street":"2010 Festival Plaza Dr. #100",
        "city":"Las Vegas",
        "state":"NV",
        "postalCode":"89135-1453",
        "country":"USA",
        "open_date":"2021-12-02",
        "latitude":36.149273,
        "longitude":-115.3332333,
        "state_name":"Nevada"
    },
    {
        "storeNumber":"55",
        "facilityType":"NIKE_OWNED_STORE",
        "phone":"17028967444",
        "name":"Nike Clearance Store - Las Vegas South",
        "region":"NORTH_AMERICA",
        "company":"Nike",
        "street":"Las Vegas Premium Outlets - South",
        "city":"Las Vegas",
        "state":"NV",
        "postalCode":"89123-1001",
        "country":"USA",
        "open_date":"1993-11-19",
        "latitude":36.056007,
        "longitude":-115.169509,
        "state_name":"Nevada"
    },
    {
        "storeNumber":"385",
        "facilityType":"NIKE_OWNED_STORE",
        "phone":"17024070165",
        "name":"Nike Unite - Henderson",
        "region":"NORTH_AMERICA",
        "company":"Nike",
        "street":"Silverado Ranch Plaza",
        "city":"Las Vegas",
        "state":"NV",
        "postalCode":"89183-6900",
        "country":"USA",
        "open_date":"2011-11-15",
        "latitude":36.011133,
        "longitude":-115.121674,
        "state_name":"Nevada"
    },
    {
        "storeNumber":"93",
        "facilityType":"NIKE_OWNED_STORE",
        "phone":"17026508888",
        "name":"Nike Las Vegas",
        "region":"NORTH_AMERICA",
        "company":"Nike",
        "street":"The Forum Shops at Caesars",
        "city":"Las Vegas",
        "state":"NV",
        "postalCode":"89109-8975",
        "country":"USA",
        "open_date":"1997-11-21",
        "latitude":36.119598,
        "longitude":-115.1786,
        "state_name":"Nevada"
    },
    {
        "storeNumber":"119",
        "facilityType":"NIKE_OWNED_STORE",
        "phone":"17023828055",
        "name":"Nike Factory Store - Las Vegas North",
        "region":"NORTH_AMERICA",
        "company":"Nike",
        "street":"Las Vegas Premium Outlets - North",
        "city":"Las Vegas",
        "state":"NV",
        "postalCode":"89106-4543",
        "country":"USA",
        "open_date":"2003-08-01",
        "latitude":36.162076,
        "longitude":-115.158221,
        "state_name":"Nevada"
    },
    {
        "storeNumber":"37",
        "facilityType":"NIKE_OWNED_STORE",
        "phone":"14088474300",
        "name":"Nike Factory Store - Gilroy",
        "region":"NORTH_AMERICA",
        "company":"Nike",
        "street":"Gilroy Premium Outlets",
        "city":"Gilroy",
        "state":"CA",
        "postalCode":"95020-7321",
        "country":"USA",
        "open_date":"1990-02-02",
        "latitude":37.020773,
        "longitude":-121.564515,
        "state_name":"California"
    },
    {
        "storeNumber":"211",
        "facilityType":"NIKE_OWNED_STORE",
        "phone":"14083744147",
        "name":"Nike Factory Store - San Jose",
        "region":"NORTH_AMERICA",
        "company":"Nike",
        "street":"Nike Factory Store",
        "city":"San Jose",
        "state":"CA",
        "postalCode":"95129-5107",
        "country":"USA",
        "open_date":"2014-02-13",
        "latitude":37.292912,
        "longitude":-121.988485,
        "state_name":"California"
    },
    {
        "storeNumber":"411",
        "facilityType":"NIKE_OWNED_STORE",
        "phone":"14082167067",
        "name":"Nike Well Collective - Santana Row",
        "region":"NORTH_AMERICA",
        "company":"Nike",
        "street":"333 Santana Row, Suite 1000",
        "city":"San Jose",
        "state":"CA",
        "postalCode":"95128-2027",
        "country":"USA",
        "open_date":"2021-05-13",
        "latitude":37.322522,
        "longitude":-121.948068,
        "state_name":"California"
    },
    {
        "storeNumber":"123",
        "facilityType":"NIKE_OWNED_STORE",
        "phone":"14089426457",
        "name":"Nike Factory Store - Milpitas",
        "region":"NORTH_AMERICA",
        "company":"Nike",
        "street":"The Great Mall",
        "city":"Milpitas",
        "state":"CA",
        "postalCode":"95035-8041",
        "country":"USA",
        "open_date":"2005-04-28",
        "latitude":37.414978,
        "longitude":-121.89677,
        "state_name":"California"
    },
    {
        "storeNumber":"356",
        "facilityType":"NIKE_OWNED_STORE",
        "phone":"19254541272",
        "name":"Nike Factory Store - Livermore",
        "region":"NORTH_AMERICA",
        "company":"Nike",
        "street":"Livermore Valley Premium Outlets",
        "city":"Livermore",
        "state":"CA",
        "postalCode":"94551-4203",
        "country":"USA",
        "open_date":"2012-11-08",
        "latitude":37.698661,
        "longitude":-121.843267,
        "state_name":"California"
    },
    {
        "storeNumber":"456",
        "facilityType":"NIKE_OWNED_STORE",
        "phone":"19252150578",
        "name":"Nike Well Collective - San Ramon",
        "region":"NORTH_AMERICA",
        "company":"Nike",
        "street":"6000 Bollinger Canyon Rd STE 1400",
        "city":"San Ramon",
        "state":"CA",
        "postalCode":"94583-2307",
        "country":"USA",
        "open_date":"2022-01-27",
        "latitude":37.7629355,
        "longitude":-121.959808,
        "state_name":"California"
    },
    {
        "storeNumber":"377",
        "facilityType":"NIKE_OWNED_STORE",
        "phone":"15104833650",
        "name":"Nike Clearance Store - San Leandro",
        "region":"NORTH_AMERICA",
        "company":"Nike",
        "street":"1275 Marina Blvd",
        "city":"San Leandro",
        "state":"CA",
        "postalCode":"94577-3322",
        "country":"USA",
        "open_date":"2010-04-13",
        "latitude":37.710026,
        "longitude":-122.163458,
        "state_name":"California"
    },
    {
        "storeNumber":"476",
        "facilityType":"NIKE_OWNED_STORE",
        "phone":"15107358363",
        "name":"Nike Style - Emeryville",
        "region":"NORTH_AMERICA",
        "company":"Nike",
        "street":"5636 Bay Street",
        "city":"Emeryville",
        "state":"CA",
        "postalCode":"94608-2408",
        "country":"USA",
        "open_date":"2023-03-09",
        "latitude":37.8348372,
        "longitude":-122.2917494,
        "state_name":"California"
    },
    {
        "storeNumber":"86",
        "facilityType":"NIKE_OWNED_STORE",
        "phone":"14153926453",
        "name":"Nike San Francisco",
        "region":"NORTH_AMERICA",
        "company":"Nike",
        "street":"278 Post Street",
        "city":"San Francisco",
        "state":"CA",
        "postalCode":"94108-5101",
        "country":"USA",
        "open_date":"1997-02-15",
        "latitude":37.788682,
        "longitude":-122.406676,
        "state_name":"California"
    },
    {
        "storeNumber":"552",
        "facilityType":"NIKE_OWNED_STORE",
        "phone":"15108689344",
        "name":"Nike Well Collective - 4th Street",
        "region":"NORTH_AMERICA",
        "company":"Nike",
        "street":"1787 Fourth St",
        "city":"Berkeley",
        "state":"CA",
        "postalCode":"94710-1710",
        "country":"USA",
        "open_date":"2023-05-25",
        "latitude":37.8706327,
        "longitude":-122.3005201,
        "state_name":"California"
    },
    {
        "storeNumber":"386",
        "facilityType":"NIKE_OWNED_STORE",
        "phone":"16238772027",
        "name":"Nike Factory Store - Glendale",
        "region":"NORTH_AMERICA",
        "company":"Nike",
        "street":"Tanger Outlet Center - Westgate",
        "city":"Glendale",
        "state":"AZ",
        "postalCode":"85305-6813",
        "country":"USA",
        "open_date":"2012-11-15",
        "latitude":33.534467,
        "longitude":-112.267103,
        "state_name":"Arizona"
    },
    {
        "storeNumber":"35",
        "facilityType":"NIKE_OWNED_STORE",
        "phone":"19169857313",
        "name":"Nike Factory Store - Folsom",
        "region":"NORTH_AMERICA",
        "company":"Nike",
        "street":"Folsom Premium Outlets",
        "city":"Folsom",
        "state":"CA",
        "postalCode":"95630-8003",
        "country":"USA",
        "open_date":"1990-03-08",
        "latitude":38.644352,
        "longitude":-121.188938,
        "state_name":"California"
    },
    {
        "storeNumber":"573",
        "facilityType":"NIKE_OWNED_STORE",
        "phone":"19162460142",
        "name":"Nike Clearance Store - Sacramento",
        "region":"NORTH_AMERICA",
        "company":"Nike",
        "street":"2100 Arden Way, Suite #172",
        "city":"Sacramento",
        "state":"CA",
        "postalCode":"95825-2217",
        "country":"USA",
        "open_date":"2023-05-17",
        "latitude":38.5949072,
        "longitude":-121.4160289,
        "state_name":"California"
    },
    {
        "storeNumber":"62",
        "facilityType":"NIKE_OWNED_STORE",
        "phone":"16234650111",
        "name":"Nike Factory Store - Phoenix",
        "region":"NORTH_AMERICA",
        "company":"Nike",
        "street":"Outlets at Anthem",
        "city":"Phoenix",
        "state":"AZ",
        "postalCode":"85086-0415",
        "country":"USA",
        "open_date":"1996-09-26",
        "latitude":33.874877,
        "longitude":-112.148931,
        "state_name":"Arizona"
    },
    {
        "storeNumber":"72",
        "facilityType":"NIKE_OWNED_STORE",
        "phone":"17074557014",
        "name":"Nike Factory Store - Vacaville",
        "region":"NORTH_AMERICA",
        "company":"Nike",
        "street":"Vacaville Premium Outlets",
        "city":"Vacaville",
        "state":"CA",
        "postalCode":"95687-3235",
        "country":"USA",
        "open_date":"1997-11-07",
        "latitude":38.369113,
        "longitude":-121.954543,
        "state_name":"California"
    },
    {
        "storeNumber":"262",
        "facilityType":"NIKE_OWNED_STORE",
        "phone":"17072577093",
        "name":"Nike Factory Store - Napa",
        "region":"NORTH_AMERICA",
        "company":"Nike",
        "street":"Napa Premium Outlets",
        "city":"Napa",
        "state":"CA",
        "postalCode":"94558-5630",
        "country":"USA",
        "open_date":"2017-06-29",
        "latitude":38.295224,
        "longitude":-122.302727,
        "state_name":"California"
    },
    {
        "storeNumber":"294",
        "facilityType":"NIKE_OWNED_STORE",
        "phone":"1-480-282-4363",
        "name":"Nike Unite - Desert Ridge",
        "region":"NORTH_AMERICA",
        "company":"Nike",
        "street":"21001 N Tatum Blvd, Suite #38-1330",
        "city":"Phoenix",
        "state":"AZ",
        "postalCode":"85050",
        "country":"USA",
        "open_date":"2021-09-09",
        "latitude":33.6763537628,
        "longitude":-111.9735951799,
        "state_name":"Arizona"
    },
    {
        "storeNumber":"134",
        "facilityType":"NIKE_OWNED_STORE",
        "phone":"14808971312",
        "name":"Nike Clearance Store - Tempe",
        "region":"NORTH_AMERICA",
        "company":"Nike",
        "street":"Arizona Mills Mall",
        "city":"Tempe",
        "state":"AZ",
        "postalCode":"85282-6420",
        "country":"USA",
        "open_date":"2006-05-12",
        "latitude":33.38326,
        "longitude":-111.964289,
        "state_name":"Arizona"
    },
    {
        "storeNumber":"207",
        "facilityType":"NIKE_OWNED_STORE",
        "phone":"14806391780",
        "name":"Nike Unite - Chandler",
        "region":"NORTH_AMERICA",
        "company":"Nike",
        "street":"Phoenix Premium Outlets",
        "city":"Chandler",
        "state":"AZ",
        "postalCode":"85226-5518",
        "country":"USA",
        "open_date":"2013-04-04",
        "latitude":33.28794,
        "longitude":-111.974034,
        "state_name":"Arizona"
    },
    {
        "storeNumber":"147",
        "facilityType":"NIKE_OWNED_STORE",
        "phone":"17077699245",
        "name":"Nike Factory Store - Petaluma",
        "region":"NORTH_AMERICA",
        "company":"Nike",
        "street":"Petaluma Village Premium Outlets",
        "city":"Petaluma",
        "state":"CA",
        "postalCode":"94952-1988",
        "country":"USA",
        "open_date":"2007-05-02",
        "latitude":38.25761,
        "longitude":-122.64999,
        "state_name":"California"
    },
    {
        "storeNumber":"483",
        "facilityType":"NIKE_OWNED_STORE",
        "phone":"16028071028",
        "name":"Nike Unite - Tempe Marketplace",
        "region":"NORTH_AMERICA",
        "company":"Nike",
        "street":"2000 E Rio Salado Pkwy #1253",
        "city":"Tempe",
        "state":"AZ",
        "postalCode":"85281-5181",
        "country":"USA",
        "open_date":"2023-06-01",
        "latitude":33.4329995,
        "longitude":-111.9055278,
        "state_name":"Arizona"
    },
    {
        "storeNumber":"335",
        "facilityType":"NIKE_OWNED_STORE",
        "phone":"17753587871",
        "name":"Nike Unite - Reno",
        "region":"NORTH_AMERICA",
        "company":"Nike",
        "street":"Outlets at Legends",
        "city":"Sparks",
        "state":"NV",
        "postalCode":"89434-4419",
        "country":"USA",
        "open_date":"2009-06-18",
        "latitude":39.53192,
        "longitude":-119.721471,
        "state_name":"Nevada"
    },
    {
        "storeNumber":"238",
        "facilityType":"NIKE_OWNED_STORE",
        "phone":"15207446499",
        "name":"Nike Factory Store - Marana",
        "region":"NORTH_AMERICA",
        "company":"Nike",
        "street":"Tucson Premium Outlets",
        "city":"Tucson",
        "state":"AZ",
        "postalCode":"85742-8545",
        "country":"USA",
        "open_date":"2015-10-01",
        "latitude":32.374912,
        "longitude":-111.101944,
        "state_name":"Arizona"
    },
    {
        "storeNumber":"470",
        "facilityType":"NIKE_OWNED_STORE",
        "phone":"15207710080",
        "name":"Nike Clearance Store - Tucson",
        "region":"NORTH_AMERICA",
        "company":"Nike",
        "street":"5325 S. Calle Santa Cruz",
        "city":"Tucson",
        "state":"AZ",
        "postalCode":"85714-3963",
        "country":"USA",
        "open_date":"2023-04-27",
        "latitude":32.1549254,
        "longitude":-110.9890754,
        "state_name":"Arizona"
    },
    {
        "storeNumber":"317",
        "facilityType":"NIKE_OWNED_STORE",
        "phone":"18019011232",
        "name":"Nike Unite - Lehi",
        "region":"NORTH_AMERICA",
        "company":"Nike",
        "street":"Outlets at Traverse Mountain",
        "city":"Lehi",
        "state":"UT",
        "postalCode":"84043-3882",
        "country":"USA",
        "open_date":"2012-11-15",
        "latitude":40.434678,
        "longitude":-111.884048,
        "state_name":"Utah"
    },
    {
        "storeNumber":"464",
        "facilityType":"NIKE_OWNED_STORE",
        "phone":"13852746611",
        "name":"Nike Well Collective - Riverton",
        "region":"NORTH_AMERICA",
        "company":"Nike",
        "street":"13348 Teal Ridge Way Suite N-140",
        "city":"Riverton",
        "state":"UT",
        "postalCode":"84096-0000",
        "country":"USA",
        "open_date":"2022-09-29",
        "latitude":40.5087377,
        "longitude":-111.994974,
        "state_name":"Utah"
    },
    {
        "storeNumber":"342",
        "facilityType":"NIKE_OWNED_STORE",
        "phone":"18012821269",
        "name":"Nike Factory Store - West Jordan",
        "region":"NORTH_AMERICA",
        "company":"Nike",
        "street":"Jordan Landing",
        "city":"West Jordan",
        "state":"UT",
        "postalCode":"84084-5534",
        "country":"USA",
        "open_date":"2010-11-16",
        "latitude":40.622379,
        "longitude":-111.979776,
        "state_name":"Utah"
    },
    {
        "storeNumber":"61",
        "facilityType":"NIKE_OWNED_STORE",
        "phone":"14356497442",
        "name":"Nike Factory Store - Park City",
        "region":"NORTH_AMERICA",
        "company":"Nike",
        "street":"Outlets Park City",
        "city":"Park City",
        "state":"UT",
        "postalCode":"84098-4529",
        "country":"USA",
        "open_date":"1991-12-18",
        "latitude":40.725961,
        "longitude":-111.552636,
        "state_name":"Utah"
    },
    {
        "storeNumber":"287",
        "facilityType":"NIKE_OWNED_STORE",
        "phone":"18014515492",
        "name":"Nike Factory Store - Farmington",
        "region":"NORTH_AMERICA",
        "company":"Nike",
        "street":"210 North Station Parkway",
        "city":"Farmington",
        "state":"UT",
        "postalCode":"84025-2881",
        "country":"USA",
        "open_date":"2018-04-26",
        "latitude":40.98458,
        "longitude":-111.903551,
        "state_name":"Utah"
    },
    {
        "storeNumber":"205",
        "facilityType":"NIKE_OWNED_STORE",
        "phone":"12088983457",
        "name":"Nike Unite - Meridian",
        "region":"NORTH_AMERICA",
        "company":"Nike",
        "street":"Village at Meridian",
        "city":"Meridian",
        "state":"ID",
        "postalCode":"83646-6286",
        "country":"USA",
        "open_date":"2012-10-25",
        "latitude":43.6244865,
        "longitude":-116.3517261,
        "state_name":"Idaho"
    },
    {
        "storeNumber":"162",
        "facilityType":"NIKE_OWNED_STORE",
        "phone":"19158773146",
        "name":"Nike Factory Store - Canutillo",
        "region":"NORTH_AMERICA",
        "company":"Nike",
        "street":"The Outlet Shoppes at El Paso",
        "city":"Canutillo",
        "state":"TX",
        "postalCode":"79835-8594",
        "country":"USA",
        "open_date":"2007-10-11",
        "latitude":31.912826,
        "longitude":-106.585451,
        "state_name":"Texas"
    },
    {
        "storeNumber":"53",
        "facilityType":"NIKE_OWNED_STORE",
        "phone":"15413827700",
        "name":"Nike Factory Store - Bend",
        "region":"NORTH_AMERICA",
        "company":"Nike",
        "street":"Bend Factory Stores",
        "city":"Bend",
        "state":"OR",
        "postalCode":"97702-3287",
        "country":"USA",
        "open_date":"1998-09-19",
        "latitude":44.026219,
        "longitude":-121.313306,
        "state_name":"Oregon"
    },
    {
        "storeNumber":"319",
        "facilityType":"NIKE_OWNED_STORE",
        "phone":"15416863141",
        "name":"Nike Well Collective - Eugene",
        "region":"NORTH_AMERICA",
        "company":"Nike",
        "street":"5th Street Market",
        "city":"Eugene",
        "state":"OR",
        "postalCode":"97401-2780",
        "country":"USA",
        "open_date":"2021-01-21",
        "latitude":44.053464,
        "longitude":-123.090105,
        "state_name":"Oregon"
    },
    {
        "storeNumber":"129",
        "facilityType":"NIKE_OWNED_STORE",
        "phone":"15039820330",
        "name":"Nike Factory Store - Woodburn",
        "region":"NORTH_AMERICA",
        "company":"Nike",
        "street":"Woodburn Premium Outlets",
        "city":"Woodburn",
        "state":"OR",
        "postalCode":"97071-8458",
        "country":"USA",
        "open_date":"2005-10-26",
        "latitude":45.157412,
        "longitude":-122.876818,
        "state_name":"Oregon"
    },
    {
        "storeNumber":"178",
        "facilityType":"NIKE_OWNED_STORE",
        "phone":"15415571653",
        "name":"Nike Factory Store - Lincoln City",
        "region":"NORTH_AMERICA",
        "company":"Nike",
        "street":"Lincoln City Outlets",
        "city":"Lincoln City",
        "state":"OR",
        "postalCode":"97367-2661",
        "country":"USA",
        "open_date":"2008-03-11",
        "latitude":44.959388,
        "longitude":-124.01112,
        "state_name":"Oregon"
    },
    {
        "storeNumber":"533",
        "facilityType":"NIKE_OWNED_STORE",
        "phone":"15035427455",
        "name":"Nike Well Collective - Bridgeport Village",
        "region":"NORTH_AMERICA",
        "company":"Nike",
        "street":"Bridgeport Village",
        "city":"Tigard",
        "state":"OR",
        "postalCode":"97224-7765",
        "country":"USA",
        "open_date":"2023-05-11",
        "latitude":45.3967345,
        "longitude":-122.7518181,
        "state_name":"Oregon"
    },
    {
        "storeNumber":"368",
        "facilityType":"NIKE_OWNED_STORE",
        "phone":"+1 (503) 221-6453",
        "name":"Nike Portland",
        "region":"NORTH_AMERICA",
        "company":"Nike",
        "street":"Kress Building",
        "city":"Portland",
        "state":"OR",
        "postalCode":"97204",
        "country":"USA",
        "open_date":"2011-11-03",
        "latitude":45.518918,
        "longitude":-122.677139,
        "state_name":"Oregon"
    },
    {
        "storeNumber":"462",
        "facilityType":"NIKE_OWNED_STORE",
        "phone":"17192120048",
        "name":"Nike Well Collective - Colorado Springs",
        "region":"NORTH_AMERICA",
        "company":"Nike",
        "street":"Suite 309",
        "city":"Colorado Springs",
        "state":"CO",
        "postalCode":"80920-7691",
        "country":"USA",
        "open_date":"2023-01-26",
        "latitude":38.96266,
        "longitude":-104.79524,
        "state_name":"Colorado"
    },
    {
        "storeNumber":"7",
        "facilityType":"NIKE_OWNED_STORE",
        "phone":"13032711928",
        "name":"Nike Factory Store - Lakewood",
        "region":"NORTH_AMERICA",
        "company":"Nike",
        "street":"14500 W Colfax Ave.  Suite 105B",
        "city":"Lakewood",
        "state":"CO",
        "postalCode":"80401-3203",
        "country":"USA",
        "open_date":"2008-06-17",
        "latitude":39.731476,
        "longitude":-105.161397,
        "state_name":"Colorado"
    },
    {
        "storeNumber":"453",
        "facilityType":"NIKE_OWNED_STORE",
        "phone":"+1 (720) 743-3140",
        "name":"Nike Well Collective - Boulder",
        "region":"NORTH_AMERICA",
        "company":"Nike",
        "street":"1755 29th Street, Suite #1096",
        "city":"Boulder",
        "state":"CO",
        "postalCode":"80301",
        "country":"USA",
        "open_date":"2022-03-17",
        "latitude":40.0181392929,
        "longitude":-105.2561987301,
        "state_name":"Colorado"
    },
    {
        "storeNumber":"73",
        "facilityType":"NIKE_OWNED_STORE",
        "phone":"13036883013",
        "name":"Nike Factory Store - Castle Rock",
        "region":"NORTH_AMERICA",
        "company":"Nike",
        "street":"Outlets at Castle Rock",
        "city":"Castle Rock",
        "state":"CO",
        "postalCode":"80108-1921",
        "country":"USA",
        "open_date":"1997-09-25",
        "latitude":39.416603,
        "longitude":-104.875015,
        "state_name":"Colorado"
    },
    {
        "storeNumber":"230",
        "facilityType":"NIKE_OWNED_STORE",
        "phone":"1-800-344-6453",
        "name":"Nike Clearance Store - Aurora",
        "region":"NORTH_AMERICA",
        "company":"Nike",
        "street":"15700 E Briarwood Circle",
        "city":"Aurora",
        "state":"CO",
        "postalCode":"80016",
        "country":"USA",
        "open_date":"2021-11-11",
        "latitude":39.5929678289,
        "longitude":-104.8094125687,
        "state_name":"Colorado"
    },
    {
        "storeNumber":"450",
        "facilityType":"NIKE_OWNED_STORE",
        "phone":"13033390514",
        "name":"Nike Factory Store - Northfield",
        "region":"NORTH_AMERICA",
        "company":"Nike",
        "street":"8230 E Northfield Blvd, #1370",
        "city":"Denver",
        "state":"CO",
        "postalCode":"80238-3180",
        "country":"USA",
        "open_date":"2023-02-16",
        "latitude":39.7826576,
        "longitude":-104.8923802,
        "state_name":"Colorado"
    },
    {
        "storeNumber":"290",
        "facilityType":"NIKE_OWNED_STORE",
        "phone":"13033253101",
        "name":"Nike Factory Store - Thornton",
        "region":"NORTH_AMERICA",
        "company":"Nike",
        "street":"Denver Premium Outlets",
        "city":"Thornton",
        "state":"CO",
        "postalCode":"80023-0001",
        "country":"USA",
        "open_date":"2018-09-27",
        "latitude":39.947957,
        "longitude":-104.986409,
        "state_name":"Colorado"
    },
    {
        "storeNumber":"292",
        "facilityType":"NIKE_OWNED_STORE",
        "phone":"19706636570",
        "name":"Nike Unite - Fort Collins",
        "region":"NORTH_AMERICA",
        "company":"Nike",
        "street":"2721 Council Tree Ave. #101",
        "city":"Fort Collins",
        "state":"CO",
        "postalCode":"80525-6313",
        "country":"USA",
        "open_date":"2021-02-18",
        "latitude":40.525133,
        "longitude":-105.026514,
        "state_name":"Colorado"
    },
    {
        "storeNumber":"26",
        "facilityType":"NIKE_OWNED_STORE",
        "phone":"15037383930",
        "name":"Nike Factory Store - Seaside",
        "region":"NORTH_AMERICA",
        "company":"Nike",
        "street":"Seaside Factory Stores",
        "city":"Seaside",
        "state":"OR",
        "postalCode":"97138-4606",
        "country":"USA",
        "open_date":"1998-11-14",
        "latitude":45.999007,
        "longitude":-123.917725,
        "state_name":"Oregon"
    },
    {
        "storeNumber":"148",
        "facilityType":"NIKE_OWNED_STORE",
        "phone":"+1 (360) 736-7434",
        "name":"Nike Clearance Store - Centralia",
        "region":"NORTH_AMERICA",
        "company":"Nike",
        "street":"109 W. High St.",
        "city":"Centralia",
        "state":"WA",
        "postalCode":"98531",
        "country":"USA",
        "open_date":"2018-01-01",
        "latitude":46.724148,
        "longitude":-122.976028,
        "state_name":"Washington"
    },
    {
        "storeNumber":"215",
        "facilityType":"NIKE_OWNED_STORE",
        "phone":"12533335074",
        "name":"Nike Clearance Store - Auburn",
        "region":"NORTH_AMERICA",
        "company":"Nike",
        "street":"Auburn - Outlet Collection of Seattle",
        "city":"Auburn",
        "state":"WA",
        "postalCode":"98001-0000",
        "country":"USA",
        "open_date":"2013-10-03",
        "latitude":47.298408,
        "longitude":-122.24392,
        "state_name":"Washington"
    },
    {
        "storeNumber":"289",
        "facilityType":"NIKE_OWNED_STORE",
        "phone":"15096244524",
        "name":"Nike Factory Store - Spokane",
        "region":"NORTH_AMERICA",
        "company":"Nike",
        "street":"618 W Main Ave",
        "city":"Spokane",
        "state":"WA",
        "postalCode":"99201-0641",
        "country":"USA",
        "open_date":"2018-06-14",
        "latitude":47.659343,
        "longitude":-117.421862,
        "state_name":"Washington"
    },
    {
        "storeNumber":"206",
        "facilityType":"NIKE_OWNED_STORE",
        "phone":"18067851321",
        "name":"Nike Factory Store - Lubbock",
        "region":"NORTH_AMERICA",
        "company":"Nike",
        "street":"West End Shopping Center Lubbock",
        "city":"Lubbock",
        "state":"TX",
        "postalCode":"79407-1649",
        "country":"USA",
        "open_date":"2015-11-05",
        "latitude":33.567597,
        "longitude":-101.947408,
        "state_name":"Texas"
    },
    {
        "storeNumber":"76",
        "facilityType":"NIKE_OWNED_STORE",
        "phone":"14258317900",
        "name":"Nike Factory Store - North Bend",
        "region":"NORTH_AMERICA",
        "company":"Nike",
        "street":"661 S Fork Ave., Suite H",
        "city":"North Bend",
        "state":"WA",
        "postalCode":"98045-8936",
        "country":"USA",
        "open_date":"1987-11-13",
        "latitude":47.489906,
        "longitude":-121.796038,
        "state_name":"Washington"
    },
    {
        "storeNumber":"266",
        "facilityType":"NIKE_OWNED_STORE",
        "phone":"4257472848",
        "name":"Nike Factory Store - Bellevue",
        "region":"NORTH_AMERICA",
        "company":"Nike",
        "street":"Marketplace at Factoria",
        "city":"Bellevue",
        "state":"WA",
        "postalCode":"98006",
        "country":"USA",
        "open_date":"2018-01-01",
        "latitude":47.574176,
        "longitude":-122.171185,
        "state_name":"Washington"
    },
    {
        "storeNumber":"536",
        "facilityType":"NIKE_OWNED_STORE",
        "phone":"14254400431",
        "name":"Nike Bellevue Square",
        "region":"NORTH_AMERICA",
        "company":"Nike",
        "street":"565 Bellevue Square",
        "city":"Bellevue",
        "state":"WA",
        "postalCode":"98004-5021",
        "country":"USA",
        "open_date":"2023-04-06",
        "latitude":47.61619,
        "longitude":-122.20386,
        "state_name":"Washington"
    },
    {
        "storeNumber":"125",
        "facilityType":"NIKE_OWNED_STORE",
        "phone":"13607163120",
        "name":"Nike Factory Store - Tulalip",
        "region":"NORTH_AMERICA",
        "company":"Nike",
        "street":"Seattle Premium Outlets",
        "city":"Tulalip",
        "state":"WA",
        "postalCode":"98271-8093",
        "country":"USA",
        "open_date":"2005-05-05",
        "latitude":48.092075,
        "longitude":-122.187641,
        "state_name":"Washington"
    },
    {
        "storeNumber":"331",
        "facilityType":"NIKE_OWNED_STORE",
        "phone":"14054955935",
        "name":"Nike Factory Store - Oklahoma City",
        "region":"NORTH_AMERICA",
        "company":"Nike",
        "street":"OKC Outlets",
        "city":"Oklahoma City",
        "state":"OK",
        "postalCode":"73127-9775",
        "country":"USA",
        "open_date":"2011-08-04",
        "latitude":35.461885,
        "longitude":-97.648258,
        "state_name":"Oklahoma"
    },
    {
        "storeNumber":"571",
        "facilityType":"NIKE_OWNED_STORE",
        "phone":"12107450506",
        "name":"Nike Well Collective - La Cantera",
        "region":"NORTH_AMERICA",
        "company":"Nike",
        "street":"15900 La Cantera Pkwy, STE 1600",
        "city":"San Antonio",
        "state":"TX",
        "postalCode":"78256-2587",
        "country":"USA",
        "open_date":"2023-05-31",
        "latitude":29.5928668,
        "longitude":-98.6106994,
        "state_name":"Texas"
    },
    {
        "storeNumber":"265",
        "facilityType":"NIKE_OWNED_STORE",
        "phone":"19567128018",
        "name":"Nike Clearance Store - Laredo",
        "region":"NORTH_AMERICA",
        "company":"Nike",
        "street":"The Outlet Shoppes at Laredo",
        "city":"Laredo",
        "state":"TX",
        "postalCode":"78040-5949",
        "country":"USA",
        "open_date":"2017-03-16",
        "latitude":27.501987,
        "longitude":-99.512312,
        "state_name":"Texas"
    },
    {
        "storeNumber":"260",
        "facilityType":"NIKE_OWNED_STORE",
        "phone":"12105687099",
        "name":"Nike Unite - The Quarry",
        "region":"NORTH_AMERICA",
        "company":"Nike",
        "street":"255 E. Basse Rd STE1040",
        "city":"San Antonio",
        "state":"TX",
        "postalCode":"78209-8338",
        "country":"USA",
        "open_date":"2020-11-12",
        "latitude":29.495991,
        "longitude":-98.48135,
        "state_name":"Texas"
    },
    {
        "storeNumber":"463",
        "facilityType":"NIKE_OWNED_STORE",
        "phone":"18174844957",
        "name":"Nike Well Collective - University Park Village",
        "region":"NORTH_AMERICA",
        "company":"Nike",
        "street":"1540 S. University Dr. Suite 112",
        "city":"Fort Worth",
        "state":"TX",
        "postalCode":"76107-6508",
        "country":"USA",
        "open_date":"2022-11-17",
        "latitude":32.7295959,
        "longitude":-97.3615734,
        "state_name":"Texas"
    },
    {
        "storeNumber":"286",
        "facilityType":"NIKE_OWNED_STORE",
        "phone":"682-831-1475",
        "name":"Nike Factory Store - Fort Worth",
        "region":"NORTH_AMERICA",
        "company":"Nike",
        "street":"Tanger Outlet Center - Fort Worth",
        "city":"Fort Worth",
        "state":"TX",
        "postalCode":"76177",
        "country":"USA",
        "open_date":"2018-01-01",
        "latitude":33.022536,
        "longitude":-97.281701,
        "state_name":"Texas"
    },
    {
        "storeNumber":"461",
        "facilityType":"NIKE_OWNED_STORE",
        "phone":"16822232378",
        "name":"Nike Well Collective - Southlake",
        "region":"NORTH_AMERICA",
        "company":"Nike",
        "street":"167 Grand Avenue",
        "city":"Southlake",
        "state":"TX",
        "postalCode":"76092-7606",
        "country":"USA",
        "open_date":"2022-11-03",
        "latitude":32.9421672,
        "longitude":-97.1304905,
        "state_name":"Texas"
    },
    {
        "storeNumber":"42",
        "facilityType":"NIKE_OWNED_STORE",
        "phone":"15123538500",
        "name":"Nike Factory Store - San Marcos",
        "region":"NORTH_AMERICA",
        "company":"Nike",
        "street":"San Marcos Premium Outlets",
        "city":"San Marcos",
        "state":"TX",
        "postalCode":"78666-5959",
        "country":"USA",
        "open_date":"1991-01-25",
        "latitude":29.82848,
        "longitude":-97.983402,
        "state_name":"Texas"
    },
    {
        "storeNumber":"135",
        "facilityType":"NIKE_OWNED_STORE",
        "phone":"19723552487",
        "name":"Nike Clearance Store - Grapevine",
        "region":"NORTH_AMERICA",
        "company":"Nike",
        "street":"Grapevine Mills",
        "city":"Grapevine",
        "state":"TX",
        "postalCode":"76051-2020",
        "country":"USA",
        "open_date":"2006-05-10",
        "latitude":32.964627,
        "longitude":-97.044235,
        "state_name":"Texas"
    },
    {
        "storeNumber":"139",
        "facilityType":"NIKE_OWNED_STORE",
        "phone":"15128689511",
        "name":"Nike Factory Store - Round Rock",
        "region":"NORTH_AMERICA",
        "company":"Nike",
        "street":"Round Rock Premium Outlets",
        "city":"Round Rock",
        "state":"TX",
        "postalCode":"78664-2675",
        "country":"USA",
        "open_date":"2006-08-03",
        "latitude":30.564641,
        "longitude":-97.689922,
        "state_name":"Texas"
    },
    {
        "storeNumber":"430",
        "facilityType":"NIKE_OWNED_STORE",
        "phone":"15122154130",
        "name":"Nike Well Collective - Domain Northside",
        "region":"NORTH_AMERICA",
        "company":"Nike",
        "street":"11600 Rock Rose Ave, Suite W4",
        "city":"Austin",
        "state":"TX",
        "postalCode":"78758-7976",
        "country":"USA",
        "open_date":"2021-07-01",
        "latitude":30.4019765,
        "longitude":-97.7226474,
        "state_name":"Texas"
    },
    {
        "storeNumber":"357",
        "facilityType":"NIKE_OWNED_STORE",
        "phone":"19725225970",
        "name":"Nike Factory Store - Grand Prairie",
        "region":"NORTH_AMERICA",
        "company":"Nike",
        "street":"Paragon Outlets Grand Prairie",
        "city":"Grand Prairie",
        "state":"TX",
        "postalCode":"75052-8037",
        "country":"USA",
        "open_date":"2012-08-16",
        "latitude":32.679316,
        "longitude":-97.052158,
        "state_name":"Texas"
    },
    {
        "storeNumber":"427",
        "facilityType":"NIKE_OWNED_STORE",
        "phone":"15122154001",
        "name":"Nike Well Collective - South Congress",
        "region":"NORTH_AMERICA",
        "company":"Nike",
        "street":"1221 South Congress Ave",
        "city":"Austin",
        "state":"TX",
        "postalCode":"78704-2403",
        "country":"USA",
        "open_date":"2021-05-06",
        "latitude":30.251549,
        "longitude":-97.748694,
        "state_name":"Texas"
    },
    {
        "storeNumber":"398",
        "facilityType":"NIKE_OWNED_STORE",
        "phone":"14692173840",
        "name":"Nike Well Collective - Legacy West",
        "region":"NORTH_AMERICA",
        "company":"Nike",
        "street":"7400 Windrose Ave., Suite B105",
        "city":"Plano",
        "state":"TX",
        "postalCode":"75024-0161",
        "country":"USA",
        "open_date":"2021-05-27",
        "latitude":33.0792702,
        "longitude":-96.8260963,
        "state_name":"Texas"
    },
    {
        "storeNumber":"512",
        "facilityType":"NIKE_OWNED_STORE",
        "phone":"19454682022",
        "name":"Nike NorthPark",
        "region":"NORTH_AMERICA",
        "company":"Nike",
        "street":"8687 N Central Expy, Suite 1620",
        "city":"Dallas",
        "state":"TX",
        "postalCode":"75225-4500",
        "country":"USA",
        "open_date":"2023-08-03",
        "latitude":32.868639,
        "longitude":-96.7739298,
        "state_name":"Texas"
    },
    {
        "storeNumber":"132",
        "facilityType":"NIKE_OWNED_STORE",
        "phone":"19726784580",
        "name":"Nike Factory Store - Allen",
        "region":"NORTH_AMERICA",
        "company":"Nike",
        "street":"Allen Premium Outlets",
        "city":"Allen",
        "state":"TX",
        "postalCode":"75013-4921",
        "country":"USA",
        "open_date":"2005-11-11",
        "latitude":33.131329,
        "longitude":-96.659853,
        "state_name":"Texas"
    },
    {
        "storeNumber":"181",
        "facilityType":"NIKE_OWNED_STORE",
        "phone":"19725631882",
        "name":"Nike Factory Store - Terrell",
        "region":"NORTH_AMERICA",
        "company":"Nike",
        "street":"The Shops at Terrell",
        "city":"Terrell",
        "state":"TX",
        "postalCode":"75160-6653",
        "country":"USA",
        "open_date":"2007-10-24",
        "latitude":32.704396,
        "longitude":-96.284526,
        "state_name":"Texas"
    },
    {
        "storeNumber":"195",
        "facilityType":"NIKE_OWNED_STORE",
        "phone":"+1 (402) 332-5135",
        "name":"Nike Factory Store - Omaha",
        "region":"NORTH_AMERICA",
        "company":"Nike",
        "street":"Omaha - Nebraska Crossings",
        "city":"Gretna",
        "state":"NE",
        "postalCode":"68028",
        "country":"USA",
        "open_date":"2018-01-01",
        "latitude":41.099198,
        "longitude":-96.250477,
        "state_name":"Nebraska"
    },
    {
        "storeNumber":"279",
        "facilityType":"NIKE_OWNED_STORE",
        "phone":"19562464609",
        "name":"Nike Clearance Store - McAllen",
        "region":"NORTH_AMERICA",
        "company":"Nike",
        "street":"3300 W Expwy 83, Suite 500",
        "city":"McAllen",
        "state":"TX",
        "postalCode":"78501-8361",
        "country":"USA",
        "open_date":"2021-10-21",
        "latitude":26.1968917,
        "longitude":-98.2570135,
        "state_name":"Texas"
    },
    {
        "storeNumber":"115",
        "facilityType":"NIKE_OWNED_STORE",
        "phone":"19565652446",
        "name":"Nike Factory Store - Mercedes",
        "region":"NORTH_AMERICA",
        "company":"Nike",
        "street":"Rio Grande Valley Premium Outlets",
        "city":"Mercedes",
        "state":"TX",
        "postalCode":"78570-4573",
        "country":"USA",
        "open_date":"2006-11-02",
        "latitude":26.160495,
        "longitude":-97.888858,
        "state_name":"Texas"
    },
    {
        "storeNumber":"130",
        "facilityType":"NIKE_OWNED_STORE",
        "phone":"19137887263",
        "name":"Nike Factory Store - Kansas City",
        "region":"NORTH_AMERICA",
        "company":"Nike",
        "street":"Legends at Village West",
        "city":"Kansas City",
        "state":"KS",
        "postalCode":"66111-1902",
        "country":"USA",
        "open_date":"2006-04-19",
        "latitude":39.125783,
        "longitude":-94.825727,
        "state_name":"Kansas"
    },
    {
        "storeNumber":"169",
        "facilityType":"NIKE_OWNED_STORE",
        "phone":"12817581966",
        "name":"Nike Factory Store - Cypress",
        "region":"NORTH_AMERICA",
        "company":"Nike",
        "street":"Houston Premium Outlets",
        "city":"Cypress",
        "state":"TX",
        "postalCode":"77433-4255",
        "country":"USA",
        "open_date":"2008-03-27",
        "latitude":29.997371,
        "longitude":-95.756534,
        "state_name":"Texas"
    },
    {
        "storeNumber":"8",
        "facilityType":"NIKE_OWNED_STORE",
        "phone":"12816444901",
        "name":"Nike Factory Store - Katy Mills",
        "region":"NORTH_AMERICA",
        "company":"Nike",
        "street":"5000 Katy Mills Cir.  Suite 202",
        "city":"Katy",
        "state":"TX",
        "postalCode":"77494-4404",
        "country":"USA",
        "open_date":"2008-04-07",
        "latitude":29.774058,
        "longitude":-95.809487,
        "state_name":"Texas"
    },
    {
        "storeNumber":"515",
        "facilityType":"NIKE_OWNED_STORE",
        "phone":"18162568588",
        "name":"Nike Well Collective - Kansas City",
        "region":"NORTH_AMERICA",
        "company":"Nike",
        "street":"450 Nichols Rd",
        "city":"Kansas City",
        "state":"MO",
        "postalCode":"64112-2005",
        "country":"USA",
        "open_date":"2023-03-02",
        "latitude":39.0414464,
        "longitude":-94.5932678,
        "state_name":"Missouri"
    },
    {
        "storeNumber":"397",
        "facilityType":"NIKE_OWNED_STORE",
        "phone":"12817199930",
        "name":"Nike Well Collective - The Woodlands",
        "region":"NORTH_AMERICA",
        "company":"Nike",
        "street":"9595 Six Pines Dr., Suite 85",
        "city":"The Woodlands",
        "state":"TX",
        "postalCode":"77380-1531",
        "country":"USA",
        "open_date":"2022-10-20",
        "latitude":30.1634364,
        "longitude":-95.4638973,
        "state_name":"Texas"
    },
    {
        "storeNumber":"229",
        "facilityType":"NIKE_OWNED_STORE",
        "phone":"18003446453",
        "name":"Nike Well Collective - CityCentre",
        "region":"NORTH_AMERICA",
        "company":"Nike",
        "street":"822 Town and Country Blvd, #10",
        "city":"Houston",
        "state":"TX",
        "postalCode":"77024-4659",
        "country":"USA",
        "open_date":"2022-03-17",
        "latitude":29.781622,
        "longitude":-95.561044,
        "state_name":"Texas"
    },
    {
        "storeNumber":"257",
        "facilityType":"NIKE_OWNED_STORE",
        "phone":"12819980010",
        "name":"Nike Clearance Store - Pasadena",
        "region":"NORTH_AMERICA",
        "company":"Nike",
        "street":"5726 Fairmont Parkway",
        "city":"Pasadena",
        "state":"TX",
        "postalCode":"77505-3906",
        "country":"USA",
        "open_date":"2017-02-02",
        "latitude":29.647242,
        "longitude":-95.1533,
        "state_name":"Texas"
    },
    {
        "storeNumber":"321",
        "facilityType":"NIKE_OWNED_STORE",
        "phone":"12813373584",
        "name":"Nike Factory Store - Texas City",
        "region":"NORTH_AMERICA",
        "company":"Nike",
        "street":"Tanger Outlet Center - Galveston\/Houston",
        "city":"Texas City",
        "state":"TX",
        "postalCode":"77591-7053",
        "country":"USA",
        "open_date":"2012-10-18",
        "latitude":29.425401,
        "longitude":-95.060537,
        "state_name":"Texas"
    },
    {
        "storeNumber":"164",
        "facilityType":"NIKE_OWNED_STORE",
        "phone":"14173320522",
        "name":"Nike Factory Store - Branson",
        "region":"NORTH_AMERICA",
        "company":"Nike",
        "street":"Tanger Outlet Center - Branson",
        "city":"Branson",
        "state":"MO",
        "postalCode":"65616-2188",
        "country":"USA",
        "open_date":"2007-11-07",
        "latitude":36.644894,
        "longitude":-93.263877,
        "state_name":"Missouri"
    },
    {
        "storeNumber":"376",
        "facilityType":"NIKE_OWNED_STORE",
        "phone":"15152257085",
        "name":"Nike Factory Store - Des Moines",
        "region":"NORTH_AMERICA",
        "company":"Nike",
        "street":"Jordan Creek Town Center",
        "city":"West Des Moines",
        "state":"IA",
        "postalCode":"50266-8317",
        "country":"USA",
        "open_date":"2011-11-22",
        "latitude":41.564657,
        "longitude":-93.805248,
        "state_name":"Iowa"
    },
    {
        "storeNumber":"263",
        "facilityType":"NIKE_OWNED_STORE",
        "phone":"15159573151",
        "name":"Nike Factory Store - Altoona",
        "region":"NORTH_AMERICA",
        "company":"Nike",
        "street":"Outlets of Des Moines",
        "city":"Altoona",
        "state":"IA",
        "postalCode":"50009-7612",
        "country":"USA",
        "open_date":"2018-01-01",
        "latitude":41.655186,
        "longitude":-93.512446,
        "state_name":"Iowa"
    },
    {
        "storeNumber":"244",
        "facilityType":"NIKE_OWNED_STORE",
        "phone":"15014557417",
        "name":"Nike Factory Store - Little Rock East",
        "region":"NORTH_AMERICA",
        "company":"Nike",
        "street":"Outlets of Little Rock",
        "city":"Little Rock",
        "state":"AR",
        "postalCode":"72210-3056",
        "country":"USA",
        "open_date":"2015-11-12",
        "latitude":34.660599,
        "longitude":-92.407236,
        "state_name":"Arkansas"
    },
    {
        "storeNumber":"16",
        "facilityType":"NIKE_OWNED_STORE",
        "phone":"17634973888",
        "name":"Nike Factory Store - Albertville",
        "region":"NORTH_AMERICA",
        "company":"Nike",
        "street":"Albertville Premium Outlets",
        "city":"Albertville",
        "state":"MN",
        "postalCode":"55301-8800",
        "country":"USA",
        "open_date":"2000-04-21",
        "latitude":45.2448772,
        "longitude":-93.6721536,
        "state_name":"Minnesota"
    },
    {
        "storeNumber":"604",
        "facilityType":"NIKE_OWNED_STORE",
        "phone":"16124251549",
        "name":"Nike Well Collective - Minnetonka",
        "region":"NORTH_AMERICA",
        "company":"Nike",
        "street":"12401 Wayzata Blvd. Ste 2096",
        "city":"Minnetonka",
        "state":"MN",
        "postalCode":"55303",
        "country":"USA",
        "open_date":"2023-07-20",
        "latitude":44.9676704,
        "longitude":-93.4365718,
        "state_name":"Minnesota"
    },
    {
        "storeNumber":"22",
        "facilityType":"NIKE_OWNED_STORE",
        "phone":"+1 (319) 668-8047",
        "name":"Nike Clearance Store - Williamsburg  IA",
        "region":"NORTH_AMERICA",
        "company":"Nike",
        "street":"Tanger Outlet Center - Williamsburg",
        "city":"Williamsburg",
        "state":"IA",
        "postalCode":"52361",
        "country":"USA",
        "open_date":"2018-01-01",
        "latitude":41.691791,
        "longitude":-92.005572,
        "state_name":"Iowa"
    },
    {
        "storeNumber":"616",
        "facilityType":"NIKE_OWNED_STORE",
        "phone":"19528566210",
        "name":"Nike Mall of America",
        "region":"NORTH_AMERICA",
        "company":"Nike",
        "street":"227 West Market",
        "city":"Bloomington",
        "state":"MN",
        "postalCode":"55425",
        "country":"USA",
        "open_date":"2024-02-08",
        "latitude":44.8553974,
        "longitude":-93.2423435,
        "state_name":"Minnesota"
    },
    {
        "storeNumber":"234",
        "facilityType":"NIKE_OWNED_STORE",
        "phone":"16514545083",
        "name":"Nike Factory Store - Eagan",
        "region":"NORTH_AMERICA",
        "company":"Nike",
        "street":"Simon Outlets Twin Cities",
        "city":"Eagan",
        "state":"MN",
        "postalCode":"55122-4410",
        "country":"USA",
        "open_date":"2014-08-14",
        "latitude":44.815212,
        "longitude":-93.216748,
        "state_name":"Minnesota"
    },
    {
        "storeNumber":"202",
        "facilityType":"NIKE_OWNED_STORE",
        "phone":"16367782288",
        "name":"Nike Factory Store - Chesterfield",
        "region":"NORTH_AMERICA",
        "company":"Nike",
        "street":"Chesterfield - St. Louis Premium Outlets",
        "city":"Chesterfield",
        "state":"MO",
        "postalCode":"63005-0013",
        "country":"USA",
        "open_date":"2013-08-22",
        "latitude":38.677355,
        "longitude":-90.661935,
        "state_name":"Missouri"
    },
    {
        "storeNumber":"598",
        "facilityType":"NIKE_OWNED_STORE",
        "phone":"13143900015",
        "name":"Nike Well Collective - Frontenac",
        "region":"NORTH_AMERICA",
        "company":"Nike",
        "street":"1701 S Lindbergh Blvd, Ste 3A",
        "city":"Saint Louis",
        "state":"MO",
        "postalCode":"63131-3506",
        "country":"USA",
        "open_date":"2023-11-09",
        "latitude":38.63011,
        "longitude":-90.40732,
        "state_name":"Missouri"
    },
    {
        "storeNumber":"295",
        "facilityType":"NIKE_OWNED_STORE",
        "phone":"12252386320",
        "name":"Nike Unite - Baton Rouge",
        "region":"NORTH_AMERICA",
        "company":"Nike",
        "street":"7445 Corporate Blvd.  #600",
        "city":"Baton Rouge",
        "state":"LA",
        "postalCode":"70809-9101",
        "country":"USA",
        "open_date":"2022-01-27",
        "latitude":30.4332083,
        "longitude":-91.1142911,
        "state_name":"Louisiana"
    },
    {
        "storeNumber":"161",
        "facilityType":"NIKE_OWNED_STORE",
        "phone":"19013329325",
        "name":"Nike Clearance Store - Memphis",
        "region":"NORTH_AMERICA",
        "company":"Nike",
        "street":"South Plaza Shopping Center",
        "city":"Memphis",
        "state":"TN",
        "postalCode":"38116-6334",
        "country":"USA",
        "open_date":"2007-10-24",
        "latitude":35.036539,
        "longitude":-90.027752,
        "state_name":"Tennessee"
    },
    {
        "storeNumber":"245",
        "facilityType":"NIKE_OWNED_STORE",
        "phone":"16623495676",
        "name":"Nike Factory Store - Southaven",
        "region":"NORTH_AMERICA",
        "company":"Nike",
        "street":"Southaven Outlets",
        "city":"Southaven",
        "state":"MS",
        "postalCode":"38671-6539",
        "country":"USA",
        "open_date":"2015-11-20",
        "latitude":34.937417,
        "longitude":-89.991612,
        "state_name":"Mississippi"
    },
    {
        "storeNumber":"163",
        "facilityType":"NIKE_OWNED_STORE",
        "phone":"12256444265",
        "name":"Nike Factory Store - Gonzales",
        "region":"NORTH_AMERICA",
        "company":"Nike",
        "street":"Tanger Outlet Center - Gonzales",
        "city":"Gonzales",
        "state":"LA",
        "postalCode":"70737-5764",
        "country":"USA",
        "open_date":"2007-11-19",
        "latitude":30.215107,
        "longitude":-90.952299,
        "state_name":"Louisiana"
    },
    {
        "storeNumber":"214",
        "facilityType":"NIKE_OWNED_STORE",
        "phone":"16019362154",
        "name":"Nike Factory Store - Pearl",
        "region":"NORTH_AMERICA",
        "company":"Nike",
        "street":"Outlets of Mississippi",
        "city":"Pearl",
        "state":"MS",
        "postalCode":"39208-9249",
        "country":"USA",
        "open_date":"2013-11-13",
        "latitude":32.273391,
        "longitude":-90.153847,
        "state_name":"Mississippi"
    },
    {
        "storeNumber":"141",
        "facilityType":"NIKE_OWNED_STORE",
        "phone":"16082533247",
        "name":"Nike Factory Store - Wisconsin Dells",
        "region":"NORTH_AMERICA",
        "company":"Nike",
        "street":"Wisconsin Dells Outlet Center",
        "city":"Baraboo",
        "state":"WI",
        "postalCode":"53913-9535",
        "country":"USA",
        "open_date":"2006-08-06",
        "latitude":43.571453,
        "longitude":-89.786403,
        "state_name":"Wisconsin"
    },
    {
        "storeNumber":"293",
        "facilityType":"NIKE_OWNED_STORE",
        "phone":"15044868067",
        "name":"Nike Community Store - Elmwood",
        "region":"NORTH_AMERICA",
        "company":"Nike",
        "street":"Elmwood Shopping Center",
        "city":"Elmwood",
        "state":"LA",
        "postalCode":"70123-7506",
        "country":"USA",
        "open_date":"2021-04-14",
        "latitude":29.962385,
        "longitude":-90.185896,
        "state_name":"Louisiana"
    },
    {
        "storeNumber":"21",
        "facilityType":"NIKE_OWNED_STORE",
        "phone":"19206994950",
        "name":"Nike Clearance Store - Johnson Creek",
        "region":"NORTH_AMERICA",
        "company":"Nike",
        "street":"575 W. Linmar Lane, Suite A10",
        "city":"Johnson Creek",
        "state":"WI",
        "postalCode":"53038-9543",
        "country":"USA",
        "open_date":"1998-05-16",
        "latitude":43.087778,
        "longitude":-88.765188,
        "state_name":"Wisconsin"
    },
    {
        "storeNumber":"122",
        "facilityType":"NIKE_OWNED_STORE",
        "phone":"16305859568",
        "name":"Nike Factory Store - Aurora",
        "region":"NORTH_AMERICA",
        "company":"Nike",
        "street":"Chicago Premium Outlets",
        "city":"Aurora",
        "state":"IL",
        "postalCode":"60502-2905",
        "country":"USA",
        "open_date":"2004-05-19",
        "latitude":41.800225,
        "longitude":-88.272199,
        "state_name":"Illinois"
    },
    {
        "storeNumber":"437",
        "facilityType":"NIKE_OWNED_STORE",
        "phone":"13312313541",
        "name":"Nike Well Collective - Naperville",
        "region":"NORTH_AMERICA",
        "company":"Nike",
        "street":"217 S. Main St",
        "city":"Naperville",
        "state":"IL",
        "postalCode":"60540-5318",
        "country":"USA",
        "open_date":"2021-11-04",
        "latitude":41.7725436,
        "longitude":-88.1497645,
        "state_name":"Illinois"
    },
    {
        "storeNumber":"74",
        "facilityType":"NIKE_OWNED_STORE",
        "phone":"12288222533",
        "name":"Nike Factory Store - Gulfport",
        "region":"NORTH_AMERICA",
        "company":"Nike",
        "street":"Gulfport Premium Outlets",
        "city":"Gulfport",
        "state":"MS",
        "postalCode":"39503-4234",
        "country":"USA",
        "open_date":"1997-11-21",
        "latitude":30.428542,
        "longitude":-89.100351,
        "state_name":"Mississippi"
    },
    {
        "storeNumber":"70",
        "facilityType":"NIKE_OWNED_STORE",
        "phone":"19202321002",
        "name":"Nike Factory Store - Oshkosh",
        "region":"NORTH_AMERICA",
        "company":"Nike",
        "street":"The Outlet Shoppes at Oshkosh",
        "city":"Oshkosh",
        "state":"WI",
        "postalCode":"54904-9008",
        "country":"USA",
        "open_date":"2008-10-14",
        "latitude":43.985282,
        "longitude":-88.584373,
        "state_name":"Wisconsin"
    },
    {
        "storeNumber":"99",
        "facilityType":"NIKE_OWNED_STORE",
        "phone":"16309280242",
        "name":"Nike Factory Store - Oak Brook",
        "region":"NORTH_AMERICA",
        "company":"Nike",
        "street":"2155 W 22nd Street, Suite 5",
        "city":"Oak Brook",
        "state":"IL",
        "postalCode":"60523-1758",
        "country":"USA",
        "open_date":"2018-06-21",
        "latitude":41.845133,
        "longitude":-87.96955,
        "state_name":"Illinois"
    },
    {
        "storeNumber":"136",
        "facilityType":"NIKE_OWNED_STORE",
        "phone":"18478550857",
        "name":"Nike Clearance Store - Gurnee",
        "region":"NORTH_AMERICA",
        "company":"Nike",
        "street":"Gurnee Mills",
        "city":"Gurnee",
        "state":"IL",
        "postalCode":"60031-4548",
        "country":"USA",
        "open_date":"2006-05-19",
        "latitude":42.38883,
        "longitude":-87.956999,
        "state_name":"Illinois"
    },
    {
        "storeNumber":"208",
        "facilityType":"NIKE_OWNED_STORE",
        "phone":"18479282720",
        "name":"Nike Factory Store - Rosemont",
        "region":"NORTH_AMERICA",
        "company":"Nike",
        "street":"Fashion Outlets of Chicago - Rosemont",
        "city":"Rosemont",
        "state":"IL",
        "postalCode":"60018-5326",
        "country":"USA",
        "open_date":"2013-08-01",
        "latitude":41.974881,
        "longitude":-87.868099,
        "state_name":"Illinois"
    },
    {
        "storeNumber":"25",
        "facilityType":"NIKE_OWNED_STORE",
        "phone":"12628577333",
        "name":"Nike Factory Store - Pleasant Prairie",
        "region":"NORTH_AMERICA",
        "company":"Nike",
        "street":"Pleasant Prairie Premium Outlets",
        "city":"Pleasant Prairie",
        "state":"WI",
        "postalCode":"53158-1710",
        "country":"USA",
        "open_date":"1985-10-01",
        "latitude":42.518458,
        "longitude":-87.949829,
        "state_name":"Wisconsin"
    },
    {
        "storeNumber":"457",
        "facilityType":"NIKE_OWNED_STORE",
        "phone":"14142698605",
        "name":"Nike Well Collective - Bayshore",
        "region":"NORTH_AMERICA",
        "company":"Nike",
        "street":"5695 N Centerpark Way #N127",
        "city":"Glendale",
        "state":"WI",
        "postalCode":"53217-4539",
        "country":"USA",
        "open_date":"2022-03-31",
        "latitude":43.1208831,
        "longitude":-87.9152165,
        "state_name":"Wisconsin"
    },
    {
        "storeNumber":"160",
        "facilityType":"NIKE_OWNED_STORE",
        "phone":"17738465460",
        "name":"Nike Unite - South Chicago",
        "region":"NORTH_AMERICA",
        "company":"Nike",
        "street":"Chatham Village Square",
        "city":"Chicago",
        "state":"IL",
        "postalCode":"60619-6116",
        "country":"USA",
        "open_date":"2007-05-24",
        "latitude":41.739983,
        "longitude":-87.605349,
        "state_name":"Illinois"
    },
    {
        "storeNumber":"60",
        "facilityType":"NIKE_OWNED_STORE",
        "phone":"13126426363",
        "name":"Nike Chicago",
        "region":"NORTH_AMERICA",
        "company":"Nike",
        "street":"669 N Michigan Avenue",
        "city":"Chicago",
        "state":"IL",
        "postalCode":"60611-2801",
        "country":"USA",
        "open_date":"2012-09-24",
        "latitude":41.894438,
        "longitude":-87.623737,
        "state_name":"Illinois"
    },
    {
        "storeNumber":"460",
        "facilityType":"NIKE_OWNED_STORE",
        "phone":"16153691357",
        "name":"Nike Well Collective - Downtown Nashville",
        "region":"NORTH_AMERICA",
        "company":"Nike",
        "street":"5046 Broadway Place",
        "city":"Nashville",
        "state":"TN",
        "postalCode":"37203-5765",
        "country":"USA",
        "open_date":"2022-05-26",
        "latitude":36.1605848,
        "longitude":-86.7799383,
        "state_name":"Tennessee"
    },
    {
        "storeNumber":"137",
        "facilityType":"NIKE_OWNED_STORE",
        "phone":"12198791320",
        "name":"Nike Factory Store - Michigan City",
        "region":"NORTH_AMERICA",
        "company":"Nike",
        "street":"Lighthouse Place Premium Outlets",
        "city":"Michigan City",
        "state":"IN",
        "postalCode":"46360-3462",
        "country":"USA",
        "open_date":"2006-05-31",
        "latitude":41.715567,
        "longitude":-86.907563,
        "state_name":"Indiana"
    },
    {
        "storeNumber":"172",
        "facilityType":"NIKE_OWNED_STORE",
        "phone":"16155140204",
        "name":"Nike Factory Store - Nashville",
        "region":"NORTH_AMERICA",
        "company":"Nike",
        "street":"Opry Mills Mall",
        "city":"Nashville",
        "state":"TN",
        "postalCode":"37214-2433",
        "country":"USA",
        "open_date":"2001-11-02",
        "latitude":36.20399,
        "longitude":-86.691497,
        "state_name":"Tennessee"
    },
    {
        "storeNumber":"490",
        "facilityType":"NIKE_OWNED_STORE",
        "phone":"16292130720",
        "name":"Nike Unite - Antioch",
        "region":"NORTH_AMERICA",
        "company":"Nike",
        "street":"4060 Cane Ridge Parkway,#301",
        "city":"Antioch",
        "state":"TN",
        "postalCode":"37013-5552",
        "country":"USA",
        "open_date":"2023-10-26",
        "latitude":36.0339736,
        "longitude":-86.643811,
        "state_name":"Tennessee"
    },
    {
        "storeNumber":"90",
        "facilityType":"NIKE_OWNED_STORE",
        "phone":"12519702900",
        "name":"Nike Factory Store - Foley",
        "region":"NORTH_AMERICA",
        "company":"Nike",
        "street":"2601 S Mckenzie St., Suite 300",
        "city":"Foley",
        "state":"AL",
        "postalCode":"36535-3465",
        "country":"USA",
        "open_date":"1998-05-09",
        "latitude":30.375701,
        "longitude":-87.679365,
        "state_name":"Alabama"
    },
    {
        "storeNumber":"473",
        "facilityType":"NIKE_OWNED_STORE",
        "phone":"12055730419",
        "name":"Nike Well Collective - Birmingham",
        "region":"NORTH_AMERICA",
        "company":"Nike",
        "street":"240 Summit Blvd Suite 100",
        "city":"Birmingham",
        "state":"AL",
        "postalCode":"35243-3101",
        "country":"USA",
        "open_date":"2023-08-03",
        "latitude":33.4465154,
        "longitude":-86.7296322,
        "state_name":"Alabama"
    },
    {
        "storeNumber":"459",
        "facilityType":"NIKE_OWNED_STORE",
        "phone":"317-222-1293",
        "name":"Nike Well Collective - Keystone",
        "region":"NORTH_AMERICA",
        "company":"Nike",
        "street":"8701 Keystone Crossing, Space 25C",
        "city":"Indianapolis",
        "state":"IN",
        "postalCode":"46240",
        "country":"USA",
        "open_date":"2022-05-26",
        "latitude":39.9138858,
        "longitude":-86.108717,
        "state_name":"Indiana"
    },
    {
        "storeNumber":"6",
        "facilityType":"NIKE_OWNED_STORE",
        "phone":"18125268111",
        "name":"Nike Factory Store - Edinburgh",
        "region":"NORTH_AMERICA",
        "company":"Nike",
        "street":"Edinburgh Premium Outlets",
        "city":"Edinburgh",
        "state":"IN",
        "postalCode":"46124-9133",
        "country":"USA",
        "open_date":"1998-07-04",
        "latitude":39.308455,
        "longitude":-85.960796,
        "state_name":"Indiana"
    },
    {
        "storeNumber":"570",
        "facilityType":"NIKE_OWNED_STORE",
        "phone":"15022120974",
        "name":"Nike Well Collective - Louisville",
        "region":"NORTH_AMERICA",
        "company":"Nike",
        "street":"7900 Shelbyville Rd, C02",
        "city":"Louisville",
        "state":"KY",
        "postalCode":"40222-5475",
        "country":"USA",
        "open_date":"2023-05-25",
        "latitude":38.2470462,
        "longitude":-85.6099166,
        "state_name":"Kentucky"
    },
    {
        "storeNumber":"233",
        "facilityType":"NIKE_OWNED_STORE",
        "phone":"15027225776",
        "name":"Nike Factory Store - Simpsonville",
        "region":"NORTH_AMERICA",
        "company":"Nike",
        "street":"The Outlet Shoppes of the Bluegrass",
        "city":"Simpsonville",
        "state":"KY",
        "postalCode":"40067-7688",
        "country":"USA",
        "open_date":"2014-07-03",
        "latitude":38.206633,
        "longitude":-85.352472,
        "state_name":"Kentucky"
    },
    {
        "storeNumber":"197",
        "facilityType":"NIKE_OWNED_STORE",
        "phone":"16165830754",
        "name":"Nike Factory Store - Grand Rapids",
        "region":"NORTH_AMERICA",
        "company":"Nike",
        "street":"Tanger Outlet Center - Grand Rapids",
        "city":"Byron Center",
        "state":"MI",
        "postalCode":"49315-7004",
        "country":"USA",
        "open_date":"2018-01-01",
        "latitude":42.808985,
        "longitude":-85.670428,
        "state_name":"Michigan"
    },
    {
        "storeNumber":"89",
        "facilityType":"NIKE_OWNED_STORE",
        "phone":"18506500111",
        "name":"Nike Factory Store - Destin",
        "region":"NORTH_AMERICA",
        "company":"Nike",
        "street":"Silver Sands Factory Store",
        "city":"Destin",
        "state":"FL",
        "postalCode":"32550-7120",
        "country":"USA",
        "open_date":"1999-05-29",
        "latitude":30.3798228,
        "longitude":-86.3516468,
        "state_name":"Florida"
    },
    {
        "storeNumber":"521",
        "facilityType":"NIKE_OWNED_STORE",
        "phone":"18593096346",
        "name":"Nike Well Collective - Lexington",
        "region":"NORTH_AMERICA",
        "company":"Nike",
        "street":"4084 Finn Way, Suite 130",
        "city":"Lexington",
        "state":"KY",
        "postalCode":"40517-8388",
        "country":"USA",
        "open_date":"2022-11-17",
        "latitude":37.9760381,
        "longitude":-84.5277088,
        "state_name":"Kentucky"
    },
    {
        "storeNumber":"58",
        "facilityType":"NIKE_OWNED_STORE",
        "phone":"17066252626",
        "name":"Nike Factory Store - Calhoun",
        "region":"NORTH_AMERICA",
        "company":"Nike",
        "street":"Calhoun Premium Outlets",
        "city":"Calhoun",
        "state":"GA",
        "postalCode":"30701-3959",
        "country":"USA",
        "open_date":"1992-10-14",
        "latitude":34.462794,
        "longitude":-84.918531,
        "state_name":"Georgia"
    },
    {
        "storeNumber":"378",
        "facilityType":"NIKE_OWNED_STORE",
        "phone":"15135394645",
        "name":"Nike Factory Store - Cincinnati",
        "region":"NORTH_AMERICA",
        "company":"Nike",
        "street":"Cincinnati Premium Outlets",
        "city":"Monroe",
        "state":"OH",
        "postalCode":"45050-1835",
        "country":"USA",
        "open_date":"2009-08-06",
        "latitude":39.433715,
        "longitude":-84.33659,
        "state_name":"Ohio"
    },
    {
        "storeNumber":"343",
        "facilityType":"NIKE_OWNED_STORE",
        "phone":"16784452487",
        "name":"Nike Factory Store - Atlanta Woodstock",
        "region":"NORTH_AMERICA",
        "company":"Nike",
        "street":"The Outlet Shoppes at Atlanta",
        "city":"Woodstock",
        "state":"GA",
        "postalCode":"30188-0027",
        "country":"USA",
        "open_date":"2013-07-17",
        "latitude":34.119944,
        "longitude":-84.525662,
        "state_name":"Georgia"
    },
    {
        "storeNumber":"296",
        "facilityType":"NIKE_OWNED_STORE",
        "phone":"18656227656",
        "name":"Nike Unite - Knoxville",
        "region":"NORTH_AMERICA",
        "company":"Nike",
        "street":"11275 Parkside Dr.",
        "city":"Knoxville",
        "state":"TN",
        "postalCode":"37934-1964",
        "country":"USA",
        "open_date":"2022-04-28",
        "latitude":35.9017993,
        "longitude":-84.1571155,
        "state_name":"Tennessee"
    },
    {
        "storeNumber":"272",
        "facilityType":"NIKE_OWNED_STORE",
        "phone":"404-835-1138",
        "name":"Nike Unite - Atlantic Station",
        "region":"NORTH_AMERICA",
        "company":"Nike",
        "street":"1381 Market Street NW., Suite 13100",
        "city":"Atlanta",
        "state":"GA",
        "postalCode":"30363",
        "country":"USA",
        "open_date":"2020-11-19",
        "latitude":33.792737,
        "longitude":-84.394719,
        "state_name":"Georgia"
    },
    {
        "storeNumber":"201",
        "facilityType":"NIKE_OWNED_STORE",
        "phone":"14048465549",
        "name":"Nike Atlanta",
        "region":"NORTH_AMERICA",
        "company":"Nike",
        "street":"Lenox Square",
        "city":"Atlanta",
        "state":"GA",
        "postalCode":"30326-1162",
        "country":"USA",
        "open_date":"2013-10-30",
        "latitude":33.847986,
        "longitude":-84.362967,
        "state_name":"Georgia"
    },
    {
        "storeNumber":"32",
        "facilityType":"NIKE_OWNED_STORE",
        "phone":"15175526453",
        "name":"Nike Factory Store - Howell",
        "region":"NORTH_AMERICA",
        "company":"Nike",
        "street":"Tanger Outlet Center - Howell",
        "city":"Howell",
        "state":"MI",
        "postalCode":"48855-8288",
        "country":"USA",
        "open_date":"1998-10-24",
        "latitude":42.620401,
        "longitude":-83.996314,
        "state_name":"Michigan"
    },
    {
        "storeNumber":"428",
        "facilityType":"NIKE_OWNED_STORE",
        "phone":"14043801584",
        "name":"Nike Well Collective - Ponce City Market",
        "region":"NORTH_AMERICA",
        "company":"Nike",
        "street":"675 Ponce De Leon Ave NE E-184",
        "city":"Atlanta",
        "state":"GA",
        "postalCode":"30308-1884",
        "country":"USA",
        "open_date":"2021-11-18",
        "latitude":33.7717707,
        "longitude":-84.3655446,
        "state_name":"Georgia"
    },
    {
        "storeNumber":"436",
        "facilityType":"NIKE_OWNED_STORE",
        "phone":"18003446453",
        "name":"Nike Well Collective - Alpharetta",
        "region":"NORTH_AMERICA",
        "company":"Nike",
        "street":"7110 Avalon Blvd",
        "city":"Alpharetta",
        "state":"GA",
        "postalCode":"30009-2450",
        "country":"USA",
        "open_date":"2021-12-09",
        "latitude":34.0710636,
        "longitude":-84.2744985,
        "state_name":"Georgia"
    },
    {
        "storeNumber":"14",
        "facilityType":"NIKE_OWNED_STORE",
        "phone":"17062167779",
        "name":"Nike Factory Store - Dawsonville",
        "region":"NORTH_AMERICA",
        "company":"Nike",
        "street":"North Georgia Premium Outlets",
        "city":"Dawsonville",
        "state":"GA",
        "postalCode":"30534-8098",
        "country":"USA",
        "open_date":"1999-09-04",
        "latitude":34.359489,
        "longitude":-84.048611,
        "state_name":"Georgia"
    },
    {
        "storeNumber":"9",
        "facilityType":"NIKE_OWNED_STORE",
        "phone":"16788475140",
        "name":"Nike Factory Store - Lawrenceville",
        "region":"NORTH_AMERICA",
        "company":"Nike",
        "street":"Sugarloaf Mills",
        "city":"Lawrenceville",
        "state":"GA",
        "postalCode":"30043-7857",
        "country":"USA",
        "open_date":"2008-04-29",
        "latitude":33.98079,
        "longitude":-84.080263,
        "state_name":"Georgia"
    },
    {
        "storeNumber":"34",
        "facilityType":"NIKE_OWNED_STORE",
        "phone":"19896246100",
        "name":"Nike Factory Store - Birch Run",
        "region":"NORTH_AMERICA",
        "company":"Nike",
        "street":"Birch Run Premium Outlets",
        "city":"Birch Run",
        "state":"MI",
        "postalCode":"48415-9411",
        "country":"USA",
        "open_date":"1989-09-24",
        "latitude":43.247868,
        "longitude":-83.776267,
        "state_name":"Michigan"
    },
    {
        "storeNumber":"142",
        "facilityType":"NIKE_OWNED_STORE",
        "phone":"17709146877",
        "name":"Nike Factory Store - Locust Grove",
        "region":"NORTH_AMERICA",
        "company":"Nike",
        "street":"Tanger Outlet Center - Locust Grove",
        "city":"Locust Grove",
        "state":"GA",
        "postalCode":"30248-3654",
        "country":"USA",
        "open_date":"2007-03-04",
        "latitude":33.347953,
        "longitude":-84.122148,
        "state_name":"Georgia"
    },
    {
        "storeNumber":"107",
        "facilityType":"NIKE_OWNED_STORE",
        "phone":"18657747743",
        "name":"Nike Factory Store - Sevierville",
        "region":"NORTH_AMERICA",
        "company":"Nike",
        "street":"Tanger Outlet Center - Sevierville",
        "city":"Sevierville",
        "state":"TN",
        "postalCode":"37862-6867",
        "country":"USA",
        "open_date":"2001-07-13",
        "latitude":35.833467,
        "longitude":-83.570423,
        "state_name":"Tennessee"
    },
    {
        "storeNumber":"23",
        "facilityType":"NIKE_OWNED_STORE",
        "phone":"18654537907",
        "name":"Nike Clearance Store - Pigeon Forge",
        "region":"NORTH_AMERICA",
        "company":"Nike",
        "street":"The Tower Shops at the Mountain Mile",
        "city":"Pigeon Forge",
        "state":"TN",
        "postalCode":"37863-3475",
        "country":"USA",
        "open_date":"1986-03-01",
        "latitude":35.8065414,
        "longitude":-83.5703607,
        "state_name":"Tennessee"
    },
    {
        "storeNumber":"338",
        "facilityType":"NIKE_OWNED_STORE",
        "phone":"12488589291",
        "name":"Nike Clearance Store - Auburn Hills",
        "region":"NORTH_AMERICA",
        "company":"Nike",
        "street":"Great Lakes Crossing",
        "city":"Auburn Hills",
        "state":"MI",
        "postalCode":"48326-1282",
        "country":"USA",
        "open_date":"2008-05-29",
        "latitude":42.703204,
        "longitude":-83.29992,
        "state_name":"Michigan"
    },
    {
        "storeNumber":"487",
        "facilityType":"NIKE_OWNED_STORE",
        "phone":"12482510180",
        "name":"Nike Somerset Collection North",
        "region":"NORTH_AMERICA",
        "company":"Nike",
        "street":"2800 W Big Beaver Rd, R236",
        "city":"Troy",
        "state":"MI",
        "postalCode":"48084-3219",
        "country":"USA",
        "open_date":"2023-09-07",
        "latitude":42.5629218,
        "longitude":-83.1841279,
        "state_name":"Michigan"
    },
    {
        "storeNumber":"217",
        "facilityType":"NIKE_OWNED_STORE",
        "phone":"17409652887",
        "name":"Nike Factory Store - Columbus",
        "region":"NORTH_AMERICA",
        "company":"Nike",
        "street":"Outlets at Columbus",
        "city":"Sunbury",
        "state":"OH",
        "postalCode":"43074-7536",
        "country":"USA",
        "open_date":"2016-05-23",
        "latitude":40.259741,
        "longitude":-82.925652,
        "state_name":"Ohio"
    },
    {
        "storeNumber":"432",
        "facilityType":"NIKE_OWNED_STORE",
        "phone":"13802040531",
        "name":"Nike Well Collective - Easton",
        "region":"NORTH_AMERICA",
        "company":"Nike",
        "street":"Easton Town Center",
        "city":"Columbus",
        "state":"OH",
        "postalCode":"43219-6067",
        "country":"USA",
        "open_date":"2021-07-01",
        "latitude":40.049246,
        "longitude":-82.916049,
        "state_name":"Ohio"
    },
    {
        "storeNumber":"2",
        "facilityType":"NIKE_OWNED_STORE",
        "phone":"17063355502",
        "name":"Nike Unite - Commerce",
        "region":"NORTH_AMERICA",
        "company":"Nike",
        "street":"800 Steven B Tanger Blvd #810",
        "city":"Commerce",
        "state":"GA",
        "postalCode":"30529-3582",
        "country":"USA",
        "open_date":"1998-01-24",
        "latitude":34.2489384,
        "longitude":-83.4754408,
        "state_name":"Georgia"
    },
    {
        "storeNumber":"251",
        "facilityType":"NIKE_OWNED_STORE",
        "phone":"13139653319",
        "name":"Nike Community Store - Detroit",
        "region":"NORTH_AMERICA",
        "company":"Nike",
        "street":"1261 Woodward Ave",
        "city":"Detroit",
        "state":"MI",
        "postalCode":"48226-2006",
        "country":"USA",
        "open_date":"2016-05-26",
        "latitude":42.333655,
        "longitude":-83.048669,
        "state_name":"Michigan"
    },
    {
        "storeNumber":"242",
        "facilityType":"NIKE_OWNED_STORE",
        "phone":"18286652787",
        "name":"Nike Factory Store - Asheville",
        "region":"NORTH_AMERICA",
        "company":"Nike",
        "street":"Asheville Outlets",
        "city":"Asheville",
        "state":"NC",
        "postalCode":"28806-2349",
        "country":"USA",
        "open_date":"2015-04-30",
        "latitude":35.52923,
        "longitude":-82.602941,
        "state_name":"North Carolina"
    },
    {
        "storeNumber":"465",
        "facilityType":"NIKE_OWNED_STORE",
        "phone":"14403850145",
        "name":"Nike Well Collective - Crocker Park",
        "region":"NORTH_AMERICA",
        "company":"Nike",
        "street":"236 Main Street",
        "city":"Westlake",
        "state":"OH",
        "postalCode":"44145-8146",
        "country":"USA",
        "open_date":"2023-04-06",
        "latitude":41.456221,
        "longitude":-81.9518489,
        "state_name":"Ohio"
    },
    {
        "storeNumber":"452",
        "facilityType":"NIKE_OWNED_STORE",
        "phone":"14406008303",
        "name":"Nike Well Collective - Pinecrest",
        "region":"NORTH_AMERICA",
        "company":"Nike",
        "street":"400 Park Ave., Ste 172",
        "city":"Orange Village",
        "state":"OH",
        "postalCode":"44122-4234",
        "country":"USA",
        "open_date":"2022-01-27",
        "latitude":41.4512,
        "longitude":-81.48563,
        "state_name":"Ohio"
    },
    {
        "storeNumber":"144",
        "facilityType":"NIKE_OWNED_STORE",
        "phone":"13309953080",
        "name":"Nike Factory Store - Aurora Farms",
        "region":"NORTH_AMERICA",
        "company":"Nike",
        "street":"Aurora Farms Premium Outlets",
        "city":"Aurora",
        "state":"OH",
        "postalCode":"44202-7804",
        "country":"USA",
        "open_date":"2006-10-25",
        "latitude":41.30127,
        "longitude":-81.339789,
        "state_name":"Ohio"
    },
    {
        "storeNumber":"69",
        "facilityType":"NIKE_OWNED_STORE",
        "phone":"18644877820",
        "name":"Nike Factory Store - Gaffney",
        "region":"NORTH_AMERICA",
        "company":"Nike",
        "street":"Gaffney Premium Outlets",
        "city":"Gaffney",
        "state":"SC",
        "postalCode":"29341-3321",
        "country":"USA",
        "open_date":"2006-10-11",
        "latitude":35.081032,
        "longitude":-81.713557,
        "state_name":"South Carolina"
    },
    {
        "storeNumber":"203",
        "facilityType":"NIKE_OWNED_STORE",
        "phone":"17045040876",
        "name":"Nike Factory Store - Charlotte",
        "region":"NORTH_AMERICA",
        "company":"Nike",
        "street":"Charlotte Premium Outlets",
        "city":"Charlotte",
        "state":"NC",
        "postalCode":"28278-0066",
        "country":"USA",
        "open_date":"2014-07-31",
        "latitude":35.16942,
        "longitude":-80.96949,
        "state_name":"North Carolina"
    },
    {
        "storeNumber":"261",
        "facilityType":"NIKE_OWNED_STORE",
        "phone":"13523727213",
        "name":"Nike Factory Store - Gainesville",
        "region":"NORTH_AMERICA",
        "company":"Nike",
        "street":"Celebration Pointe",
        "city":"Gainesville",
        "state":"FL",
        "postalCode":"32608-5079",
        "country":"USA",
        "open_date":"2018-04-19",
        "latitude":29.624862,
        "longitude":-82.396078,
        "state_name":"Florida"
    },
    {
        "storeNumber":"175",
        "facilityType":"NIKE_OWNED_STORE",
        "phone":"17049791230",
        "name":"Nike Clearance Store - Concord",
        "region":"NORTH_AMERICA",
        "company":"Nike",
        "street":"Concord Mills",
        "city":"Concord",
        "state":"NC",
        "postalCode":"28027-6460",
        "country":"USA",
        "open_date":"2004-08-06",
        "latitude":35.370556,
        "longitude":-80.723812,
        "state_name":"North Carolina"
    },
    {
        "storeNumber":"166",
        "facilityType":"NIKE_OWNED_STORE",
        "phone":"17242287357",
        "name":"Nike Factory Store - Pittsburgh",
        "region":"NORTH_AMERICA",
        "company":"Nike",
        "street":"Tanger Outlet Center - Pittsburgh",
        "city":"Washington",
        "state":"PA",
        "postalCode":"15301-7939",
        "country":"USA",
        "open_date":"2008-09-01",
        "latitude":40.217942,
        "longitude":-80.211772,
        "state_name":"Pennsylvania"
    },
    {
        "storeNumber":"65",
        "facilityType":"NIKE_OWNED_STORE",
        "phone":"17247485138",
        "name":"Nike Factory Store - Grove City",
        "region":"NORTH_AMERICA",
        "company":"Nike",
        "street":"Grove City Premium Outles",
        "city":"Grove City",
        "state":"PA",
        "postalCode":"16127-3356",
        "country":"USA",
        "open_date":"1995-02-27",
        "latitude":41.139517,
        "longitude":-80.157792,
        "state_name":"Pennsylvania"
    },
    {
        "storeNumber":"226",
        "facilityType":"NIKE_OWNED_STORE",
        "phone":"19124506444",
        "name":"Nike Factory Store - Savannah",
        "region":"NORTH_AMERICA",
        "company":"Nike",
        "street":"Outlet Mall of Georgia",
        "city":"Pooler",
        "state":"GA",
        "postalCode":"31322-3502",
        "country":"USA",
        "open_date":"2015-04-16",
        "latitude":32.134402,
        "longitude":-81.242571,
        "state_name":"Georgia"
    },
    {
        "storeNumber":"235",
        "facilityType":"NIKE_OWNED_STORE",
        "phone":"18139091573",
        "name":"Nike Factory Store - Tampa",
        "region":"NORTH_AMERICA",
        "company":"Nike",
        "street":"Tampa Premium Outlets",
        "city":"Lutz",
        "state":"FL",
        "postalCode":"33559-6839",
        "country":"USA",
        "open_date":"2015-10-29",
        "latitude":28.190071,
        "longitude":-82.390006,
        "state_name":"Florida"
    },
    {
        "storeNumber":"431",
        "facilityType":"NIKE_OWNED_STORE",
        "phone":"18133331718",
        "name":"Nike Well Collective - Hyde Park Village",
        "region":"NORTH_AMERICA",
        "company":"Nike",
        "street":"1520 W Swann Ave",
        "city":"Tampa",
        "state":"FL",
        "postalCode":"33606-0000",
        "country":"USA",
        "open_date":"2021-12-13",
        "latitude":27.9371778,
        "longitude":-82.4753608,
        "state_name":"Florida"
    },
    {
        "storeNumber":"63",
        "facilityType":"NIKE_OWNED_STORE",
        "phone":"19417220096",
        "name":"Nike Factory Store - Ellenton",
        "region":"NORTH_AMERICA",
        "company":"Nike",
        "street":"Ellenton Premium Outlets",
        "city":"Ellenton",
        "state":"FL",
        "postalCode":"34222-4122",
        "country":"USA",
        "open_date":"1991-10-10",
        "latitude":27.535599,
        "longitude":-82.507728,
        "state_name":"Florida"
    },
    {
        "storeNumber":"92",
        "facilityType":"NIKE_OWNED_STORE",
        "phone":"18438376453",
        "name":"Nike Factory Store - Bluffton",
        "region":"NORTH_AMERICA",
        "company":"Nike",
        "street":"Tanger Outlet Center - Hilton Head",
        "city":"Bluffton",
        "state":"SC",
        "postalCode":"29910-6583",
        "country":"USA",
        "open_date":"1997-04-11",
        "latitude":32.239708,
        "longitude":-80.819466,
        "state_name":"South Carolina"
    },
    {
        "storeNumber":"102",
        "facilityType":"NIKE_OWNED_STORE",
        "phone":"19048105584",
        "name":"Nike Factory Store - St Augustine",
        "region":"NORTH_AMERICA",
        "company":"Nike",
        "street":"St. Augustine Premium Outlets",
        "city":"St Augustine",
        "state":"FL",
        "postalCode":"32092-0763",
        "country":"USA",
        "open_date":"1999-07-31",
        "latitude":29.926465,
        "longitude":-81.418945,
        "state_name":"Florida"
    },
    {
        "storeNumber":"284",
        "facilityType":"NIKE_OWNED_STORE",
        "phone":"14075544675",
        "name":"Nike Factory Store - Winter Garden",
        "region":"NORTH_AMERICA",
        "company":"Nike",
        "street":"Winter Garden Village",
        "city":"Winter Garden",
        "state":"FL",
        "postalCode":"34787-7006",
        "country":"USA",
        "open_date":"2018-12-13",
        "latitude":28.524416,
        "longitude":-81.583771,
        "state_name":"Florida"
    },
    {
        "storeNumber":"165",
        "facilityType":"NIKE_OWNED_STORE",
        "phone":"17162985615",
        "name":"Nike Clearance Store - Niagara Falls",
        "region":"NORTH_AMERICA",
        "company":"Nike",
        "street":"Fashion Outlets of Niagara Falls",
        "city":"Niagara Falls",
        "state":"NY",
        "postalCode":"14304-1772",
        "country":"USA",
        "open_date":"2008-06-10",
        "latitude":43.097456,
        "longitude":-78.980625,
        "state_name":"New York"
    },
    {
        "storeNumber":"101",
        "facilityType":"NIKE_OWNED_STORE",
        "phone":"18437443966",
        "name":"Nike Factory Store - Charleston",
        "region":"NORTH_AMERICA",
        "company":"Nike",
        "street":"Tanger Outlet Center - Charleston",
        "city":"North Charleston",
        "state":"SC",
        "postalCode":"29418-6958",
        "country":"USA",
        "open_date":"2006-08-02",
        "latitude":32.872686,
        "longitude":-80.016893,
        "state_name":"South Carolina"
    },
    {
        "storeNumber":"97",
        "facilityType":"NIKE_OWNED_STORE",
        "phone":"14073971979",
        "name":"Nike Factory Store - Celebration",
        "region":"NORTH_AMERICA",
        "company":"Nike",
        "street":"Shoppes at the Parkway - Celebration",
        "city":"Kissimmee",
        "state":"FL",
        "postalCode":"34747-4512",
        "country":"USA",
        "open_date":"1999-03-13",
        "latitude":28.333939,
        "longitude":-81.530637,
        "state_name":"Florida"
    },
    {
        "storeNumber":"96",
        "facilityType":"NIKE_OWNED_STORE",
        "phone":"14072393663",
        "name":"Nike Factory Store - Orlando Vineland",
        "region":"NORTH_AMERICA",
        "company":"Nike",
        "street":"Orlando Premium Outlets",
        "city":"Orlando",
        "state":"FL",
        "postalCode":"32819-8617",
        "country":"USA",
        "open_date":"2000-05-25",
        "latitude":28.386173,
        "longitude":-81.493748,
        "state_name":"Florida"
    },
    {
        "storeNumber":"370",
        "facilityType":"NIKE_OWNED_STORE",
        "phone":"19195632172",
        "name":"Nike Factory Store - Mebane",
        "region":"NORTH_AMERICA",
        "company":"Nike",
        "street":"Tanger Outlet Center - Mebane",
        "city":"Mebane",
        "state":"NC",
        "postalCode":"27302-7648",
        "country":"USA",
        "open_date":"2010-11-05",
        "latitude":36.074074,
        "longitude":-79.266198,
        "state_name":"North Carolina"
    },
    {
        "storeNumber":"88",
        "facilityType":"NIKE_OWNED_STORE",
        "phone":"14073519400",
        "name":"Nike Factory Store - Orlando International",
        "region":"NORTH_AMERICA",
        "company":"Nike",
        "street":"4977 International Dr. #3B-13",
        "city":"Orlando",
        "state":"FL",
        "postalCode":"32819-6234",
        "country":"USA",
        "open_date":"1997-12-12",
        "latitude":28.476218,
        "longitude":-81.449292,
        "state_name":"Florida"
    },
    {
        "storeNumber":"204",
        "facilityType":"NIKE_OWNED_STORE",
        "phone":"14073523488",
        "name":"Nike Clearance Store - Orlando Marketplace",
        "region":"NORTH_AMERICA",
        "company":"Nike",
        "street":"Orlando Premium Outlets-International Dr",
        "city":"Orlando",
        "state":"FL",
        "postalCode":"32819-9426",
        "country":"USA",
        "open_date":"2015-05-07",
        "latitude":28.468446,
        "longitude":-81.451038,
        "state_name":"Florida"
    },
    {
        "storeNumber":"128",
        "facilityType":"NIKE_OWNED_STORE",
        "phone":"14074770463",
        "name":"Nike Factory Store - Lake Buena Vista",
        "region":"NORTH_AMERICA",
        "company":"Nike",
        "street":"15609 State Road 535",
        "city":"Orlando",
        "state":"FL",
        "postalCode":"32821-5608",
        "country":"USA",
        "open_date":"2005-09-13",
        "latitude":28.350281,
        "longitude":-81.485672,
        "state_name":"Florida"
    },
    {
        "storeNumber":"249",
        "facilityType":"NIKE_OWNED_STORE",
        "phone":"13862742849",
        "name":"Nike Factory Store - Daytona Beach",
        "region":"NORTH_AMERICA",
        "company":"Nike",
        "street":"Tanger Outlet Center - Daytona Beach",
        "city":"Daytona Beach",
        "state":"FL",
        "postalCode":"32117-7102",
        "country":"USA",
        "open_date":"2016-11-18",
        "latitude":29.212485,
        "longitude":-81.098858,
        "state_name":"Florida"
    },
    {
        "storeNumber":"291",
        "facilityType":"NIKE_OWNED_STORE",
        "phone":"14073960500",
        "name":"Nike Clearance Store - Kissimmee",
        "region":"NORTH_AMERICA",
        "company":"Nike",
        "street":"2671 W Osceola Pkwy Unit B",
        "city":"Kissimmee",
        "state":"FL",
        "postalCode":"34741-0604",
        "country":"USA",
        "open_date":"2009-05-16",
        "latitude":28.343809,
        "longitude":-81.42905,
        "state_name":"Florida"
    },
    {
        "storeNumber":"280",
        "facilityType":"NIKE_OWNED_STORE",
        "phone":"13212060347",
        "name":"Nike Unite - Waterford Lakes",
        "region":"NORTH_AMERICA",
        "company":"Nike",
        "street":"481 N Alafaya Trail",
        "city":"Orlando",
        "state":"FL",
        "postalCode":"32828-7017",
        "country":"USA",
        "open_date":"2022-04-28",
        "latitude":28.5536546,
        "longitude":-81.2036868,
        "state_name":"Florida"
    },
    {
        "storeNumber":"458",
        "facilityType":"NIKE_OWNED_STORE",
        "phone":"19193420116",
        "name":"Nike Well Collective - Cary",
        "region":"NORTH_AMERICA",
        "company":"Nike",
        "street":"4 Fenton Main St, Suite #140",
        "city":"Cary",
        "state":"NC",
        "postalCode":"27511-7746",
        "country":"USA",
        "open_date":"2022-06-02",
        "latitude":35.780401,
        "longitude":-78.757648,
        "state_name":"North Carolina"
    },
    {
        "storeNumber":"67",
        "facilityType":"NIKE_OWNED_STORE",
        "phone":"12399484100",
        "name":"Nike Factory Store - Estero",
        "region":"NORTH_AMERICA",
        "company":"Nike",
        "street":"Miromar Outlets",
        "city":"Estero",
        "state":"FL",
        "postalCode":"33928-9431",
        "country":"USA",
        "open_date":"1998-10-31",
        "latitude":26.435924,
        "longitude":-81.777071,
        "state_name":"Florida"
    },
    {
        "storeNumber":"78",
        "facilityType":"NIKE_OWNED_STORE",
        "phone":"18439030110",
        "name":"Nike Factory Store - Myrtle Beach",
        "region":"NORTH_AMERICA",
        "company":"Nike",
        "street":"Tanger Outlet Center - Myrtle Beach",
        "city":"Myrtle Beach",
        "state":"SC",
        "postalCode":"29579-0963",
        "country":"USA",
        "open_date":"1998-03-28",
        "latitude":33.752314,
        "longitude":-78.960667,
        "state_name":"South Carolina"
    },
    {
        "storeNumber":"40",
        "facilityType":"NIKE_OWNED_STORE",
        "phone":"19199896100",
        "name":"Nike Factory Store - Smithfield",
        "region":"NORTH_AMERICA",
        "company":"Nike",
        "street":"Carolina Premium Outlets - Smithfield",
        "city":"Smithfield",
        "state":"NC",
        "postalCode":"27577-6039",
        "country":"USA",
        "open_date":"1990-06-23",
        "latitude":35.510884,
        "longitude":-78.312373,
        "state_name":"North Carolina"
    },
    {
        "storeNumber":"71",
        "facilityType":"NIKE_OWNED_STORE",
        "phone":"17037713060",
        "name":"Nike Factory Store - Leesburg",
        "region":"NORTH_AMERICA",
        "company":"Nike",
        "street":"241 Fort Evans Rd. NE  #510",
        "city":"Leesburg",
        "state":"VA",
        "postalCode":"20176-4040",
        "country":"USA",
        "open_date":"1998-10-31",
        "latitude":39.105181,
        "longitude":-77.538896,
        "state_name":"Virginia"
    },
    {
        "storeNumber":"448",
        "facilityType":"NIKE_OWNED_STORE",
        "phone":"17039883349",
        "name":"Nike Unite - Fairfax",
        "region":"NORTH_AMERICA",
        "company":"Nike",
        "street":"13027 Fair Lakes Shopping Cent",
        "city":"Fairfax",
        "state":"VA",
        "postalCode":"22033-5179",
        "country":"USA",
        "open_date":"2022-05-26",
        "latitude":38.8567484,
        "longitude":-77.3912056,
        "state_name":"Virginia"
    },
    {
        "storeNumber":"256",
        "facilityType":"NIKE_OWNED_STORE",
        "phone":"13015407369",
        "name":"Nike Factory Store - Clarksburg",
        "region":"NORTH_AMERICA",
        "company":"Nike",
        "street":"Clarksburg Premium Outlets",
        "city":"Clarksburg",
        "state":"MD",
        "postalCode":"20871-6386",
        "country":"USA",
        "open_date":"2016-10-27",
        "latitude":39.2282095,
        "longitude":-77.2858523,
        "state_name":"Maryland"
    },
    {
        "storeNumber":"174",
        "facilityType":"NIKE_OWNED_STORE",
        "phone":"17034974513",
        "name":"Nike Clearance Store - Woodbridge",
        "region":"NORTH_AMERICA",
        "company":"Nike",
        "street":"Potomac Mills",
        "city":"Woodbridge",
        "state":"VA",
        "postalCode":"22192-4656",
        "country":"USA",
        "open_date":"2016-06-20",
        "latitude":38.643405,
        "longitude":-77.296179,
        "state_name":"Virginia"
    },
    {
        "storeNumber":"538",
        "facilityType":"NIKE_OWNED_STORE",
        "phone":"12402048063",
        "name":"Nike Well Collective - Bethesda",
        "region":"NORTH_AMERICA",
        "company":"Nike",
        "street":"7117 Arlington Road Space U",
        "city":"Bethesda",
        "state":"MD",
        "postalCode":"20814-7910",
        "country":"USA",
        "open_date":"2023-05-25",
        "latitude":38.9811722,
        "longitude":-77.0968706,
        "state_name":"Maryland"
    },
    {
        "storeNumber":"138",
        "facilityType":"NIKE_OWNED_STORE",
        "phone":"13155394094",
        "name":"Nike Factory Store - Finger Lakes",
        "region":"NORTH_AMERICA",
        "company":"Nike",
        "street":"Waterloo Premium Outlets",
        "city":"Waterloo",
        "state":"NY",
        "postalCode":"13165-5569",
        "country":"USA",
        "open_date":"2006-05-24",
        "latitude":42.956824,
        "longitude":-76.91868,
        "state_name":"New York"
    },
    {
        "storeNumber":"468",
        "facilityType":"NIKE_OWNED_STORE",
        "phone":"13019604100",
        "name":"Nike Unite - Silver Spring",
        "region":"NORTH_AMERICA",
        "company":"Nike",
        "street":"910 Ellsworth Dr.",
        "city":"Silver Spring",
        "state":"MD",
        "postalCode":"20910-4401",
        "country":"USA",
        "open_date":"2023-02-23",
        "latitude":38.9959644,
        "longitude":-77.0259056,
        "state_name":"Maryland"
    },
    {
        "storeNumber":"482",
        "facilityType":"NIKE_OWNED_STORE",
        "phone":"12029254856",
        "name":"Nike Unite - H Street",
        "region":"NORTH_AMERICA",
        "company":"Nike",
        "street":"700 H Street Northeast",
        "city":"Washington",
        "state":"DC",
        "postalCode":"20002-3627",
        "country":"USA",
        "open_date":"2023-02-16",
        "latitude":38.9004204,
        "longitude":-76.9959563,
        "state_name":null
    },
    {
        "storeNumber":"212",
        "facilityType":"NIKE_OWNED_STORE",
        "phone":"13018391302",
        "name":"Nike Factory Store - National Harbor",
        "region":"NORTH_AMERICA",
        "company":"Nike",
        "street":"Tanger Outlet Center - National Harbor",
        "city":"National Harbor",
        "state":"MD",
        "postalCode":"20745-4715",
        "country":"USA",
        "open_date":"2013-11-21",
        "latitude":38.794257,
        "longitude":-77.000626,
        "state_name":"Maryland"
    },
    {
        "storeNumber":"420",
        "facilityType":"NIKE_OWNED_STORE",
        "phone":"12402066501",
        "name":"Nike Unite - Glenarden",
        "region":"NORTH_AMERICA",
        "company":"Nike",
        "street":"Suite 518",
        "city":"Lanham",
        "state":"MD",
        "postalCode":"20706-1637",
        "country":"USA",
        "open_date":"2023-03-09",
        "latitude":38.92127,
        "longitude":-76.84644,
        "state_name":"Maryland"
    },
    {
        "storeNumber":"481",
        "facilityType":"NIKE_OWNED_STORE",
        "phone":"17173125203",
        "name":"Nike Unite - Hershey",
        "region":"NORTH_AMERICA",
        "company":"Nike",
        "street":"137 Outlet Square",
        "city":"Hershey",
        "state":"PA",
        "postalCode":"17033-2747",
        "country":"USA",
        "open_date":"2023-03-02",
        "latitude":40.2960731,
        "longitude":-76.6464604,
        "state_name":"Pennsylvania"
    },
    {
        "storeNumber":"27",
        "facilityType":"NIKE_OWNED_STORE",
        "phone":"14103791587",
        "name":"Nike Factory Store - Hanover",
        "region":"NORTH_AMERICA",
        "company":"Nike",
        "street":"Arundel Mills",
        "city":"Hanover",
        "state":"MD",
        "postalCode":"21076-1288",
        "country":"USA",
        "open_date":"2008-11-20",
        "latitude":39.159573,
        "longitude":-76.724113,
        "state_name":"Maryland"
    },
    {
        "storeNumber":"703",
        "facilityType":"NIKE_OWNED_STORE",
        "phone":"15612144582",
        "name":"Nike Palm Beach Gardens",
        "region":"NORTH_AMERICA",
        "company":"Nike",
        "street":"Gardens Mall",
        "city":"Palm Beach Gardens",
        "state":"FL",
        "postalCode":"33410-2813",
        "country":"USA",
        "open_date":"2023-11-09",
        "latitude":26.8484939,
        "longitude":-80.0845617,
        "state_name":"Florida"
    },
    {
        "storeNumber":"213",
        "facilityType":"NIKE_OWNED_STORE",
        "phone":"+1 (561) 615-4050",
        "name":"Nike Factory Store - West Palm Beach",
        "region":"NORTH_AMERICA",
        "company":"Nike",
        "street":"Palm Beach Fashion Outlets",
        "city":"West Palm Beach",
        "state":"FL",
        "postalCode":"33401",
        "country":"USA",
        "open_date":"2018-01-01",
        "latitude":26.724615,
        "longitude":-80.086923,
        "state_name":"Florida"
    },
    {
        "storeNumber":"131",
        "facilityType":"NIKE_OWNED_STORE",
        "phone":"19548370329",
        "name":"Nike Factory Store - Sawgrass Mills",
        "region":"NORTH_AMERICA",
        "company":"Nike",
        "street":"12801 W Sunrise Blvd.  #1005",
        "city":"Sunrise",
        "state":"FL",
        "postalCode":"33323-4007",
        "country":"USA",
        "open_date":"2006-05-25",
        "latitude":26.151941,
        "longitude":-80.321429,
        "state_name":"Florida"
    },
    {
        "storeNumber":"220",
        "facilityType":"NIKE_OWNED_STORE",
        "phone":"19544417556",
        "name":"Nike Factory Store - Pembroke Pines",
        "region":"NORTH_AMERICA",
        "company":"Nike",
        "street":"The Shops at Pembroke Gardens",
        "city":"Pembroke Pines",
        "state":"FL",
        "postalCode":"33027-1450",
        "country":"USA",
        "open_date":"2016-08-18",
        "latitude":26.00232,
        "longitude":-80.336404,
        "state_name":"Florida"
    },
    {
        "storeNumber":"41",
        "facilityType":"NIKE_OWNED_STORE",
        "phone":"17575652963",
        "name":"Nike Factory Store - Williamsburg  VA",
        "region":"NORTH_AMERICA",
        "company":"Nike",
        "street":"Williamsburg Premium Outlets",
        "city":"Williamsburg",
        "state":"VA",
        "postalCode":"23188-1941",
        "country":"USA",
        "open_date":"1990-09-01",
        "latitude":37.318265,
        "longitude":-76.737637,
        "state_name":"Virginia"
    },
    {
        "storeNumber":"405",
        "facilityType":"NIKE_OWNED_STORE",
        "phone":"18008066453",
        "name":"Nike Clearance Store - White Marsh",
        "region":"NORTH_AMERICA",
        "company":"Nike",
        "street":"8115A Honeygo Blvd.",
        "city":"Baltimore",
        "state":"MD",
        "postalCode":"21236-8211",
        "country":"USA",
        "open_date":"2022-06-23",
        "latitude":39.3709108,
        "longitude":-76.4671984,
        "state_name":"Maryland"
    },
    {
        "storeNumber":"185",
        "facilityType":"NIKE_OWNED_STORE",
        "phone":"13057168760",
        "name":"Nike Factory Store - Miami",
        "region":"NORTH_AMERICA",
        "company":"Nike",
        "street":"Dolphin Mall",
        "city":"Miami",
        "state":"FL",
        "postalCode":"33172-6904",
        "country":"USA",
        "open_date":"2008-09-22",
        "latitude":25.787419,
        "longitude":-80.382766,
        "state_name":"Florida"
    },
    {
        "storeNumber":"66",
        "facilityType":"NIKE_OWNED_STORE",
        "phone":"13052487991",
        "name":"Nike Clearance Store - Florida City",
        "region":"NORTH_AMERICA",
        "company":"Nike",
        "street":"Florida Keys Premium Outlets",
        "city":"Florida City",
        "state":"FL",
        "postalCode":"33034-3526",
        "country":"USA",
        "open_date":"1995-06-14",
        "latitude":25.45236,
        "longitude":-80.473683,
        "state_name":"Florida"
    },
    {
        "storeNumber":"469",
        "facilityType":"NIKE_OWNED_STORE",
        "phone":"19542376619",
        "name":"Nike Clearance Store - Dania Pointe",
        "region":"NORTH_AMERICA",
        "company":"Nike",
        "street":"166 Sunset Drive",
        "city":"Dania Beach",
        "state":"FL",
        "postalCode":"33004-2153",
        "country":"USA",
        "open_date":"2022-12-08",
        "latitude":26.0537874,
        "longitude":-80.1612006,
        "state_name":"Florida"
    },
    {
        "storeNumber":"116",
        "facilityType":"NIKE_OWNED_STORE",
        "phone":"17173961040",
        "name":"Nike Factory Store - Lancaster",
        "region":"NORTH_AMERICA",
        "company":"Nike",
        "street":"Tanger Outlet Center - Lancaster",
        "city":"Lancaster",
        "state":"PA",
        "postalCode":"17602-1467",
        "country":"USA",
        "open_date":"2003-05-16",
        "latitude":40.025692,
        "longitude":-76.220268,
        "state_name":"Pennsylvania"
    },
    {
        "storeNumber":"478",
        "facilityType":"NIKE_OWNED_STORE",
        "phone":"13059219872",
        "name":"Nike Aventura",
        "region":"NORTH_AMERICA",
        "company":"Nike",
        "street":"19501 Biscayne Blvd",
        "city":"Aventura",
        "state":"FL",
        "postalCode":"33180-2342",
        "country":"USA",
        "open_date":"2022-11-17",
        "latitude":25.9568456,
        "longitude":-80.1410266,
        "state_name":"Florida"
    },
    {
        "storeNumber":"444",
        "facilityType":"NIKE_OWNED_STORE",
        "phone":"17862060518",
        "name":"Nike Well Collective - Brickell",
        "region":"NORTH_AMERICA",
        "company":"Nike",
        "street":"701 S. Miami Ave. #121-A",
        "city":"Miami",
        "state":"FL",
        "postalCode":"33131-1948",
        "country":"USA",
        "open_date":"2022-08-04",
        "latitude":25.76685,
        "longitude":-80.1927749,
        "state_name":"Florida"
    },
    {
        "storeNumber":"381",
        "facilityType":"NIKE_OWNED_STORE",
        "phone":"13056740352",
        "name":"Nike Miami",
        "region":"NORTH_AMERICA",
        "company":"Nike",
        "street":"1035 Lincoln Road",
        "city":"Miami Beach",
        "state":"FL",
        "postalCode":"33139-2501",
        "country":"USA",
        "open_date":"2017-01-01",
        "latitude":25.790827,
        "longitude":-80.139735,
        "state_name":"Florida"
    },
    {
        "storeNumber":"33",
        "facilityType":"NIKE_OWNED_STORE",
        "phone":"14108274982",
        "name":"Nike Factory Store - Queenstown",
        "region":"NORTH_AMERICA",
        "company":"Nike",
        "street":"Queenstown Premium Outlets",
        "city":"Queenstown",
        "state":"MD",
        "postalCode":"21658-1398",
        "country":"USA",
        "open_date":"2008-04-14",
        "latitude":38.9821976,
        "longitude":-76.1610431,
        "state_name":"Maryland"
    },
    {
        "storeNumber":"224",
        "facilityType":"NIKE_OWNED_STORE",
        "phone":"17577760694",
        "name":"Nike Factory Store - Norfolk",
        "region":"NORTH_AMERICA",
        "company":"Nike",
        "street":"Norfolk Premium Outlets",
        "city":"Norfolk",
        "state":"VA",
        "postalCode":"23502-5521",
        "country":"USA",
        "open_date":"2017-06-29",
        "latitude":36.881997,
        "longitude":-76.199543,
        "state_name":"Virginia"
    },
    {
        "storeNumber":"442",
        "facilityType":"NIKE_OWNED_STORE",
        "phone":"18003446453",
        "name":"Nike Well Collective - Virginia Beach",
        "region":"NORTH_AMERICA",
        "company":"Nike",
        "street":"4537 Main St.",
        "city":"Virginia Beach",
        "state":"VA",
        "postalCode":"23462-3272",
        "country":"USA",
        "open_date":"2021-12-09",
        "latitude":36.8419404,
        "longitude":-76.1329135,
        "state_name":"Virginia"
    },
    {
        "storeNumber":"168",
        "facilityType":"NIKE_OWNED_STORE",
        "phone":"16103271748",
        "name":"Nike Factory Store - Pottstown",
        "region":"NORTH_AMERICA",
        "company":"Nike",
        "street":"Philadelphia Premium Outlets",
        "city":"Pottstown",
        "state":"PA",
        "postalCode":"19464-7822",
        "country":"USA",
        "open_date":"2007-11-08",
        "latitude":40.235513,
        "longitude":-75.568101,
        "state_name":"Pennsylvania"
    },
    {
        "storeNumber":"635",
        "facilityType":"NIKE_OWNED_STORE",
        "phone":"12674480103",
        "name":"Nike King of Prussia",
        "region":"NORTH_AMERICA",
        "company":"Nike",
        "street":"Suite 2336",
        "city":"King of Prussia",
        "state":"PA",
        "postalCode":"19406-2953",
        "country":"USA",
        "open_date":"2023-10-20",
        "latitude":40.0873707,
        "longitude":-75.3911012,
        "state_name":"Pennsylvania"
    },
    {
        "storeNumber":"120",
        "facilityType":"NIKE_OWNED_STORE",
        "phone":"15706889457",
        "name":"Nike Factory Store - Tannersville",
        "region":"NORTH_AMERICA",
        "company":"Nike",
        "street":"The Crossings Premium Outlets",
        "city":"Tannersville",
        "state":"PA",
        "postalCode":"18372-7918",
        "country":"USA",
        "open_date":"2006-10-08",
        "latitude":41.050065,
        "longitude":-75.314549,
        "state_name":"Pennsylvania"
    },
    {
        "storeNumber":"429",
        "facilityType":"NIKE_OWNED_STORE",
        "phone":"16102851439",
        "name":"Nike Well Collective - Ardmore",
        "region":"NORTH_AMERICA",
        "company":"Nike",
        "street":"61 Anderson Avenue",
        "city":"Ardmore",
        "state":"PA",
        "postalCode":"19003-2423",
        "country":"USA",
        "open_date":"2021-11-11",
        "latitude":40.0092062,
        "longitude":-75.2899672,
        "state_name":"Pennsylvania"
    },
    {
        "storeNumber":"281",
        "facilityType":"NIKE_OWNED_STORE",
        "phone":"1-267-460-0360",
        "name":"Nike Factory Store - Downtown Philadelphia",
        "region":"NORTH_AMERICA",
        "company":"Nike",
        "street":"901 Market Street, Space 1095",
        "city":"Philadelphia",
        "state":"PA",
        "postalCode":"19107",
        "country":"USA",
        "open_date":"2019-09-19",
        "latitude":39.951675,
        "longitude":-75.155324,
        "state_name":"Pennsylvania"
    },
    {
        "storeNumber":"219",
        "facilityType":"NIKE_OWNED_STORE",
        "phone":"18564779160",
        "name":"Nike Unite - Gloucester",
        "region":"NORTH_AMERICA",
        "company":"Nike",
        "street":"100 Premium Outlets Dr #140",
        "city":"Blackwood",
        "state":"NJ",
        "postalCode":"08012-3863",
        "country":"USA",
        "open_date":"2015-08-03",
        "latitude":39.784785,
        "longitude":-75.053593,
        "state_name":"New Jersey"
    },
    {
        "storeNumber":"5",
        "facilityType":"NIKE_OWNED_STORE",
        "phone":"13022262950",
        "name":"Nike Factory Store - Rehoboth",
        "region":"NORTH_AMERICA",
        "company":"Nike",
        "street":"Tanger Outlet Center - Rehoboth Beach",
        "city":"Rehoboth",
        "state":"DE",
        "postalCode":"19971-4203",
        "country":"USA",
        "open_date":"1998-05-17",
        "latitude":38.71604,
        "longitude":-75.11068,
        "state_name":"Delaware"
    },
    {
        "storeNumber":"472",
        "facilityType":"NIKE_OWNED_STORE",
        "phone":"18563343564",
        "name":"Nike Well Collective - Marlton",
        "region":"NORTH_AMERICA",
        "company":"Nike",
        "street":"500 Route 73 South",
        "city":"Marlton",
        "state":"NJ",
        "postalCode":"08053-8000",
        "country":"USA",
        "open_date":"2022-11-17",
        "latitude":39.879712,
        "longitude":-74.919013,
        "state_name":"New Jersey"
    },
    {
        "storeNumber":"446",
        "facilityType":"NIKE_OWNED_STORE",
        "phone":"16094823616",
        "name":"Nike Unite - Princeton",
        "region":"NORTH_AMERICA",
        "company":"Nike",
        "street":"3357 Brunswick Pike  Suite 33",
        "city":"Lawrenceville",
        "state":"NJ",
        "postalCode":"08648-0000",
        "country":"USA",
        "open_date":"2022-02-17",
        "latitude":40.297796,
        "longitude":-74.6837199,
        "state_name":"New Jersey"
    },
    {
        "storeNumber":"79",
        "facilityType":"NIKE_OWNED_STORE",
        "phone":"17328332202",
        "name":"Nike Factory Store - Jackson",
        "region":"NORTH_AMERICA",
        "company":"Nike",
        "street":"Jackson Premium Outlets",
        "city":"Jackson",
        "state":"NJ",
        "postalCode":"08527-5368",
        "country":"USA",
        "open_date":"1999-04-03",
        "latitude":40.16253,
        "longitude":-74.419575,
        "state_name":"New Jersey"
    },
    {
        "storeNumber":"140",
        "facilityType":"NIKE_OWNED_STORE",
        "phone":"16093480573",
        "name":"Nike Factory Store - Atlantic City",
        "region":"NORTH_AMERICA",
        "company":"Nike",
        "street":"Tanger Outlet Center - The Walk",
        "city":"Atlantic City",
        "state":"NJ",
        "postalCode":"08401-4112",
        "country":"USA",
        "open_date":"2007-03-20",
        "latitude":39.358977,
        "longitude":-74.438037,
        "state_name":"New Jersey"
    },
    {
        "storeNumber":"223",
        "facilityType":"NIKE_OWNED_STORE",
        "phone":"19733530350",
        "name":"Nike Factory Store - Newark",
        "region":"NORTH_AMERICA",
        "company":"Nike",
        "street":"The Shoppes at Broad",
        "city":"Newark",
        "state":"NJ",
        "postalCode":"07102-4405",
        "country":"USA",
        "open_date":"2015-10-01",
        "latitude":40.738198,
        "longitude":-74.171088,
        "state_name":"New Jersey"
    },
    {
        "storeNumber":"59",
        "facilityType":"NIKE_OWNED_STORE",
        "phone":"18459288838",
        "name":"Nike Factory Store - Woodbury",
        "region":"NORTH_AMERICA",
        "company":"Nike",
        "street":"Woodbury Common Premium Outlets",
        "city":"Central Valley",
        "state":"NY",
        "postalCode":"10917-6203",
        "country":"USA",
        "open_date":"1993-05-01",
        "latitude":41.313621,
        "longitude":-74.125649,
        "state_name":"New York"
    },
    {
        "storeNumber":"173",
        "facilityType":"NIKE_OWNED_STORE",
        "phone":"19086299171",
        "name":"Nike Factory Store - Jersey Gardens",
        "region":"NORTH_AMERICA",
        "company":"Nike",
        "street":"651 Kapkowski Rd., Space 150",
        "city":"Elizabeth",
        "state":"NJ",
        "postalCode":"07201-4929",
        "country":"USA",
        "open_date":"2001-11-09",
        "latitude":40.660297,
        "longitude":-74.170239,
        "state_name":"New Jersey"
    },
    {
        "storeNumber":"471",
        "facilityType":"NIKE_OWNED_STORE",
        "phone":"15512821443",
        "name":"Nike Well Collective - Woodcliff Lake",
        "region":"NORTH_AMERICA",
        "company":"Nike",
        "street":"415 Chestnut Ridge Road",
        "city":"Woodcliff Lake",
        "state":"NJ",
        "postalCode":"07677-7679",
        "country":"USA",
        "open_date":"2022-10-06",
        "latitude":41.0408287,
        "longitude":-74.0754048,
        "state_name":"New Jersey"
    },
    {
        "storeNumber":"349",
        "facilityType":"NIKE_OWNED_STORE",
        "phone":"12018430932",
        "name":"Nike Factory Store - Paramus",
        "region":"NORTH_AMERICA",
        "company":"Nike",
        "street":"The Outlets at Bergen Town Center",
        "city":"Paramus",
        "state":"NJ",
        "postalCode":"07652-5010",
        "country":"USA",
        "open_date":"2009-03-07",
        "latitude":40.9154796,
        "longitude":-74.0598406,
        "state_name":"New Jersey"
    },
    {
        "storeNumber":"258",
        "facilityType":"NIKE_OWNED_STORE",
        "phone":"13475351030",
        "name":"Nike Factory Store - Staten Island",
        "region":"NORTH_AMERICA",
        "company":"Nike",
        "street":"Empire Outlets",
        "city":"Staten Island",
        "state":"NY",
        "postalCode":"10301-1986",
        "country":"USA",
        "open_date":"2019-05-15",
        "latitude":40.643622,
        "longitude":-74.075177,
        "state_name":"New York"
    },
    {
        "storeNumber":"118",
        "facilityType":"NIKE_OWNED_STORE",
        "phone":"17326950108",
        "name":"Nike Factory Store - Tinton Falls",
        "region":"NORTH_AMERICA",
        "company":"Nike",
        "street":"Tinton Falls Premium Outlets",
        "city":"Tinton Falls",
        "state":"NJ",
        "postalCode":"07753-7479",
        "country":"USA",
        "open_date":"2008-11-13",
        "latitude":40.222507,
        "longitude":-74.095189,
        "state_name":"New Jersey"
    },
    {
        "storeNumber":"454",
        "facilityType":"NIKE_OWNED_STORE",
        "phone":"12014847667",
        "name":"Nike Well Collective - Hoboken",
        "region":"NORTH_AMERICA",
        "company":"Nike",
        "street":"222 WASHINGTON ST",
        "city":"Hoboken",
        "state":"NJ",
        "postalCode":"07030-4709",
        "country":"USA",
        "open_date":"2023-01-26",
        "latitude":40.7396178,
        "longitude":-74.0306995,
        "state_name":"New Jersey"
    },
    {
        "storeNumber":"475",
        "facilityType":"NIKE_OWNED_STORE",
        "phone":"17322685057",
        "name":"Nike Well Collective - Shrewsbury",
        "region":"NORTH_AMERICA",
        "company":"Nike",
        "street":"601 Route 35",
        "city":"Shrewsbury",
        "state":"NJ",
        "postalCode":"07702-4150",
        "country":"USA",
        "open_date":"2022-06-30",
        "latitude":40.3313677,
        "longitude":-74.061086,
        "state_name":"New Jersey"
    },
    {
        "storeNumber":"556",
        "facilityType":"NIKE_OWNED_STORE",
        "phone":"13322030526",
        "name":"Nike Well Collective - Battery Park",
        "region":"NORTH_AMERICA",
        "company":"Nike",
        "street":"200 Vesey Street, Suite #118",
        "city":"New York",
        "state":"NY",
        "postalCode":"10281-5524",
        "country":"USA",
        "open_date":"2023-05-25",
        "latitude":40.7136293,
        "longitude":-74.015026,
        "state_name":"New York"
    },
    {
        "storeNumber":"325",
        "facilityType":"NIKE_OWNED_STORE",
        "phone":"16467163740",
        "name":"Nike Soho",
        "region":"NORTH_AMERICA",
        "company":"Nike",
        "street":"529 Broadway",
        "city":"New York",
        "state":"NY",
        "postalCode":"10012-3927",
        "country":"USA",
        "open_date":"2016-11-11",
        "latitude":40.723214,
        "longitude":-73.998834,
        "state_name":"New York"
    },
    {
        "storeNumber":"365",
        "facilityType":"NIKE_OWNED_STORE",
        "phone":"12123769480",
        "name":"Nike House of Innovation NYC",
        "region":"NORTH_AMERICA",
        "company":"Nike",
        "street":"650 5th Avenue",
        "city":"New York",
        "state":"NY",
        "postalCode":"10019-6108",
        "country":"USA",
        "open_date":"2018-11-14",
        "latitude":40.759713,
        "longitude":-73.976643,
        "state_name":"New York"
    },
    {
        "storeNumber":"359",
        "facilityType":"NIKE_OWNED_STORE",
        "phone":"12125351530",
        "name":"Nike Well Collective - Upper East Side",
        "region":"NORTH_AMERICA",
        "company":"Nike",
        "street":"1131 3rd Ave",
        "city":"New York",
        "state":"NY",
        "postalCode":"10065-6229",
        "country":"USA",
        "open_date":"2013-10-30",
        "latitude":40.766174,
        "longitude":-73.962985,
        "state_name":"New York"
    },
    {
        "storeNumber":"434",
        "facilityType":"NIKE_OWNED_STORE",
        "phone":"16462256537",
        "name":"Nike Well Collective - Williamsburg",
        "region":"NORTH_AMERICA",
        "company":"Nike",
        "street":"81 North 6th Street",
        "city":"Brooklyn",
        "state":"NY",
        "postalCode":"11249-3001",
        "country":"USA",
        "open_date":"2021-09-23",
        "latitude":40.7188693,
        "longitude":-73.960679,
        "state_name":"New York"
    },
    {
        "storeNumber":"467",
        "facilityType":"NIKE_OWNED_STORE",
        "phone":"16463489860",
        "name":"Nike Unite - Harlem",
        "region":"NORTH_AMERICA",
        "company":"Nike",
        "street":"5 W. 125th Street",
        "city":"New York",
        "state":"NY",
        "postalCode":"10027-4861",
        "country":"USA",
        "open_date":"2022-10-27",
        "latitude":40.806996,
        "longitude":-73.942689,
        "state_name":"New York"
    },
    {
        "storeNumber":"253",
        "facilityType":"NIKE_OWNED_STORE",
        "phone":"13474149837",
        "name":"Nike Unite - East New York",
        "region":"NORTH_AMERICA",
        "company":"Nike",
        "street":"410 Gateway Drive",
        "city":"Brooklyn",
        "state":"NY",
        "postalCode":"11239-2824",
        "country":"USA",
        "open_date":"2020-11-12",
        "latitude":40.653077,
        "longitude":-73.872551,
        "state_name":"New York"
    },
    {
        "storeNumber":"451",
        "facilityType":"NIKE_OWNED_STORE",
        "phone":"17183605641",
        "name":"Nike Unite - North Bronx",
        "region":"NORTH_AMERICA",
        "company":"Nike",
        "street":"340 Baychester Ave.",
        "city":"Bronx",
        "state":"NY",
        "postalCode":"10475-4588",
        "country":"USA",
        "open_date":"2022-09-22",
        "latitude":40.8677392,
        "longitude":-73.8285814,
        "state_name":"New York"
    },
    {
        "storeNumber":"218",
        "facilityType":"NIKE_OWNED_STORE",
        "phone":"17183531694",
        "name":"Nike Clearance Store - Flushing Queens",
        "region":"NORTH_AMERICA",
        "company":"Nike",
        "street":"Sky View Center",
        "city":"Flushing",
        "state":"NY",
        "postalCode":"11354-5111",
        "country":"USA",
        "open_date":"2015-04-02",
        "latitude":40.757456,
        "longitude":-73.834699,
        "state_name":"New York"
    },
    {
        "storeNumber":"455",
        "facilityType":"NIKE_OWNED_STORE",
        "phone":"19149020050",
        "name":"Nike Well Collective - Scarsdale",
        "region":"NORTH_AMERICA",
        "company":"Nike",
        "street":"696 White Plains Post Road",
        "city":"Eastchester",
        "state":"NY",
        "postalCode":"10583-0000",
        "country":"USA",
        "open_date":"2022-11-10",
        "latitude":40.9709398,
        "longitude":-73.8046899,
        "state_name":"New York"
    },
    {
        "storeNumber":"443",
        "facilityType":"NIKE_OWNED_STORE",
        "phone":"15163871105",
        "name":"Nike Well Collective - Manhasset",
        "region":"NORTH_AMERICA",
        "company":"Nike",
        "street":"1950 Northern Blvd., Space A-2",
        "city":"Manhasset",
        "state":"NY",
        "postalCode":"11030-3549",
        "country":"USA",
        "open_date":"2022-07-21",
        "latitude":40.7953544,
        "longitude":-73.674867,
        "state_name":"New York"
    },
    {
        "storeNumber":"358",
        "facilityType":"NIKE_OWNED_STORE",
        "phone":"15167661229",
        "name":"Nike Factory Store - Oceanside",
        "region":"NORTH_AMERICA",
        "company":"Nike",
        "street":"The Sands Shopping Center - Oceanside",
        "city":"Oceanside",
        "state":"NY",
        "postalCode":"11572-5702",
        "country":"USA",
        "open_date":"2009-05-05",
        "latitude":40.622976,
        "longitude":-73.638142,
        "state_name":"New York"
    },
    {
        "storeNumber":"167",
        "facilityType":"NIKE_OWNED_STORE",
        "phone":"16312423014",
        "name":"Nike Factory Store - Deer Park",
        "region":"NORTH_AMERICA",
        "company":"Nike",
        "street":"Tanger Outlet Center - Deer Park",
        "city":"Deer Park",
        "state":"NY",
        "postalCode":"11729-7057",
        "country":"USA",
        "open_date":"2008-10-23",
        "latitude":40.762815,
        "longitude":-73.305831,
        "state_name":"New York"
    },
    {
        "storeNumber":"3",
        "facilityType":"NIKE_OWNED_STORE",
        "phone":"16313690706",
        "name":"Nike Factory Store - Riverhead",
        "region":"NORTH_AMERICA",
        "company":"Nike",
        "street":"Tanger Outlet Center - Riverhead",
        "city":"Riverhead",
        "state":"NY",
        "postalCode":"11901-6402",
        "country":"USA",
        "open_date":"1998-02-07",
        "latitude":40.919515,
        "longitude":-72.711662,
        "state_name":"New York"
    },
    {
        "storeNumber":"474",
        "facilityType":"NIKE_OWNED_STORE",
        "phone":"18603278030",
        "name":"Nike Well Collective - South Windsor",
        "region":"NORTH_AMERICA",
        "company":"Nike",
        "street":"501 Evergreen Way, STE 501",
        "city":"South Windsor",
        "state":"CT",
        "postalCode":"06074-6964",
        "country":"USA",
        "open_date":"2023-05-11",
        "latitude":41.8131564,
        "longitude":-72.5563182,
        "state_name":"Connecticut"
    },
    {
        "storeNumber":"68",
        "facilityType":"NIKE_OWNED_STORE",
        "phone":"18606694410",
        "name":"Nike Factory Store - Clinton",
        "region":"NORTH_AMERICA",
        "company":"Nike",
        "street":"Clinton Crossing Premium Outlets",
        "city":"Clinton",
        "state":"CT",
        "postalCode":"06413-1377",
        "country":"USA",
        "open_date":"1996-10-24",
        "latitude":41.289172,
        "longitude":-72.532193,
        "state_name":"Connecticut"
    },
    {
        "storeNumber":"228",
        "facilityType":"NIKE_OWNED_STORE",
        "phone":"18603832890",
        "name":"Nike Factory Store - Foxwoods",
        "region":"NORTH_AMERICA",
        "company":"Nike",
        "street":"Tanger Outlet Center - Foxwoods",
        "city":"Mashantucket",
        "state":"CT",
        "postalCode":"06338-0000",
        "country":"USA",
        "open_date":"2015-05-21",
        "latitude":41.475727,
        "longitude":-71.959891,
        "state_name":"Connecticut"
    },
    {
        "storeNumber":"355",
        "facilityType":"NIKE_OWNED_STORE",
        "phone":"16034246755",
        "name":"Nike Factory Store - Merrimack",
        "region":"NORTH_AMERICA",
        "company":"Nike",
        "street":"Merrimack Premium Outlets",
        "city":"Merrimack",
        "state":"NH",
        "postalCode":"03054-4779",
        "country":"USA",
        "open_date":"2012-06-14",
        "latitude":42.826069,
        "longitude":-71.500759,
        "state_name":"New Hampshire"
    },
    {
        "storeNumber":"320",
        "facilityType":"NIKE_OWNED_STORE",
        "phone":"14013699548",
        "name":"Nike Well Collective - Cranston",
        "region":"NORTH_AMERICA",
        "company":"Nike",
        "street":"74 Hillside Rd",
        "city":"Cranston",
        "state":"RI",
        "postalCode":"02920-5619",
        "country":"USA",
        "open_date":"2022-08-11",
        "latitude":41.76256,
        "longitude":-71.458002,
        "state_name":"Rhode Island"
    },
    {
        "storeNumber":"597",
        "facilityType":"NIKE_OWNED_STORE",
        "phone":"15083184478",
        "name":"Nike Well Collective - Natick",
        "region":"NORTH_AMERICA",
        "company":"Nike",
        "street":"1245 Worcester St, Suite #3072",
        "city":"Natick",
        "state":"MA",
        "postalCode":"01760-1546",
        "country":"USA",
        "open_date":"2023-06-28",
        "latitude":42.302744,
        "longitude":-71.3853668,
        "state_name":"Massachusetts"
    },
    {
        "storeNumber":"106",
        "facilityType":"NIKE_OWNED_STORE",
        "phone":"15083841800",
        "name":"Nike Factory Store - Wrentham",
        "region":"NORTH_AMERICA",
        "company":"Nike",
        "street":"Wrentham Premium Outlets",
        "city":"Wrentham",
        "state":"MA",
        "postalCode":"02093-2102",
        "country":"USA",
        "open_date":"2000-11-02",
        "latitude":42.036817,
        "longitude":-71.351067,
        "state_name":"Massachusetts"
    },
    {
        "storeNumber":"449",
        "facilityType":"NIKE_OWNED_STORE",
        "phone":"1-800-344-6453",
        "name":"Nike Unite - Salem",
        "region":"NORTH_AMERICA",
        "company":"Nike",
        "street":"6 South Village Drive Ste. 200",
        "city":"Salem",
        "state":"NH",
        "postalCode":"03079",
        "country":"USA",
        "open_date":"2021-12-16",
        "latitude":42.7685815975,
        "longitude":-71.223501201,
        "state_name":"New Hampshire"
    },
    {
        "storeNumber":"561",
        "facilityType":"NIKE_OWNED_STORE",
        "phone":"17813556388",
        "name":"Nike Well Collective - Dedham",
        "region":"NORTH_AMERICA",
        "company":"Nike",
        "street":"222 Legacy Place",
        "city":"Dedham",
        "state":"MA",
        "postalCode":"02026-6836",
        "country":"USA",
        "open_date":"2023-07-25",
        "latitude":42.2328164,
        "longitude":-71.1780853,
        "state_name":"Massachusetts"
    },
    {
        "storeNumber":"433",
        "facilityType":"NIKE_OWNED_STORE",
        "phone":"18572214090",
        "name":"Nike Well Collective - Chestnut Hill",
        "region":"NORTH_AMERICA",
        "company":"Nike",
        "street":"33 Boylston St, Suite 4830",
        "city":"Chestnut Hill",
        "state":"MA",
        "postalCode":"02467-1731",
        "country":"USA",
        "open_date":"2021-08-05",
        "latitude":42.3227789,
        "longitude":-71.1687287,
        "state_name":"Massachusetts"
    },
    {
        "storeNumber":"283",
        "facilityType":"NIKE_OWNED_STORE",
        "phone":"16172029935",
        "name":"Nike Unite - Watertown",
        "region":"NORTH_AMERICA",
        "company":"Nike",
        "street":"20 Eldridge Ave",
        "city":"Watertown",
        "state":"MA",
        "postalCode":"02472-2994",
        "country":"USA",
        "open_date":"2021-08-05",
        "latitude":42.3625994,
        "longitude":-71.1574078,
        "state_name":"Massachusetts"
    },
    {
        "storeNumber":"194",
        "facilityType":"NIKE_OWNED_STORE",
        "phone":"16176294192",
        "name":"Nike Factory Store - Somerville",
        "region":"NORTH_AMERICA",
        "company":"Nike",
        "street":"300 Artisan Way",
        "city":"Somerville",
        "state":"MA",
        "postalCode":"02145-1228",
        "country":"USA",
        "open_date":"2014-05-16",
        "latitude":42.395177,
        "longitude":-71.080762,
        "state_name":"Massachusetts"
    },
    {
        "storeNumber":"81",
        "facilityType":"NIKE_OWNED_STORE",
        "phone":"16172673400",
        "name":"Nike Boston",
        "region":"NORTH_AMERICA",
        "company":"Nike",
        "street":"200 Newbury Street",
        "city":"Boston",
        "state":"MA",
        "postalCode":"02116-2504",
        "country":"USA",
        "open_date":"1997-07-19",
        "latitude":42.349991,
        "longitude":-71.080145,
        "state_name":"Massachusetts"
    },
    {
        "storeNumber":"282",
        "facilityType":"NIKE_OWNED_STORE",
        "phone":"16179293978",
        "name":"Nike Factory Store - Dorchester",
        "region":"NORTH_AMERICA",
        "company":"Nike",
        "street":"33 District Avenue",
        "city":"Dorchester",
        "state":"MA",
        "postalCode":"02125-1683",
        "country":"USA",
        "open_date":"2017-11-21",
        "latitude":42.325773,
        "longitude":-71.062154,
        "state_name":"Massachusetts"
    },
    {
        "storeNumber":"240",
        "facilityType":"NIKE_OWNED_STORE",
        "phone":"+1 (781) 334-2341",
        "name":"Nike Well Collective - Lynnfield",
        "region":"NORTH_AMERICA",
        "company":"Nike",
        "street":"1125 Market St.",
        "city":"Lynnfield",
        "state":"MA",
        "postalCode":"01940",
        "country":"USA",
        "open_date":"2022-10-13",
        "latitude":42.517233,
        "longitude":-71.035724,
        "state_name":"Massachusetts"
    },
    {
        "storeNumber":"558",
        "facilityType":"NIKE_OWNED_STORE",
        "phone":"17813472168",
        "name":"Nike Well Collective - Hingham",
        "region":"NORTH_AMERICA",
        "company":"Nike",
        "street":"928 Derby St STE 98",
        "city":"Hingham",
        "state":"MA",
        "postalCode":"02043-4218",
        "country":"USA",
        "open_date":"2023-06-29",
        "latitude":42.1781754,
        "longitude":-70.9106533,
        "state_name":"Massachusetts"
    },
    {
        "storeNumber":"188",
        "facilityType":"NIKE_OWNED_STORE",
        "phone":"12074516094",
        "name":"Nike Factory Store - Kittery",
        "region":"NORTH_AMERICA",
        "company":"Nike",
        "street":"Kittery Premium Outlets",
        "city":"Kittery",
        "state":"ME",
        "postalCode":"03904-6509",
        "country":"USA",
        "open_date":"2008-03-25",
        "latitude":43.115399,
        "longitude":-70.730363,
        "state_name":"Maine"
    },
    {
        "storeNumber":"108",
        "facilityType":"NIKE_OWNED_STORE",
        "phone":"17878464108",
        "name":"Nike Factory Store - Barceloneta",
        "region":"NORTH_AMERICA",
        "company":"Nike",
        "street":"Puerto Rico Premium Outlets",
        "city":"Barceloneta",
        "state":"PR",
        "postalCode":"00617-2560",
        "country":"USA",
        "open_date":"2008-11-13",
        "latitude":18.439623,
        "longitude":-66.541845,
        "state_name":null
    },
    {
        "storeNumber":"241",
        "facilityType":"NIKE_OWNED_STORE",
        "phone":"17877201400",
        "name":"Nike Factory Store - San Juan",
        "region":"NORTH_AMERICA",
        "company":"Nike",
        "street":"The Outlets at Montehiedra",
        "city":"San Juan",
        "state":"PR",
        "postalCode":"00926-7007",
        "country":"USA",
        "open_date":"2013-11-14",
        "latitude":18.3393273,
        "longitude":-66.0678824,
        "state_name":null
    }
]