{
"type": "FeatureCollection",
"features": [
{ "type": "Feature", "properties": { "id": "98", "name": "Peachtree Corners", "street": "5161 Peachtree PKWY, #605", "city": "Norcross", "state": "GA", "zipCode": "30092", "latitude": "33.98000647063222", "longitude": "-84.21784185109394", "phone": null, "state_name": "Georgia", "brand": "XYXYXYXY" }, "geometry": { "type": "Point", "coordinates": [ -84.217841851093937, 33.980006470632219 ] } },
{ "type": "Feature", "properties": { "id": "99", "name": "PERimeter", "street": "120 High Street, Suite 210", "city": "Dunwoody", "state": "GA", "zipCode": "30346", "latitude": "33.924941", "longitude": "-84.346361", "phone": null, "state_name": "Georgia", "brand": "XYXYXYXY" }, "geometry": { "type": "Point", "coordinates": [ -84.346361, 33.924941 ] } },
{ "type": "Feature", "properties": { "id": "TX", "name": "Mueller", "street": "1825 McBee Street", "city": "Austin", "state": "TX", "zipCode": "78723", "latitude": "30.297298", "longitude": "-97.702375", "phone": null, "state_name": "Texas", "brand": "XYXYXYXY" }, "geometry": { "type": "Point", "coordinates": [ -97.702375, 30.297298 ] } },
{ "type": "Feature", "properties": { "id": "127951", "name": "Waugh Chapel", "street": "1403 S. Main Chapel Way Ste 111", "city": "Gambrills", "state": "MD", "zipCode": "21054", "latitude": "39.0322832", "longitude": "-76.6856883", "phone": "14433026225", "state_name": "Maryland", "brand": "XYXYXYXY" }, "geometry": { "type": "Point", "coordinates": [ -76.6856883, 39.0322832 ] } },
{ "type": "Feature", "properties": { "id": "127952", "name": "Baltimore St", "street": "421 W. Baltimore St", "city": "Baltimore", "state": "MD", "zipCode": "21201", "latitude": "39.2890885", "longitude": "-76.621934", "phone": "14436813675", "state_name": "Maryland", "brand": "XYXYXYXY" }, "geometry": { "type": "Point", "coordinates": [ -76.621934, 39.2890885 ] } },
{ "type": "Feature", "properties": { "id": "127953", "name": "Woodbridge", "street": "15001 Potomac Town Place #150", "city": "Woodbridge", "state": "VA", "zipCode": "22191", "latitude": "38.6287586", "longitude": "-77.2874083", "phone": "15716596340", "state_name": "Virginia", "brand": "XYXYXYXY" }, "geometry": { "type": "Point", "coordinates": [ -77.2874083, 38.6287586 ] } },
{ "type": "Feature", "properties": { "id": "127954", "name": "The Yards", "street": "300 Tingey St SE #150", "city": "Washington", "state": "DC", "zipCode": "20003", "latitude": "38.8750946", "longitude": "-77.0011755", "phone": "12025541920", "state_name": null, "brand": "XYXYXYXY" }, "geometry": { "type": "Point", "coordinates": [ -77.0011755, 38.8750946 ] } },
{ "type": "Feature", "properties": { "id": "127955", "name": "Arundel Mills", "street": "7000 Arundel Mills Circle #229", "city": "Hanover", "state": "MD", "zipCode": "21076", "latitude": "39.1571321", "longitude": "-76.7252813", "phone": "14432966415", "state_name": "Maryland", "brand": "XYXYXYXY" }, "geometry": { "type": "Point", "coordinates": [ -76.7252813, 39.1571321 ] } },
{ "type": "Feature", "properties": { "id": "127956", "name": "Gainesville", "street": "14030 Promenade Commons Ste D1", "city": "Gainesville", "state": "VA", "zipCode": "20155", "latitude": "38.7879672", "longitude": "-77.6069137", "phone": "17037534100", "state_name": "Virginia", "brand": "XYXYXYXY" }, "geometry": { "type": "Point", "coordinates": [ -77.6069137, 38.7879672 ] } },
{ "type": "Feature", "properties": { "id": "127957", "name": "Tenleytown", "street": "4231 Wisconsin Ave NW", "city": "Washington", "state": "DC", "zipCode": "20016", "latitude": "38.9441734", "longitude": "-77.0772522", "phone": "12028211312", "state_name": null, "brand": "XYXYXYXY" }, "geometry": { "type": "Point", "coordinates": [ -77.0772522, 38.9441734 ] } },
{ "type": "Feature", "properties": { "id": "127958", "name": "Ashburn", "street": "20556 Easthampton Plaza", "city": "Ashburn", "state": "VA", "zipCode": "20147", "latitude": "39.0525571", "longitude": "-77.4542968", "phone": "17038584200", "state_name": "Virginia", "brand": "XYXYXYXY" }, "geometry": { "type": "Point", "coordinates": [ -77.4542968, 39.0525571 ] } },
{ "type": "Feature", "properties": { "id": "127959", "name": "Towson", "street": "109 E. Joppa Rd", "city": "Towson", "state": "MD", "zipCode": "21286", "latitude": "39.4011841", "longitude": "-76.6008202", "phone": "14108321380", "state_name": "Maryland", "brand": "XYXYXYXY" }, "geometry": { "type": "Point", "coordinates": [ -76.6008202, 39.4011841 ] } },
{ "type": "Feature", "properties": { "id": "127960", "name": "Laurel", "street": "14722 Baltimore Ave Ste 107", "city": "Laurel", "state": "MD", "zipCode": "20707", "latitude": "39.0942206", "longitude": "-76.8567361", "phone": "13014970720", "state_name": "Maryland", "brand": "XYXYXYXY" }, "geometry": { "type": "Point", "coordinates": [ -76.8567361, 39.0942206 ] } },
{ "type": "Feature", "properties": { "id": "127943", "name": "18th Street", "street": "1210 18th St NW", "city": "Washington", "state": "DC", "zipCode": "20036", "latitude": "38.90615", "longitude": "-77.0419304", "phone": "12026218600", "state_name": null, "brand": "XYXYXYXY" }, "geometry": { "type": "Point", "coordinates": [ -77.0419304, 38.90615 ] } },
{ "type": "Feature", "properties": { "id": "127961", "name": "Springfield", "street": "6802 Springfield Mall Ste 6802", "city": "Springfield", "state": "VA", "zipCode": "22150", "latitude": "38.7746771", "longitude": "-77.1744734", "phone": "15712556806", "state_name": "Virginia", "brand": "XYXYXYXY" }, "geometry": { "type": "Point", "coordinates": [ -77.1744734, 38.7746771 ] } },
{ "type": "Feature", "properties": { "id": "127962", "name": "Harbor East", "street": "1100 Fleet St", "city": "Baltimore", "state": "MD", "zipCode": "21202", "latitude": "39.284516", "longitude": "-76.5995112", "phone": "14436815181", "state_name": "Maryland", "brand": "XYXYXYXY" }, "geometry": { "type": "Point", "coordinates": [ -76.5995112, 39.284516 ] } },
{ "type": "Feature", "properties": { "id": "127963", "name": "West Loop", "street": "953 W. Randolph St", "city": "Chicago", "state": "IL", "zipCode": "60607", "latitude": "41.8840371", "longitude": "-87.6517382", "phone": "13124883062", "state_name": "Illinois", "brand": "XYXYXYXY" }, "geometry": { "type": "Point", "coordinates": [ -87.6517382, 41.8840371 ] } },
{ "type": "Feature", "properties": { "id": "127964", "name": "Lakeview", "street": "670 West Diversey Parkway", "city": "Chicago", "state": "IL", "zipCode": "60614", "latitude": "41.9330169", "longitude": "-87.6464152", "phone": "17736347153", "state_name": "Illinois", "brand": "XYXYXYXY" }, "geometry": { "type": "Point", "coordinates": [ -87.6464152, 41.9330169 ] } },
{ "type": "Feature", "properties": { "id": "127965", "name": "Clybourn", "street": "1500 N. Clybourn Ave Ste C106", "city": "Chicago", "state": "IL", "zipCode": "60610", "latitude": "41.9083122", "longitude": "-87.6462027", "phone": "13125469723", "state_name": "Illinois", "brand": "XYXYXYXY" }, "geometry": { "type": "Point", "coordinates": [ -87.6462027, 41.9083122 ] } },
{ "type": "Feature", "properties": { "id": "127966", "name": "College Park", "street": "7400 Baltimore Ave", "city": "College Park", "state": "MD", "zipCode": "20740", "latitude": "38.980974", "longitude": "-76.9381355", "phone": "12405828420", "state_name": "Maryland", "brand": "XYXYXYXY" }, "geometry": { "type": "Point", "coordinates": [ -76.9381355, 38.980974 ] } },
{ "type": "Feature", "properties": { "id": "127967", "name": "Wabash", "street": "22 S. Wabash Ave Ste B1", "city": "Chicago", "state": "IL", "zipCode": "60603", "latitude": "41.8813694", "longitude": "-87.6266966", "phone": "13125897432", "state_name": "Illinois", "brand": "XYXYXYXY" }, "geometry": { "type": "Point", "coordinates": [ -87.6266966, 41.8813694 ] } },
{ "type": "Feature", "properties": { "id": "127968", "name": "Wheaton", "street": "11160 Veirs Mill Rd p205", "city": "Wheaton", "state": "MD", "zipCode": "20902", "latitude": "39.0359362", "longitude": "-77.0547819", "phone": "12402927530", "state_name": "Maryland", "brand": "XYXYXYXY" }, "geometry": { "type": "Point", "coordinates": [ -77.0547819, 39.0359362 ] } },
{ "type": "Feature", "properties": { "id": "127969", "name": "H St", "street": "411 H St NE", "city": "Washington", "state": "DC", "zipCode": "20002", "latitude": "38.8999297", "longitude": "-77.0000874", "phone": "12028214155", "state_name": null, "brand": "XYXYXYXY" }, "geometry": { "type": "Point", "coordinates": [ -77.0000874, 38.8999297 ] } },
{ "type": "Feature", "properties": { "id": "127970", "name": "Naperville", "street": "6 W. Jefferson Ave", "city": "Naperville", "state": "IL", "zipCode": "60540", "latitude": "41.7726894", "longitude": "-88.1481044", "phone": "16303880193", "state_name": "Illinois", "brand": "XYXYXYXY" }, "geometry": { "type": "Point", "coordinates": [ -88.1481044, 41.7726894 ] } },
{ "type": "Feature", "properties": { "id": "127971", "name": "Oak Park", "street": "1138 Lake St", "city": "Oak Park", "state": "IL", "zipCode": "60301", "latitude": "41.8888548", "longitude": "-87.8042626", "phone": "17084346296", "state_name": "Illinois", "brand": "XYXYXYXY" }, "geometry": { "type": "Point", "coordinates": [ -87.8042626, 41.8888548 ] } },
{ "type": "Feature", "properties": { "id": "127972", "name": "Mosaic", "street": "2987 District Ave Ste 100", "city": "Fairfax", "state": "VA", "zipCode": "22031", "latitude": "38.8689264", "longitude": "-77.2316249", "phone": "15716207731", "state_name": "Virginia", "brand": "XYXYXYXY" }, "geometry": { "type": "Point", "coordinates": [ -77.2316249, 38.8689264 ] } },
{ "type": "Feature", "properties": { "id": "127973", "name": "South Loop", "street": "1005 S. Delano Court East Ste F126C", "city": "Chicago", "state": "IL", "zipCode": "60605", "latitude": "41.8697312", "longitude": "-87.6324913", "phone": "13122047151", "state_name": "Illinois", "brand": "XYXYXYXY" }, "geometry": { "type": "Point", "coordinates": [ -87.6324913, 41.8697312 ] } },
{ "type": "Feature", "properties": { "id": "127974", "name": "Streeterville", "street": "227 E. Ontario St", "city": "Chicago", "state": "IL", "zipCode": "60611", "latitude": "41.8931646", "longitude": "-87.6216438", "phone": "13124886551", "state_name": "Illinois", "brand": "XYXYXYXY" }, "geometry": { "type": "Point", "coordinates": [ -87.6216438, 41.8931646 ] } },
{ "type": "Feature", "properties": { "id": "127975", "name": "Woodley Park", "street": "2631 Connecticut Ave NW", "city": "Washington", "state": "DC", "zipCode": "20008", "latitude": "38.9244751", "longitude": "-77.0517555", "phone": "12022041251", "state_name": null, "brand": "XYXYXYXY" }, "geometry": { "type": "Point", "coordinates": [ -77.0517555, 38.9244751 ] } },
{ "type": "Feature", "properties": { "id": "127976", "name": "Ballston", "street": "4401 Wilson Blvd", "city": "Arlington", "state": "VA", "zipCode": "22203", "latitude": "38.8805325", "longitude": "-77.1135489", "phone": "17038885459", "state_name": "Virginia", "brand": "XYXYXYXY" }, "geometry": { "type": "Point", "coordinates": [ -77.1135489, 38.8805325 ] } },
{ "type": "Feature", "properties": { "id": "127977", "name": "Oakbrook", "street": "523 Oakbrook Center", "city": "Oak Brook", "state": "IL", "zipCode": "60523", "latitude": "41.8520024", "longitude": "-87.9525821", "phone": "16302304348", "state_name": "Illinois", "brand": "XYXYXYXY" }, "geometry": { "type": "Point", "coordinates": [ -87.9525821, 41.8520024 ] } },
{ "type": "Feature", "properties": { "id": "127978", "name": "Old Orchard", "street": "4999 Old Orchard Ctr", "city": "Skokie", "state": "IL", "zipCode": "60077", "latitude": "42.0615141", "longitude": "-87.7490376", "phone": "18479726833", "state_name": "Illinois", "brand": "XYXYXYXY" }, "geometry": { "type": "Point", "coordinates": [ -87.7490376, 42.0615141 ] } },
{ "type": "Feature", "properties": { "id": "127979", "name": "Hyde Park", "street": "1447 E 53rd St", "city": "Chicago", "state": "IL", "zipCode": "60615", "latitude": "41.799232", "longitude": "-87.5899417", "phone": "17736755261", "state_name": "Illinois", "brand": "XYXYXYXY" }, "geometry": { "type": "Point", "coordinates": [ -87.5899417, 41.799232 ] } },
{ "type": "Feature", "properties": { "id": "127980", "name": "Michigan Ave", "street": "117 E Lake St", "city": "Chicago", "state": "IL", "zipCode": "60601", "latitude": "41.8855582", "longitude": "-87.6240636", "phone": "13126625934", "state_name": "Illinois", "brand": "XYXYXYXY" }, "geometry": { "type": "Point", "coordinates": [ -87.6240636, 41.8855582 ] } },
{ "type": "Feature", "properties": { "id": "127945", "name": "Silver Spring", "street": "924 Ellsworth Dr", "city": "Silver Spring", "state": "MD", "zipCode": "20910", "latitude": "38.9955443", "longitude": "-77.0264455", "phone": "13015887280", "state_name": "Maryland", "brand": "XYXYXYXY" }, "geometry": { "type": "Point", "coordinates": [ -77.0264455, 38.9955443 ] } },
{ "type": "Feature", "properties": { "id": "127981", "name": "Reston", "street": "12120 Sunset Hills Rd", "city": "Reston", "state": "VA", "zipCode": "20190", "latitude": "38.9549775", "longitude": "-77.3650574", "phone": "15716655806", "state_name": "Virginia", "brand": "XYXYXYXY" }, "geometry": { "type": "Point", "coordinates": [ -77.3650574, 38.9549775 ] } },
{ "type": "Feature", "properties": { "id": "127982", "name": "Rosslyn", "street": "1800 North Lynn Street", "city": "Rosslyn", "state": "VA", "zipCode": "22209", "latitude": "38.8967418", "longitude": "-77.0708404", "phone": "15712007909", "state_name": "Virginia", "brand": "XYXYXYXY" }, "geometry": { "type": "Point", "coordinates": [ -77.0708404, 38.8967418 ] } },
{ "type": "Feature", "properties": { "id": "127983", "name": "Pike & Rose", "street": "922 Rose Ave", "city": "North Bethesda", "state": "MD", "zipCode": "20814", "latitude": "39.0508951", "longitude": "-77.1165371", "phone": "12406605050", "state_name": "Maryland", "brand": "XYXYXYXY" }, "geometry": { "type": "Point", "coordinates": [ -77.1165371, 39.0508951 ] } },
{ "type": "Feature", "properties": { "id": "127984", "name": "Woodmore", "street": "2700 Campus Way N Suite 105", "city": "Lanham", "state": "MD", "zipCode": "20706", "latitude": "38.92257", "longitude": "-76.84642", "phone": "13013863946", "state_name": "Maryland", "brand": "XYXYXYXY" }, "geometry": { "type": "Point", "coordinates": [ -76.84642, 38.92257 ] } },
{ "type": "Feature", "properties": { "id": "203119", "name": "Alexandria", "street": "2462 Mandeville Ln", "city": "Alexandria", "state": "VA", "zipCode": "22332", "latitude": "38.802628", "longitude": "-77.0721", "phone": "15714735500", "state_name": "Virginia", "brand": "XYXYXYXY" }, "geometry": { "type": "Point", "coordinates": [ -77.0721, 38.802628 ] } },
{ "type": "Feature", "properties": { "id": "203279", "name": "Virginia Beach", "street": "221 Central Park Ave", "city": "Virginia Beach", "state": "VA", "zipCode": "23462", "latitude": "36.8424866", "longitude": "-76.1344868", "phone": "17572714320", "state_name": "Virginia", "brand": "XYXYXYXY" }, "geometry": { "type": "Point", "coordinates": [ -76.1344868, 36.8424866 ] } },
{ "type": "Feature", "properties": { "id": "219542", "name": "Post Oak", "street": "1717-C Post Oak Boulevard", "city": "Houston", "state": "TX", "zipCode": "77056", "latitude": "29.749248", "longitude": "-95.4597734", "phone": "18326699930", "state_name": "Texas", "brand": "XYXYXYXY" }, "geometry": { "type": "Point", "coordinates": [ -95.4597734, 29.749248 ] } },
{ "type": "Feature", "properties": { "id": "224661", "name": "Cinco Ranch", "street": "23501 Cinco Ranch Blvd", "city": "Katy", "state": "TX", "zipCode": "77494", "latitude": "29.7430409", "longitude": "-95.7751877", "phone": "18327648570", "state_name": "Texas", "brand": "XYXYXYXY" }, "geometry": { "type": "Point", "coordinates": [ -95.7751877, 29.7430409 ] } },
{ "type": "Feature", "properties": { "id": "224700", "name": "Addison", "street": "5100 Belt Line Road", "city": "Addison", "state": "TX", "zipCode": "75254", "latitude": "32.9515904", "longitude": "-96.820602", "phone": "14698920040", "state_name": "Texas", "brand": "XYXYXYXY" }, "geometry": { "type": "Point", "coordinates": [ -96.820602, 32.9515904 ] } },
{ "type": "Feature", "properties": { "id": "216907", "name": "Penn Quarter", "street": "836 F Street NW", "city": "Washington", "state": "DC", "zipCode": "20004", "latitude": "38.8972055", "longitude": "-77.0235551", "phone": "17712105300", "state_name": null, "brand": "XYXYXYXY" }, "geometry": { "type": "Point", "coordinates": [ -77.0235551, 38.8972055 ] } },
{ "type": "Feature", "properties": { "id": "127946", "name": "Gaithersburg", "street": "224 Boardwalk Pl", "city": "Gaithersburg", "state": "MD", "zipCode": "20878", "latitude": "39.1165871", "longitude": "-77.1977951", "phone": "12404087146", "state_name": "Maryland", "brand": "XYXYXYXY" }, "geometry": { "type": "Point", "coordinates": [ -77.1977951, 39.1165871 ] } },
{ "type": "Feature", "properties": { "id": "127948", "name": "National Harbor", "street": "191 American Way", "city": "Oxon Hill", "state": "MD", "zipCode": "20745", "latitude": "38.7839365", "longitude": "-77.015291", "phone": "13016868388", "state_name": "Maryland", "brand": "XYXYXYXY" }, "geometry": { "type": "Point", "coordinates": [ -77.015291, 38.7839365 ] } },
{ "type": "Feature", "properties": { "id": "127949", "name": "Pentagon Row", "street": "1301 S. Joyce St Ste D10", "city": "Arlington", "state": "VA", "zipCode": "22202", "latitude": "38.8630991", "longitude": "-77.0631247", "phone": "15718589953", "state_name": "Virginia", "brand": "XYXYXYXY" }, "geometry": { "type": "Point", "coordinates": [ -77.0631247, 38.8630991 ] } }
]
}
