{
"type": "FeatureCollection",
"features": [
{ "type": "Feature", "properties": { "name": "PT #10091", "street": "3224 East Colonial Dr", "city": "Orlando", "state": "FL", "zip": "32803", "latitude": 28.5529905, "longitude": -81.3425627, "phone": "(407) 228-2242", "slug": "pollo-tropical-e-colonial-drorlando-fl", "state_name": "Florida", "brand": "Pollo Tropical", "updated": "2024-03-09" }, "geometry": { "type": "Point", "coordinates": [ -81.3425627, 28.5529905 ] } },
{ "type": "Feature", "properties": { "name": "PT #10092", "street": "2611 Okeechobee Blvd.", "city": "W. Palm Beach", "state": "FL", "zip": "33409", "latitude": 26.7070135, "longitude": -80.0928196, "phone": "(561) 688-0578", "slug": "pollo-tropical-okeechobee-blvdw-palm-bch-fl", "state_name": "Florida", "brand": "Pollo Tropical", "updated": "2024-03-09" }, "geometry": { "type": "Point", "coordinates": [ -80.0928196, 26.7070135 ] } },
{ "type": "Feature", "properties": { "name": "PT #10098", "street": "3777 East Tamiami Trail", "city": "Naples", "state": "FL", "zip": "34112", "latitude": 26.1209857, "longitude": -81.7595816, "phone": "(239) 417-2708", "slug": "pollo-tropical-east-tamiami-trailnaples-fl", "state_name": "Florida", "brand": "Pollo Tropical", "updated": "2024-03-09" }, "geometry": { "type": "Point", "coordinates": [ -81.7595816, 26.1209857 ] } },
{ "type": "Feature", "properties": { "name": "PT #10099", "street": "8096 West McNab Rd", "city": "N Lauderdale", "state": "FL", "zip": "33068", "latitude": 26.2079325, "longitude": -80.2359216, "phone": "(954) 721-2497", "slug": "pollo-tropical-west-mcnab-rdn-lauderdale-fl", "state_name": "Florida", "brand": "Pollo Tropical", "updated": "2024-03-09" }, "geometry": { "type": "Point", "coordinates": [ -80.2359216, 26.2079325 ] } },
{ "type": "Feature", "properties": { "name": "PT #10104", "street": "4863 Gate Parkway", "city": "Jacksonville", "state": "FL", "zip": "32246", "latitude": 30.2536881, "longitude": -81.5355368, "phone": "(904) 646-9707", "slug": "pollo-tropical-gate-parkwayjacksonville-fl", "state_name": "Florida", "brand": "Pollo Tropical", "updated": "2024-03-09" }, "geometry": { "type": "Point", "coordinates": [ -81.5355368, 30.2536881 ] } },
{ "type": "Feature", "properties": { "name": "PT #10106", "street": "10989 San Jose Blvd", "city": "Jacksonville", "state": "FL", "zip": "32223", "latitude": 30.1766931, "longitude": -81.6273181, "phone": "(904) 288-5990", "slug": "pollo-tropical-san-jose-blvdjacksonville-fl", "state_name": "Florida", "brand": "Pollo Tropical", "updated": "2024-03-09" }, "geometry": { "type": "Point", "coordinates": [ -81.6273181, 30.1766931 ] } },
{ "type": "Feature", "properties": { "name": "PT #10108", "street": "730 Skymarks Dr", "city": "Jacksonville", "state": "FL", "zip": "32218", "latitude": 30.4805537, "longitude": -81.6359803, "phone": "(904) 757-2148", "slug": "pollo-tropical-skymarks-drjacksonville-fl", "state_name": "Florida", "brand": "Pollo Tropical", "updated": "2024-03-09" }, "geometry": { "type": "Point", "coordinates": [ -81.6359803, 30.4805537 ] } },
{ "type": "Feature", "properties": { "name": "PT #10109", "street": "12000 NW 7th Ave.", "city": "N Miami", "state": "FL", "zip": "33168", "latitude": 25.8849333, "longitude": -80.2109985, "phone": "(305) 685-2179", "slug": "pollo-tropical-nw-7th-aven-miami-fl", "state_name": "Florida", "brand": "Pollo Tropical", "updated": "2024-03-09" }, "geometry": { "type": "Point", "coordinates": [ -80.2109985, 25.8849333 ] } },
{ "type": "Feature", "properties": { "name": "PT #10110", "street": "6704 Fores Hill Blvd", "city": "Greenacres", "state": "FL", "zip": "33413", "latitude": 26.6507663, "longitude": -80.1458894, "phone": "(561) 434-9665", "slug": "pollo-tropical-forest-hill-blvdgreenacres-fl", "state_name": "Florida", "brand": "Pollo Tropical", "updated": "2024-03-09" }, "geometry": { "type": "Point", "coordinates": [ -80.1458894, 26.6507663 ] } },
{ "type": "Feature", "properties": { "name": "PT #10112", "street": "4335 Norfolk Parkway", "city": "West Melbourne", "state": "FL", "zip": "32904", "latitude": 28.0361279, "longitude": -80.6612599, "phone": "(321) 952-6977", "slug": "pollo-tropical-norfolk-pkwywest-melbourne-fl", "state_name": "Florida", "brand": "Pollo Tropical", "updated": "2024-03-09" }, "geometry": { "type": "Point", "coordinates": [ -80.6612599, 28.0361279 ] } },
{ "type": "Feature", "properties": { "name": "PT #10113", "street": "17804 Ben Hill Griffin Parkway", "city": "Ft Myers", "state": "FL", "zip": "33913", "latitude": 26.4844367, "longitude": -81.7849819, "phone": "(239) 433-4028", "slug": "pollo-tropical-ben-hill-griffinft-myers-fl", "state_name": "Florida", "brand": "Pollo Tropical", "updated": "2024-03-09" }, "geometry": { "type": "Point", "coordinates": [ -81.7849819, 26.4844367 ] } },
{ "type": "Feature", "properties": { "name": "PT #10117", "street": "2320 N Federal Highway", "city": "Pompano Beach", "state": "FL", "zip": "33064", "latitude": 26.2596253, "longitude": -80.0991262, "phone": "(954) 946-9592", "slug": "pollo-tropical-n-federal-hwypompano-beach-fl", "state_name": "Florida", "brand": "Pollo Tropical", "updated": "2024-03-09" }, "geometry": { "type": "Point", "coordinates": [ -80.0991262, 26.2596253 ] } },
{ "type": "Feature", "properties": { "name": "PT #10119", "street": "2200 SE Federal Highway", "city": "Stuart", "state": "FL", "zip": "34994", "latitude": 27.1783313, "longitude": -80.2379038, "phone": "(772) 287-2891", "slug": "pollo-tropical-se-federal-highwaystuart-fl", "state_name": "Florida", "brand": "Pollo Tropical", "updated": "2024-03-09" }, "geometry": { "type": "Point", "coordinates": [ -80.2379038, 27.1783313 ] } },
{ "type": "Feature", "properties": { "name": "PT #10120", "street": "828 Providence Rd", "city": "Brandon", "state": "FL", "zip": "33511", "latitude": 27.9251247, "longitude": -82.3171878, "phone": "(813) 681-2679", "slug": "pollo-tropical-providence-rdbrandon-fl", "state_name": "Florida", "brand": "Pollo Tropical", "updated": "2024-03-09" }, "geometry": { "type": "Point", "coordinates": [ -82.3171878, 27.9251247 ] } },
{ "type": "Feature", "properties": { "name": "PT #10122", "street": "15298 N Dale Mabry Highway", "city": "Tampa", "state": "FL", "zip": "33618", "latitude": 28.0891289, "longitude": -82.5039745, "phone": "(813) 961-0379", "slug": "pollo-tropical-n-dale-mabry-highwaytampa-fl", "state_name": "Florida", "brand": "Pollo Tropical", "updated": "2024-03-09" }, "geometry": { "type": "Point", "coordinates": [ -82.5039745, 28.0891289 ] } },
{ "type": "Feature", "properties": { "name": "PT #10124", "street": "5425 W Atlantic Blvd", "city": "Margate", "state": "FL", "zip": "33063", "latitude": 26.2357443, "longitude": -80.2004519, "phone": "(954) 977-3714", "slug": "pollo-tropical-w-atlantic-blvdmargate-fl", "state_name": "Florida", "brand": "Pollo Tropical", "updated": "2024-03-09" }, "geometry": { "type": "Point", "coordinates": [ -80.2004519, 26.2357443 ] } },
{ "type": "Feature", "properties": { "name": "PT #10125", "street": "18390 SW 137th Ave", "city": "Miami", "state": "FL", "zip": "33187", "latitude": 25.5968257, "longitude": -80.4139388, "phone": "(305) 253-8235", "slug": "pollo-tropical-sw-137th-avemiami-fl-2", "state_name": "Florida", "brand": "Pollo Tropical", "updated": "2024-03-09" }, "geometry": { "type": "Point", "coordinates": [ -80.4139388, 25.5968257 ] } },
{ "type": "Feature", "properties": { "name": "PT #10126", "street": "6195 South Jog Road", "city": "Lake Worth", "state": "FL", "zip": "33467", "latitude": 26.586793, "longitude": -80.1467398, "phone": "(561) 966-2782", "slug": "pollo-tropical-south-jog-rdlake-worth-fl", "state_name": "Florida", "brand": "Pollo Tropical", "updated": "2024-03-09" }, "geometry": { "type": "Point", "coordinates": [ -80.1467398, 26.586793 ] } },
{ "type": "Feature", "properties": { "name": "PT #10128", "street": "7845 W. Hialeah Gardens Blvd.", "city": "Hialeah", "state": "FL", "zip": "33018", "latitude": 25.8938525, "longitude": -80.3507044, "phone": "(305) 821-8535", "slug": "pollo-tropical-hialeah-gardenshialeah-fl", "state_name": "Florida", "brand": "Pollo Tropical", "updated": "2024-03-09" }, "geometry": { "type": "Point", "coordinates": [ -80.3507044, 25.8938525 ] } },
{ "type": "Feature", "properties": { "name": "PT #10129", "street": "7090 Coral Way", "city": "Miami", "state": "FL", "zip": "33155", "latitude": 25.7476507, "longitude": -80.3102832, "phone": "(305) 261-6021", "slug": "pollo-tropical-coral-terracemiami-fl", "state_name": "Florida", "brand": "Pollo Tropical", "updated": "2024-03-09" }, "geometry": { "type": "Point", "coordinates": [ -80.3102832, 25.7476507 ] } },
{ "type": "Feature", "properties": { "name": "PT #10130", "street": "12611 S. Cleveland Avenue", "city": "Ft. Myers", "state": "FL", "zip": "33907", "latitude": 26.5592074, "longitude": -81.8711365, "phone": "(239) 275-1118", "slug": "pollo-tropical-s-cleveland-aveft-myers-fl", "state_name": "Florida", "brand": "Pollo Tropical", "updated": "2024-03-09" }, "geometry": { "type": "Point", "coordinates": [ -81.8711365, 26.5592074 ] } },
{ "type": "Feature", "properties": { "name": "PT #10131", "street": "1780 Sheridan St", "city": "Hollywood", "state": "FL", "zip": "33020", "latitude": 26.0330639, "longitude": -80.1425707, "phone": "(954) 927-4732", "slug": "pollo-tropical-1780-sheridan-sthollywood-fl", "state_name": "Florida", "brand": "Pollo Tropical", "updated": "2024-03-09" }, "geometry": { "type": "Point", "coordinates": [ -80.1425707, 26.0330639 ] } },
{ "type": "Feature", "properties": { "name": "PT #10133", "street": "8051 Dani Drive", "city": "Ft. Myers", "state": "FL", "zip": "33966", "latitude": 26.6080078, "longitude": -81.810508, "phone": "(239) 275-1142", "slug": "pollo-tropical-9321-ben-c-prattfort-myers-fl", "state_name": "Florida", "brand": "Pollo Tropical", "updated": "2024-03-09" }, "geometry": { "type": "Point", "coordinates": [ -81.810508, 26.6080078 ] } },
{ "type": "Feature", "properties": { "name": "PT #10138", "street": "14683 S. Military Trail", "city": "Delray Beach", "state": "FL", "zip": "33484", "latitude": 26.4583581, "longitude": -80.1240809, "phone": "(561) 495-5225", "slug": "pollo-tropical-s-militarydelray-beach-fl", "state_name": "Florida", "brand": "Pollo Tropical", "updated": "2024-03-09" }, "geometry": { "type": "Point", "coordinates": [ -80.1240809, 26.4583581 ] } },
{ "type": "Feature", "properties": { "name": "PT #10148", "street": "20403 Biscayne Blvd", "city": "Aventura", "state": "FL", "zip": "33180", "latitude": 25.9647899, "longitude": -80.1459394, "phone": "(305) 935-9520", "slug": "pollo-tropical-20403-biscayneaventura-fl", "state_name": "Florida", "brand": "Pollo Tropical", "updated": "2024-03-09" }, "geometry": { "type": "Point", "coordinates": [ -80.1459394, 25.9647899 ] } },
{ "type": "Feature", "properties": { "name": "PT #10150", "street": "1277 SW 8th Street", "city": "Miami", "state": "FL", "zip": "33135", "latitude": 25.7660579, "longitude": -80.2158703, "phone": "(305) 856-9221", "slug": "pollo-tropical-sw-8th-stlittle-havana-fl", "state_name": "Florida", "brand": "Pollo Tropical", "updated": "2024-03-09" }, "geometry": { "type": "Point", "coordinates": [ -80.2158703, 25.7660579 ] } },
{ "type": "Feature", "properties": { "name": "PT #10151", "street": "311 S. State Road 7", "city": "Hollywood", "state": "FL", "zip": "33023", "latitude": 26.0072574, "longitude": -80.2069238, "phone": "(754) 263-5960", "slug": "pollo-tropical-hollywood-blv441hollywood-fl", "state_name": "Florida", "brand": "Pollo Tropical", "updated": "2024-03-09" }, "geometry": { "type": "Point", "coordinates": [ -80.2069238, 26.0072574 ] } },
{ "type": "Feature", "properties": { "name": "PT #10154", "street": "7901 W. Irlo Bronson Memorial Hwy", "city": "Kissimmee", "state": "FL", "zip": "34747", "latitude": 28.3475411, "longitude": -81.6070604, "phone": "(407) 787-0204", "slug": "pollo-tropical-us-hwy-192kissimmee-fl", "state_name": "Florida", "brand": "Pollo Tropical", "updated": "2024-03-09" }, "geometry": { "type": "Point", "coordinates": [ -81.6070604, 28.3475411 ] } },
{ "type": "Feature", "properties": { "name": "PT #10155", "street": "8708 Vineland Avenue", "city": "Orlando", "state": "FL", "zip": "32821", "latitude": 28.3792719, "longitude": -81.5007035, "phone": "(407) 560-8304", "slug": "pollo-tropical-vineland-avenueorlando-fl", "state_name": "Florida", "brand": "Pollo Tropical", "updated": "2024-03-09" }, "geometry": { "type": "Point", "coordinates": [ -81.5007035, 28.3792719 ] } },
{ "type": "Feature", "properties": { "name": "PT #10159", "street": "6674 South Semoran Blvd", "city": "Orlando", "state": "FL", "zip": "32822", "latitude": 28.4667246, "longitude": -81.3111652, "phone": "(407) 850-9491", "slug": "pollo-tropical-semoran-blvdorlando-fl", "state_name": "Florida", "brand": "Pollo Tropical", "updated": "2024-03-09" }, "geometry": { "type": "Point", "coordinates": [ -81.3111652, 28.4667246 ] } },
{ "type": "Feature", "properties": { "name": "PT #10167", "street": "23200 S.W. 112 Court", "city": "Homestead", "state": "FL", "zip": "33032", "latitude": 25.5512776, "longitude": -80.3725852, "phone": "(786) 501-9925", "slug": "pollo-tropical-allapattah-rdhomestead-fl", "state_name": "Florida", "brand": "Pollo Tropical", "updated": "2024-03-09" }, "geometry": { "type": "Point", "coordinates": [ -80.3725852, 25.5512776 ] } },
{ "type": "Feature", "properties": { "name": "PT #10168", "street": "21852 S. State Road 7", "city": "West Boca Raton", "state": "FL", "zip": "33432", "latitude": 26.3517862, "longitude": -80.2018991, "phone": "(561) 477-2618", "slug": "pollo-tropical-palmettowest-boca-raton-fl", "state_name": "Florida", "brand": "Pollo Tropical", "updated": "2024-03-09" }, "geometry": { "type": "Point", "coordinates": [ -80.2018991, 26.3517862 ] } },
{ "type": "Feature", "properties": { "name": "PT #10181", "street": "1365 NW St. Lucie West Blvd", "city": "Port Lucie West", "state": "FL", "zip": "34986", "latitude": 27.3164813, "longitude": -80.3893944, "phone": "(772) 873-8129", "slug": "pollo-tropical-nw-stlucieport-lucie-west-fl", "state_name": "Florida", "brand": "Pollo Tropical", "updated": "2024-03-09" }, "geometry": { "type": "Point", "coordinates": [ -80.3893944, 27.3164813 ] } },
{ "type": "Feature", "properties": { "name": "PT #10182", "street": "404 SE 1st Avenue", "city": "Florida City", "state": "FL", "zip": "33034", "latitude": 25.4425106, "longitude": -80.4756267, "phone": "(305) 242-0173", "slug": "pollo-tropical-404-se-1st-avenuehomestead-fl", "state_name": "Florida", "brand": "Pollo Tropical", "updated": "2024-03-09" }, "geometry": { "type": "Point", "coordinates": [ -80.4756267, 25.4425106 ] } },
{ "type": "Feature", "properties": { "name": "PT #10184", "street": "775 Osceola Parkway", "city": "Kissimmee", "state": "FL", "zip": "34741", "latitude": 28.3396688, "longitude": -81.4093319, "phone": "(407) 870-0183", "slug": "pollo-tropical-775-osceola-pkwykissimmee-fl", "state_name": "Florida", "brand": "Pollo Tropical", "updated": "2024-03-09" }, "geometry": { "type": "Point", "coordinates": [ -81.4093319, 28.3396688 ] } },
{ "type": "Feature", "properties": { "name": "PT #10190", "street": "825 E. 49 Street", "city": "Hialeah", "state": "FL", "zip": "33013", "latitude": 25.8676324, "longitude": -80.2663249, "phone": "(786) 329-7686", "slug": "pollo-tropical-825-e-49-streethialeah-fl", "state_name": "Florida", "brand": "Pollo Tropical", "updated": "2024-03-09" }, "geometry": { "type": "Point", "coordinates": [ -80.2663249, 25.8676324 ] } },
{ "type": "Feature", "properties": { "name": "PT #10192", "street": "5757 W. Oakland Park Blvd.", "city": "Laurdehill", "state": "FL", "zip": "33313", "latitude": 26.1653573, "longitude": -80.2292123, "phone": "(954) 375-4057", "slug": "pollo-tropical-w-oakland-parklaurdehill-fl", "state_name": "Florida", "brand": "Pollo Tropical", "updated": "2024-03-09" }, "geometry": { "type": "Point", "coordinates": [ -80.2292123, 26.1653573 ] } },
{ "type": "Feature", "properties": { "name": "PT #10199", "street": "5554 Federal Highway", "city": "Ft. Lauderdale", "state": "FL", "zip": "33308", "latitude": 26.1959068, "longitude": -80.1112001, "phone": "(954) 375-4165", "slug": "pollo-tropical-n-fed-ne-55ftlauderdale-fl", "state_name": "Florida", "brand": "Pollo Tropical", "updated": "2024-03-09" }, "geometry": { "type": "Point", "coordinates": [ -80.1112001, 26.1959068 ] } },
{ "type": "Feature", "properties": { "name": "PT #10200", "street": "25570 Cierra Center Blvd", "city": "Tampa", "state": "FL", "zip": "33559", "latitude": 28.1949125, "longitude": -82.3938337, "phone": "(813) 579-1625", "slug": "pollo-tropical-sr-56-wesley-chapeltampa-fl", "state_name": "Florida", "brand": "Pollo Tropical", "updated": "2024-03-09" }, "geometry": { "type": "Point", "coordinates": [ -82.3938337, 28.1949125 ] } },
{ "type": "Feature", "properties": { "name": "PT #10202", "street": "5415 Fruitville Road", "city": "Sarasota", "state": "FL", "zip": "34232", "latitude": 27.3386391, "longitude": -82.4616771, "phone": "(941) 296-6999", "slug": "pollo-tropical-5415-fruitvillesarasota-fl", "state_name": "Florida", "brand": "Pollo Tropical", "updated": "2024-03-09" }, "geometry": { "type": "Point", "coordinates": [ -82.4616771, 27.3386391 ] } },
{ "type": "Feature", "properties": { "name": "PT #10218", "street": "1446 W. International Speedway Blvd.", "city": "Daytona Beach", "state": "FL", "zip": "32114", "latitude": 29.1965029, "longitude": -81.0585179, "phone": "(386) 271-4951", "slug": "pollo-tropical-1446-w-intldaytona-beach-fl", "state_name": "Florida", "brand": "Pollo Tropical", "updated": "2024-03-09" }, "geometry": { "type": "Point", "coordinates": [ -81.0585179, 29.1965029 ] } },
{ "type": "Feature", "properties": { "name": "PT #10223", "street": "4713 Flamingo Road", "city": "Cooper City", "state": "FL", "zip": "33330", "latitude": 26.062301, "longitude": -80.3144122, "phone": "(954) 375-4077", "slug": "pollo-tropical-4713-flamingocooper-city-fl", "state_name": "Florida", "brand": "Pollo Tropical", "updated": "2024-03-09" }, "geometry": { "type": "Point", "coordinates": [ -80.3144122, 26.062301 ] } },
{ "type": "Feature", "properties": { "name": "PT #10224", "street": "7210 NW 36th Street", "city": "Miami", "state": "FL", "zip": "33166", "latitude": 25.8088138, "longitude": -80.3142163, "phone": "(786) 221-1568", "slug": "pollo-tropical-nw-36-streetmiami-fl", "state_name": "Florida", "brand": "Pollo Tropical", "updated": "2024-03-09" }, "geometry": { "type": "Point", "coordinates": [ -80.3142163, 25.8088138 ] } },
{ "type": "Feature", "properties": { "name": "PT #10227", "street": "50 N. University Drive", "city": "Plantation", "state": "FL", "zip": "33324", "latitude": 26.1217497, "longitude": -80.2520516, "phone": "(305) 526-4492", "slug": "pollo-tropical-broward-university-plantation-fl", "state_name": "Florida", "brand": "Pollo Tropical", "updated": "2024-03-09" }, "geometry": { "type": "Point", "coordinates": [ -80.2520516, 26.1217497 ] } },
{ "type": "Feature", "properties": { "name": "PT #10228", "street": "5294 North International Drive", "city": "Orlando", "state": "FL", "zip": "32819", "latitude": 28.4657879, "longitude": -81.4497001, "phone": "(321) 251-6217", "slug": "pollo-tropical-international-drorlando-fl", "state_name": "Florida", "brand": "Pollo Tropical", "updated": "2024-03-09" }, "geometry": { "type": "Point", "coordinates": [ -81.4497001, 28.4657879 ] } },
{ "type": "Feature", "properties": { "name": "PT #10230", "street": "7501 Biscayne Blvd.", "city": "Miami", "state": "FL", "zip": "33138", "latitude": 25.8442601, "longitude": -80.1841282, "phone": "(305) 944-0227", "slug": "pollo-tropical-ptex-biscayne-75th-miami-fl", "state_name": "Florida", "brand": "Pollo Tropical", "updated": "2024-03-09" }, "geometry": { "type": "Point", "coordinates": [ -80.1841282, 25.8442601 ] } },
{ "type": "Feature", "properties": { "name": "PT #10233", "street": "9993 Tagore Place", "city": "Orlando", "state": "FL", "zip": "32832", "latitude": 28.3891039, "longitude": -81.2448919, "phone": "(407) 477-4772", "slug": "pollo-tropical-lake-nona-orlando-fl", "state_name": "Florida", "brand": "Pollo Tropical", "updated": "2024-03-09" }, "geometry": { "type": "Point", "coordinates": [ -81.2448919, 28.3891039 ] } },
{ "type": "Feature", "properties": { "name": "PT #10235", "street": "5450 Univ Dr", "city": "Coral Springs", "state": "FL", "zip": "33067", "latitude": 26.2969673, "longitude": -80.2506673, "phone": "(954) 688-2209", "slug": "pollo-tropical-5450-univ-dr-coral-springs-fl", "state_name": "Florida", "brand": "Pollo Tropical", "updated": "2024-03-09" }, "geometry": { "type": "Point", "coordinates": [ -80.2506673, 26.2969673 ] } },
{ "type": "Feature", "properties": { "name": "PT #10236", "street": "7401 W 4th Ave", "city": "HIaleah", "state": "FL", "zip": "33014", "latitude": 25.8892181, "longitude": -80.2912645, "phone": "(786) 221-0643", "slug": "pollo-tropical-7405-w-4th-avenuehialeah-fl", "state_name": "Florida", "brand": "Pollo Tropical", "updated": "2024-03-09" }, "geometry": { "type": "Point", "coordinates": [ -80.2912645, 25.8892181 ] } },
{ "type": "Feature", "properties": { "name": "PT#10248", "street": "8851 West Commercial Blvd", "city": "Tamarac", "state": "FL", "zip": "33351", "latitude": 26.1942768, "longitude": -80.2696609, "phone": "(954) 716-7947", "slug": "pt10248", "state_name": "Florida", "brand": "Pollo Tropical", "updated": "2024-03-09" }, "geometry": { "type": "Point", "coordinates": [ -80.2696609, 26.1942768 ] } },
{ "type": "Feature", "properties": { "name": "PT #14306 JM", "street": "1005, 1611 NW 12th Ave", "city": "Miami", "state": "FL", "zip": "33136", "latitude": 25.790187, "longitude": -80.212963, "phone": "(407) 573-6112", "slug": "pt-14306", "state_name": "Florida", "brand": "Pollo Tropical", "updated": "2024-03-09" }, "geometry": { "type": "Point", "coordinates": [ -80.212963, 25.790187 ] } },
{ "type": "Feature", "properties": { "name": "PT #10217", "street": "5101 Fowler Avenue", "city": "Tampa", "state": "FL", "zip": "33617", "latitude": 28.054555, "longitude": -82.4295171, "phone": "(813) 773-1382", "slug": "pt-10217", "state_name": "Florida", "brand": "Pollo Tropical", "updated": "2024-03-09" }, "geometry": { "type": "Point", "coordinates": [ -82.4295171, 28.054555 ] } },
{ "type": "Feature", "properties": { "name": "PT #10249", "street": "16951 Miramar Pkwy", "city": "Miramar", "state": "FL", "zip": "33027", "latitude": 25.9794499, "longitude": -80.3733029, "phone": "(954) 488-2225", "slug": "pt-10249", "state_name": "Florida", "brand": "Pollo Tropical", "updated": "2024-03-09" }, "geometry": { "type": "Point", "coordinates": [ -80.3733029, 25.9794499 ] } },
{ "type": "Feature", "properties": { "name": "PT #10254", "street": "13425 S. Dixie Hwy", "city": "Pinecrest", "state": "FL", "zip": "33156", "latitude": 25.6460258, "longitude": -80.3330486, "phone": "(786) 522-3935", "slug": "pollo-10254", "state_name": "Florida", "brand": "Pollo Tropical", "updated": "2024-03-09" }, "geometry": { "type": "Point", "coordinates": [ -80.3330486, 25.6460258 ] } },
{ "type": "Feature", "properties": { "name": "PT #10001", "street": "741 N. W. 37th Avenue", "city": "Miami", "state": "FL", "zip": "33125", "latitude": 25.7791331, "longitude": -80.2549213, "phone": "(305) 541-3161", "slug": "pollo-tropical-nw-37th-avemiami-fl", "state_name": "Florida", "brand": "Pollo Tropical", "updated": "2024-03-09" }, "geometry": { "type": "Point", "coordinates": [ -80.2549213, 25.7791331 ] } },
{ "type": "Feature", "properties": { "name": "PT #10002", "street": "9520 S. W. 137th Avenue", "city": "Miami", "state": "FL", "zip": "33186", "latitude": 25.6793624, "longitude": -80.4170254, "phone": "(305) 388-4406", "slug": "pollo-tropical-sw-137th-avemiami-fl", "state_name": "Florida", "brand": "Pollo Tropical", "updated": "2024-03-09" }, "geometry": { "type": "Point", "coordinates": [ -80.4170254, 25.6793624 ] } },
{ "type": "Feature", "properties": { "name": "PT #10003", "street": "8975 S. Dixie Highway", "city": "Miami", "state": "FL", "zip": "33156", "latitude": 25.687147, "longitude": -80.3100596, "phone": "(305) 662-9035", "slug": "pollo-tropical-90-s-dixie-hwaymiami-fl", "state_name": "Florida", "brand": "Pollo Tropical", "updated": "2024-03-09" }, "geometry": { "type": "Point", "coordinates": [ -80.3100596, 25.687147 ] } },
{ "type": "Feature", "properties": { "name": "PT #10004", "street": "8700 Bird Road", "city": "Miami", "state": "FL", "zip": "33165", "latitude": 25.732435, "longitude": -80.3361514, "phone": "(305) 225-7858", "slug": "pollo-tropical-bird-roadmiami-fl", "state_name": "Florida", "brand": "Pollo Tropical", "updated": "2024-03-09" }, "geometry": { "type": "Point", "coordinates": [ -80.3361514, 25.732435 ] } },
{ "type": "Feature", "properties": { "name": "PT #10005", "street": "18710 S. Dixie Highway", "city": "Miami", "state": "FL", "zip": "33157", "latitude": 25.5950876, "longitude": -80.3562264, "phone": "(305) 254-0666", "slug": "pollo-tropical-quail-s-dixie-hwaymiami-fl", "state_name": "Florida", "brand": "Pollo Tropical", "updated": "2024-03-09" }, "geometry": { "type": "Point", "coordinates": [ -80.3562264, 25.5950876 ] } },
{ "type": "Feature", "properties": { "name": "PT #10006", "street": "11521 N. Kendall Drive", "city": "Miami", "state": "FL", "zip": "33176", "latitude": 25.6868053, "longitude": -80.3803487, "phone": "(305) 596-4775", "slug": "pollo-tropical-n-kendall-drivemiami-fl", "state_name": "Florida", "brand": "Pollo Tropical", "updated": "2024-03-09" }, "geometry": { "type": "Point", "coordinates": [ -80.3803487, 25.6868053 ] } },
{ "type": "Feature", "properties": { "name": "PT #10007", "street": "1785 N. E. 163rd Street", "city": "N. Miami Beach", "state": "FL", "zip": "33162", "latitude": 25.9263856, "longitude": -80.1642697, "phone": "(305) 945-0045", "slug": "pollo-tropical-ne-163rd-stn-miami-beach-fl", "state_name": "Florida", "brand": "Pollo Tropical", "updated": "2024-03-09" }, "geometry": { "type": "Point", "coordinates": [ -80.1642697, 25.9263856 ] } },
{ "type": "Feature", "properties": { "name": "PT #10008", "street": "4211 N. W. 36th Street", "city": "Miami Springs", "state": "FL", "zip": "33166", "latitude": 25.8086487, "longitude": -80.2653668, "phone": "(305) 884-2268", "slug": "pollo-tropical-nw-36th-stmiami-springs-fl", "state_name": "Florida", "brand": "Pollo Tropical", "updated": "2024-03-09" }, "geometry": { "type": "Point", "coordinates": [ -80.2653668, 25.8086487 ] } },
{ "type": "Feature", "properties": { "name": "PT #10009", "street": "2710 S. Dixie Hwy", "city": "Miami", "state": "FL", "zip": "33133", "latitude": 25.7390438, "longitude": -80.2387856, "phone": "(305) 448-9892", "slug": "pollo-tropical-27-s-dixie-hwaymiami-fl", "state_name": "Florida", "brand": "Pollo Tropical", "updated": "2024-03-09" }, "geometry": { "type": "Point", "coordinates": [ -80.2387856, 25.7390438 ] } },
{ "type": "Feature", "properties": { "name": "PT #10010", "street": "16495 N. W. 67th Avenue", "city": "Miami Lakes", "state": "FL", "zip": "33014", "latitude": 25.9228073, "longitude": -80.308732, "phone": "(305) 821-3858", "slug": "pollo-tropical-nw-67th-avemiami-lakes-fl", "state_name": "Florida", "brand": "Pollo Tropical", "updated": "2024-03-09" }, "geometry": { "type": "Point", "coordinates": [ -80.308732, 25.9228073 ] } },
{ "type": "Feature", "properties": { "name": "PT #10011", "street": "2490 W. 60th Street", "city": "Hialeah", "state": "FL", "zip": "33016", "latitude": 25.8766568, "longitude": -80.3331524, "phone": "(305) 828-2032", "slug": "pollo-tropical-w-60th-sthialeah-fl", "state_name": "Florida", "brand": "Pollo Tropical", "updated": "2024-03-09" }, "geometry": { "type": "Point", "coordinates": [ -80.3331524, 25.8766568 ] } },
{ "type": "Feature", "properties": { "name": "PT #10012", "street": "2011 E. Oakland Park Blvd.", "city": "Oakland Park", "state": "FL", "zip": "33306", "latitude": 26.1675957, "longitude": -80.1192604, "phone": "(954) 564-6220", "slug": "pollo-tropical-e-oakland-pk-blvdoaklnd-pk-fl", "state_name": "Florida", "brand": "Pollo Tropical", "updated": "2024-03-09" }, "geometry": { "type": "Point", "coordinates": [ -80.1192604, 26.1675957 ] } },
{ "type": "Feature", "properties": { "name": "PT #10013", "street": "8299 Pines Blvd.", "city": "Pembrook Pines", "state": "FL", "zip": "33024", "latitude": 26.0096047, "longitude": -80.2519522, "phone": "(954) 437-9153", "slug": "pollo-tropical-83-pinespembroke-pines-fl", "state_name": "Florida", "brand": "Pollo Tropical", "updated": "2024-03-09" }, "geometry": { "type": "Point", "coordinates": [ -80.2519522, 26.0096047 ] } },
{ "type": "Feature", "properties": { "name": "PT #10014", "street": "2298 Congress Avenue", "city": "Boynton Beach", "state": "FL", "zip": "33426", "latitude": 26.5497215, "longitude": -80.0901358, "phone": "(561) 364-4313", "slug": "pollo-tropical-congress-aveboynton-beach-fl", "state_name": "Florida", "brand": "Pollo Tropical", "updated": "2024-03-09" }, "geometry": { "type": "Point", "coordinates": [ -80.0901358, 26.5497215 ] } },
{ "type": "Feature", "properties": { "name": "PT #10015", "street": "11806 Biscayne Blvd.", "city": "N Miami", "state": "FL", "zip": "33181", "latitude": 25.884897, "longitude": -80.1655372, "phone": "(305) 895-0274", "slug": "pollo-tropical-biscayne-blvdmiami-fl", "state_name": "Florida", "brand": "Pollo Tropical", "updated": "2024-03-09" }, "geometry": { "type": "Point", "coordinates": [ -80.1655372, 25.884897 ] } },
{ "type": "Feature", "properties": { "name": "PT #10016", "street": "2390 S. University Drive", "city": "Davie", "state": "FL", "zip": "33324", "latitude": 26.091178, "longitude": -80.250654, "phone": "(954) 474-8040", "slug": "pollo-tropical-s-university-drdavie-fl", "state_name": "Florida", "brand": "Pollo Tropical", "updated": "2024-03-09" }, "geometry": { "type": "Point", "coordinates": [ -80.250654, 26.091178 ] } },
{ "type": "Feature", "properties": { "name": "PT #10017", "street": "4331 Lake Worth Road", "city": "Lake Worth", "state": "FL", "zip": "33461", "latitude": 26.6185924, "longitude": -80.1107313, "phone": "(561) 641-7800", "slug": "pollo-tropical-lake-worth-roadlake-worth-fl", "state_name": "Florida", "brand": "Pollo Tropical", "updated": "2024-03-09" }, "geometry": { "type": "Point", "coordinates": [ -80.1107313, 26.6185924 ] } },
{ "type": "Feature", "properties": { "name": "PT #10018", "street": "1454 Alton Road", "city": "Miami Beach", "state": "FL", "zip": "33139", "latitude": 25.7870823, "longitude": -80.1413319, "phone": "(305) 672-8888", "slug": "pollo-tropical-alton-roadmiami-beach-fl", "state_name": "Florida", "brand": "Pollo Tropical", "updated": "2024-03-09" }, "geometry": { "type": "Point", "coordinates": [ -80.1413319, 25.7870823 ] } },
{ "type": "Feature", "properties": { "name": "PT #10019", "street": "985 N. Homestead Blvd.", "city": "Homestead", "state": "FL", "zip": "33030", "latitude": 25.4793165, "longitude": -80.4638098, "phone": "(305) 245-0410", "slug": "pollo-tropical-n-homestead-blvdhomestead-fl", "state_name": "Florida", "brand": "Pollo Tropical", "updated": "2024-03-09" }, "geometry": { "type": "Point", "coordinates": [ -80.4638098, 25.4793165 ] } },
{ "type": "Feature", "properties": { "name": "PT #10020", "street": "800 University Drive", "city": "Coral Springs", "state": "FL", "zip": "33071", "latitude": 26.2423693, "longitude": -80.2546528, "phone": "(954) 345-7922", "slug": "pollo-tropical-university-drcoral-springs-fl", "state_name": "Florida", "brand": "Pollo Tropical", "updated": "2024-03-09" }, "geometry": { "type": "Point", "coordinates": [ -80.2546528, 26.2423693 ] } },
{ "type": "Feature", "properties": { "name": "PT #10021", "street": "11670 S. W. 152nd Street", "city": "Miami", "state": "FL", "zip": "33157", "latitude": 25.6267297, "longitude": -80.3816535, "phone": "(954) 345-7922", "slug": "pollo-tropical-sw-152nd-stmiami-fl", "state_name": "Florida", "brand": "Pollo Tropical", "updated": "2024-03-09" }, "geometry": { "type": "Point", "coordinates": [ -80.3816535, 25.6267297 ] } },
{ "type": "Feature", "properties": { "name": "PT #10022", "street": "489 FL-436", "city": "Altamonte Springs", "state": "FL", "zip": "32714", "latitude": 28.6623238, "longitude": -81.40199, "phone": "(407) 865-6750", "slug": "pollo-tropical-west-sr-436altamonte-sprgs-fl", "state_name": "Florida", "brand": "Pollo Tropical", "updated": "2024-03-09" }, "geometry": { "type": "Point", "coordinates": [ -81.40199, 28.6623238 ] } },
{ "type": "Feature", "properties": { "name": "PT #10024", "street": "1555 N. W. 87 Avenue", "city": "Miami", "state": "FL", "zip": "33172", "latitude": 25.7882028, "longitude": -80.33642, "phone": "(305) 594-7391", "slug": "pollo-tropical-nw-87th-avemiami-fl", "state_name": "Florida", "brand": "Pollo Tropical", "updated": "2024-03-09" }, "geometry": { "type": "Point", "coordinates": [ -80.33642, 25.7882028 ] } },
{ "type": "Feature", "properties": { "name": "PT #10025", "street": "19911 N. W. 2nd Avenue SR7", "city": "North Miami", "state": "FL", "zip": "33169", "latitude": 25.9583106, "longitude": -80.2051857, "phone": "(305) 655-2026", "slug": "pollo-tropical-nw-2nd-avenorth-miami-fl", "state_name": "Florida", "brand": "Pollo Tropical", "updated": "2024-03-09" }, "geometry": { "type": "Point", "coordinates": [ -80.2051857, 25.9583106 ] } },
{ "type": "Feature", "properties": { "name": "PT #10026", "street": "13998 S. W. 56th Street", "city": "Miami", "state": "FL", "zip": "33175", "latitude": 25.7138728, "longitude": -80.4200032, "phone": "(305) 382-1399", "slug": "pollo-tropical-sw-56th-stmiami-fl", "state_name": "Florida", "brand": "Pollo Tropical", "updated": "2024-03-09" }, "geometry": { "type": "Point", "coordinates": [ -80.4200032, 25.7138728 ] } },
{ "type": "Feature", "properties": { "name": "PT #10027", "street": "11429 Pines Blvd", "city": "Pembroke Pines", "state": "FL", "zip": "33026", "latitude": 26.0082512, "longitude": -80.3018731, "phone": "(954) 430-2250", "slug": "pollo-tropical-hiatuapinespembroke-pines-fl", "state_name": "Florida", "brand": "Pollo Tropical", "updated": "2024-03-09" }, "geometry": { "type": "Point", "coordinates": [ -80.3018731, 26.0082512 ] } },
{ "type": "Feature", "properties": { "name": "PT #10030", "street": "581 N. W. 57th Avenue", "city": "Miami", "state": "FL", "zip": "33126", "latitude": 25.7768487, "longitude": -80.2878359, "phone": "(305) 265-6101", "slug": "pollo-tropical-nw-57th-avemiami-fl", "state_name": "Florida", "brand": "Pollo Tropical", "updated": "2024-03-09" }, "geometry": { "type": "Point", "coordinates": [ -80.2878359, 25.7768487 ] } },
{ "type": "Feature", "properties": { "name": "PT #10031", "street": "12961 W. Sunrise Blvd.", "city": "Ft. Lauderdale", "state": "FL", "zip": "33323", "latitude": 26.146344, "longitude": -80.327332, "phone": "(954) 845-0343", "slug": "pollo-tropical-w-sunrise-blvdft-lauderdle-fl", "state_name": "Florida", "brand": "Pollo Tropical", "updated": "2024-03-09" }, "geometry": { "type": "Point", "coordinates": [ -80.327332, 26.146344 ] } },
{ "type": "Feature", "properties": { "name": "PT #10032", "street": "1811 S. Semoran Blvd.", "city": "Orlando", "state": "FL", "zip": "32822", "latitude": 28.5211168, "longitude": -81.3097258, "phone": "(407) 273-2600", "slug": "pollo-tropical-s-semoran-blvdorlando-fl", "state_name": "Florida", "brand": "Pollo Tropical", "updated": "2024-03-09" }, "geometry": { "type": "Point", "coordinates": [ -81.3097258, 28.5211168 ] } },
{ "type": "Feature", "properties": { "name": "PT #10035", "street": "1819 S. Federal Hwy.", "city": "Ft. Lauderdale", "state": "FL", "zip": "33316", "latitude": 26.0987465, "longitude": -80.1370576, "phone": "(954) 764-2141", "slug": "pollo-tropical-s-federal-hwyft-lauderdale-fl", "state_name": "Florida", "brand": "Pollo Tropical", "updated": "2024-03-09" }, "geometry": { "type": "Point", "coordinates": [ -80.1370576, 26.0987465 ] } },
{ "type": "Feature", "properties": { "name": "PT #10038", "street": "2350 Douglas Road", "city": "Miami", "state": "FL", "zip": "33134", "latitude": 25.7504636, "longitude": -80.255023, "phone": "(305) 461-1915", "slug": "pollo-tropical-douglas-rdcoral-gables-fl", "state_name": "Florida", "brand": "Pollo Tropical", "updated": "2024-03-09" }, "geometry": { "type": "Point", "coordinates": [ -80.255023, 25.7504636 ] } },
{ "type": "Feature", "properties": { "name": "PT #10039", "street": "1592 W. 49 Street", "city": "Hialeah", "state": "FL", "zip": "33012", "latitude": 25.8663199, "longitude": -80.3145428, "phone": "(305) 556-8090", "slug": "pollo-tropical-w-49th-sthialeah-fl", "state_name": "Florida", "brand": "Pollo Tropical", "updated": "2024-03-09" }, "geometry": { "type": "Point", "coordinates": [ -80.3145428, 25.8663199 ] } },
{ "type": "Feature", "properties": { "name": "PT #10040", "street": "5720 Wiles Road", "city": "Coral Springs", "state": "FL", "zip": "33067", "latitude": 26.2842252, "longitude": -80.2025657, "phone": "(954) 757-7839", "slug": "pollo-tropical-wiles-roadcoral-springs-fl", "state_name": "Florida", "brand": "Pollo Tropical", "updated": "2024-03-09" }, "geometry": { "type": "Point", "coordinates": [ -80.2025657, 26.2842252 ] } },
{ "type": "Feature", "properties": { "name": "PT #10042", "street": "5549 Sheridan Street", "city": "Hollywood", "state": "FL", "zip": "33021", "latitude": 26.032834, "longitude": -80.19958, "phone": "(954) 987-8976", "slug": "pollo-tropical-sheridan-sthollywood-fl", "state_name": "Florida", "brand": "Pollo Tropical", "updated": "2024-03-09" }, "geometry": { "type": "Point", "coordinates": [ -80.19958, 26.032834 ] } },
{ "type": "Feature", "properties": { "name": "PT #10043", "street": "2633 Weston Rd.", "city": "Weston", "state": "FL", "zip": "33331", "latitude": 26.0843886, "longitude": -80.3717605, "phone": "(954) 389-2572", "slug": "pollo-tropical-weston-rdweston-fl", "state_name": "Florida", "brand": "Pollo Tropical", "updated": "2024-03-09" }, "geometry": { "type": "Point", "coordinates": [ -80.3717605, 26.0843886 ] } },
{ "type": "Feature", "properties": { "name": "PT #10044", "street": "10575 N. W. 41 Street", "city": "Miami", "state": "FL", "zip": "33178", "latitude": 25.8120481, "longitude": -80.3678441, "phone": "(305) 597-4596", "slug": "pollo-tropical-nw-41st-stmiami-fl", "state_name": "Florida", "brand": "Pollo Tropical", "updated": "2024-03-09" }, "geometry": { "type": "Point", "coordinates": [ -80.3678441, 25.8120481 ] } },
{ "type": "Feature", "properties": { "name": "PT #10045", "street": "2675 N. University Drive", "city": "Sunrise", "state": "FL", "zip": "33322", "latitude": 26.1583473, "longitude": -80.2577887, "phone": "(954) 741-5238", "slug": "pollo-tropical-n-university-drsunrise-fl", "state_name": "Florida", "brand": "Pollo Tropical", "updated": "2024-03-09" }, "geometry": { "type": "Point", "coordinates": [ -80.2577887, 26.1583473 ] } },
{ "type": "Feature", "properties": { "name": "PT #10046", "street": "3499 Biscayne Blvd.", "city": "Miami", "state": "FL", "zip": "33137", "latitude": 25.8091797, "longitude": -80.1892065, "phone": "(305) 572-9844", "slug": "pollo-tropical-biscayneblvd-ne35thmiami-fl", "state_name": "Florida", "brand": "Pollo Tropical", "updated": "2024-03-09" }, "geometry": { "type": "Point", "coordinates": [ -80.1892065, 25.8091797 ] } },
{ "type": "Feature", "properties": { "name": "PT #10047", "street": "16201 S.W. 88 Street", "city": "Miami", "state": "FL", "zip": "33196", "latitude": 25.6845614, "longitude": -80.4543918, "phone": "(305) 752-1877", "slug": "pollo-tropical-sw-88-stmiami-fl", "state_name": "Florida", "brand": "Pollo Tropical", "updated": "2024-03-09" }, "geometry": { "type": "Point", "coordinates": [ -80.4543918, 25.6845614 ] } },
{ "type": "Feature", "properties": { "name": "PT #10048", "street": "3061 Northlake Blvd.", "city": "Lake Park", "state": "FL", "zip": "33403", "latitude": 26.8087637, "longitude": -80.0824112, "phone": "(561) 841-3466", "slug": "pollo-tropical-northlake-blvdlake-park-fl", "state_name": "Florida", "brand": "Pollo Tropical", "updated": "2024-03-09" }, "geometry": { "type": "Point", "coordinates": [ -80.0824112, 26.8087637 ] } },
{ "type": "Feature", "properties": { "name": "PT #10049", "street": "3801 W. Vine Street", "city": "Kissimmee", "state": "FL", "zip": "34741", "latitude": 28.3048796, "longitude": -81.4415037, "phone": "(407) 932-4363", "slug": "pollo-tropical-w-vine-stkissimmee-fl", "state_name": "Florida", "brand": "Pollo Tropical", "updated": "2024-03-09" }, "geometry": { "type": "Point", "coordinates": [ -81.4415037, 28.3048796 ] } },
{ "type": "Feature", "properties": { "name": "PT #10050", "street": "107 North State Road 7", "city": "Royal Palm Beach", "state": "FL", "zip": "33411", "latitude": 26.678187, "longitude": -80.203221, "phone": "(561) 795-8818", "slug": "pollo-tropical-n-state-rd-7royal-palm-bch-fl", "state_name": "Florida", "brand": "Pollo Tropical", "updated": "2024-03-09" }, "geometry": { "type": "Point", "coordinates": [ -80.203221, 26.678187 ] } },
{ "type": "Feature", "properties": { "name": "PT #10052", "street": "7643 W. Colonial Drive", "city": "Orlando", "state": "FL", "zip": "32818", "latitude": 28.5524676, "longitude": -81.4885242, "phone": "(407) 293-6118", "slug": "pollo-tropical-w-colonial-drorlando-fl", "state_name": "Florida", "brand": "Pollo Tropical", "updated": "2024-03-09" }, "geometry": { "type": "Point", "coordinates": [ -81.4885242, 28.5524676 ] } },
{ "type": "Feature", "properties": { "name": "PT #10053", "street": "3051 W. Commercial Blvd.", "city": "Fort Lauderdale", "state": "FL", "zip": "33309", "latitude": 26.1868266, "longitude": -80.1864168, "phone": "(954) 484-5273", "slug": "pollo-tropical-w-commericalft-lauderdale-fl", "state_name": "Florida", "brand": "Pollo Tropical", "updated": "2024-03-09" }, "geometry": { "type": "Point", "coordinates": [ -80.1864168, 26.1868266 ] } },
{ "type": "Feature", "properties": { "name": "PT #10054", "street": "11860 E. Colonial Drive", "city": "Orlando", "state": "FL", "zip": "32826", "latitude": 28.5659495, "longitude": -81.2056856, "phone": "(407) 380-1966", "slug": "pollo-tropical-east-colonial-drorlando-fl", "state_name": "Florida", "brand": "Pollo Tropical", "updated": "2024-03-09" }, "geometry": { "type": "Point", "coordinates": [ -81.2056856, 28.5659495 ] } },
{ "type": "Feature", "properties": { "name": "PT #10055", "street": "11875 S.W. 26 St", "city": "Miami", "state": "FL", "zip": "33175", "latitude": 25.7465465, "longitude": -80.3880028, "phone": "(305) 223-8049", "slug": "pollo-tropical-sw-26th-stmiami-fl", "state_name": "Florida", "brand": "Pollo Tropical", "updated": "2024-03-09" }, "geometry": { "type": "Point", "coordinates": [ -80.3880028, 25.7465465 ] } },
{ "type": "Feature", "properties": { "name": "PT #10056", "street": "14880 S. W. 31 Street", "city": "Miramar", "state": "FL", "zip": "33027", "latitude": 25.9793818, "longitude": -80.3449396, "phone": "(954) 431-7998", "slug": "pollo-tropical-sw-31st-stmiramar-fl", "state_name": "Florida", "brand": "Pollo Tropical", "updated": "2024-03-09" }, "geometry": { "type": "Point", "coordinates": [ -80.3449396, 25.9793818 ] } },
{ "type": "Feature", "properties": { "name": "PT #10057", "street": "2499 N Federal Highway", "city": "Boca Raton", "state": "FL", "zip": "33431", "latitude": 26.3725655, "longitude": -80.0769337, "phone": "(561) 395-9751", "slug": "pollo-tropical-n-federal-hwayboca-raton-fl", "state_name": "Florida", "brand": "Pollo Tropical", "updated": "2024-03-09" }, "geometry": { "type": "Point", "coordinates": [ -80.0769337, 26.3725655 ] } },
{ "type": "Feature", "properties": { "name": "PT #10058", "street": "950 Linton Blvd.", "city": "Delray Beach", "state": "FL", "zip": "33444", "latitude": 26.4392274, "longitude": -80.0828694, "phone": "(561) 276-9334", "slug": "pollo-tropical-linton-blvddelray-beach-fl", "state_name": "Florida", "brand": "Pollo Tropical", "updated": "2024-03-09" }, "geometry": { "type": "Point", "coordinates": [ -80.0828694, 26.4392274 ] } },
{ "type": "Feature", "properties": { "name": "PT #10059", "street": "10705 West Flagler Street", "city": "Miami", "state": "FL", "zip": "33174", "latitude": 25.7686826, "longitude": -80.3705885, "phone": "(305) 225-5883", "slug": "pollo-tropical-west-flager-stmiami-fl", "state_name": "Florida", "brand": "Pollo Tropical", "updated": "2024-03-09" }, "geometry": { "type": "Point", "coordinates": [ -80.3705885, 25.7686826 ] } },
{ "type": "Feature", "properties": { "name": "PT #10063", "street": "2450 W. Atlantic Blvd.", "city": "Pompano Beach", "state": "FL", "zip": "33069", "latitude": 26.2305373, "longitude": -80.1552, "phone": "(954) 977-6996", "slug": "pollo-tropical-watlanticblvdpompano-beach-fl", "state_name": "Florida", "brand": "Pollo Tropical", "updated": "2024-03-09" }, "geometry": { "type": "Point", "coordinates": [ -80.1552, 26.2305373 ] } },
{ "type": "Feature", "properties": { "name": "PT #10064", "street": "1051 S. Military Trail", "city": "Deerfield Beach", "state": "FL", "zip": "33442", "latitude": 26.3036738, "longitude": -80.1309293, "phone": "(954) 596-1722", "slug": "pollo-tropical-s-military-trdeerfield-bch-fl", "state_name": "Florida", "brand": "Pollo Tropical", "updated": "2024-03-09" }, "geometry": { "type": "Point", "coordinates": [ -80.1309293, 26.3036738 ] } },
{ "type": "Feature", "properties": { "name": "PT #10065", "street": "8200 NW 27th Avenue", "city": "Miami", "state": "FL", "zip": "33147", "latitude": 25.8494264, "longitude": -80.2423487, "phone": "(305) 835-7233", "slug": "pollo-tropical-nw-27th-avemiami-fl", "state_name": "Florida", "brand": "Pollo Tropical", "updated": "2024-03-09" }, "geometry": { "type": "Point", "coordinates": [ -80.2423487, 25.8494264 ] } },
{ "type": "Feature", "properties": { "name": "PT #10066", "street": "3094 NE 41st Place", "city": "Homestead", "state": "FL", "zip": "33033", "latitude": 25.4991166, "longitude": -80.4138519, "phone": "(305) 247-4909", "slug": "pollo-tropical-ne-41st-plhomestead-fl", "state_name": "Florida", "brand": "Pollo Tropical", "updated": "2024-03-09" }, "geometry": { "type": "Point", "coordinates": [ -80.4138519, 25.4991166 ] } },
{ "type": "Feature", "properties": { "name": "PT #10067", "street": "4085 Millenia Blvd.", "city": "Orlando", "state": "FL", "zip": "32839", "latitude": 28.49119, "longitude": -81.4293363, "phone": "(407) 248-3080", "slug": "pollo-tropical-millenia-blvdorlando-fl", "state_name": "Florida", "brand": "Pollo Tropical", "updated": "2024-03-09" }, "geometry": { "type": "Point", "coordinates": [ -81.4293363, 28.49119 ] } },
{ "type": "Feature", "properties": { "name": "PT #10068", "street": "1550 Indian Town Rd.", "city": "Jupiter", "state": "FL", "zip": "33458", "latitude": 26.9336351, "longitude": -80.1224014, "phone": "(561) 746-4440", "slug": "pollo-tropical-maplewood-center-jupiter-fl", "state_name": "Florida", "brand": "Pollo Tropical", "updated": "2024-03-09" }, "geometry": { "type": "Point", "coordinates": [ -80.1224014, 26.9336351 ] } },
{ "type": "Feature", "properties": { "name": "PT #10069", "street": "300 North State Rd 7", "city": "Plantation", "state": "FL", "zip": "33317", "latitude": 26.123894, "longitude": -80.201655, "phone": "(954) 587-3121", "slug": "pollo-tropical-north-state-rd-7plantation-fl", "state_name": "Florida", "brand": "Pollo Tropical", "updated": "2024-03-09" }, "geometry": { "type": "Point", "coordinates": [ -80.201655, 26.123894 ] } },
{ "type": "Feature", "properties": { "name": "PT #10071", "street": "17084 Collins Ave", "city": "Sunny Isles Beach", "state": "FL", "zip": "33160", "latitude": 25.9338958, "longitude": -80.1219923, "phone": "(305) 948-7229", "slug": "pollo-tropical-collins-avesunny-isles-bch-fl", "state_name": "Florida", "brand": "Pollo Tropical", "updated": "2024-03-09" }, "geometry": { "type": "Point", "coordinates": [ -80.1219923, 25.9338958 ] } },
{ "type": "Feature", "properties": { "name": "PT #10072", "street": "14150 SW 8th St, Miami FL", "city": "Miami", "state": "FL", "zip": "33184", "latitude": 25.7591234, "longitude": -80.4243796, "phone": "(305) 553-5646", "slug": "pollo-tropical-sw-8th-stmiami-fl", "state_name": "Florida", "brand": "Pollo Tropical", "updated": "2024-03-09" }, "geometry": { "type": "Point", "coordinates": [ -80.4243796, 25.7591234 ] } },
{ "type": "Feature", "properties": { "name": "PT #10073", "street": "3085 45th Street", "city": "West Palm Beach", "state": "FL", "zip": "33407", "latitude": 26.7599071, "longitude": -80.0998887, "phone": "(561) 689-3562", "slug": "pollo-tropical-45th-streetwest-palm-beach-fl", "state_name": "Florida", "brand": "Pollo Tropical", "updated": "2024-03-09" }, "geometry": { "type": "Point", "coordinates": [ -80.0998887, 26.7599071 ] } },
{ "type": "Feature", "properties": { "name": "PT #10074", "street": "601 W Hallandale Beach Blvd", "city": "Hallandale Beach", "state": "FL", "zip": "33009", "latitude": 25.985026, "longitude": -80.1543932, "phone": "(954) 458-6767", "slug": "pollo-tropical-whallandale-bchbvdhldl-bch-fl", "state_name": "Florida", "brand": "Pollo Tropical", "updated": "2024-03-09" }, "geometry": { "type": "Point", "coordinates": [ -80.1543932, 25.985026 ] } },
{ "type": "Feature", "properties": { "name": "PT #10075", "street": "7785 South Dixie Highway", "city": "West Palm Beach", "state": "FL", "zip": "33405", "latitude": 26.649243, "longitude": -80.0566793, "phone": "(561) 202-0037", "slug": "pollo-tropical-s-dixie-hwayw-palm-beach-fl", "state_name": "Florida", "brand": "Pollo Tropical", "updated": "2024-03-09" }, "geometry": { "type": "Point", "coordinates": [ -80.0566793, 26.649243 ] } },
{ "type": "Feature", "properties": { "name": "PT #10076", "street": "1001 W. P. Ball Boulevard", "city": "Sanford", "state": "FL", "zip": "32771", "latitude": 28.7991709, "longitude": -81.3385728, "phone": "(407) 322-3977", "slug": "pollo-tropical-wp-ball-blvdsanford-fl", "state_name": "Florida", "brand": "Pollo Tropical", "updated": "2024-03-09" }, "geometry": { "type": "Point", "coordinates": [ -81.3385728, 28.7991709 ] } },
{ "type": "Feature", "properties": { "name": "PT #10080", "street": "1652 NE Pine Island Rd", "city": "Cape Coral", "state": "FL", "zip": "33909", "latitude": 26.6675704, "longitude": -81.9391945, "phone": "(239) 772-1644", "slug": "pollo-tropical-ne-pine-is-rdcape-coral-fl", "state_name": "Florida", "brand": "Pollo Tropical", "updated": "2024-03-09" }, "geometry": { "type": "Point", "coordinates": [ -81.9391945, 26.6675704 ] } },
{ "type": "Feature", "properties": { "name": "PT #10082", "street": "1985 East Osceola Parkway", "city": "Kissimmee", "state": "FL", "zip": "34744", "latitude": 28.3453928, "longitude": -81.3640017, "phone": "(407) 348-1222", "slug": "pollo-tropical-east-osceola-pkwykissimmee-fl", "state_name": "Florida", "brand": "Pollo Tropical", "updated": "2024-03-09" }, "geometry": { "type": "Point", "coordinates": [ -81.3640017, 28.3453928 ] } },
{ "type": "Feature", "properties": { "name": "PT #10083", "street": "3900 Park Blvd", "city": "Pinellas Park", "state": "FL", "zip": "33781", "latitude": 27.8387988, "longitude": -82.6869274, "phone": "(727) 525-3294", "slug": "pollo-tropical-park-blvdpinellas-park-fl", "state_name": "Florida", "brand": "Pollo Tropical", "updated": "2024-03-09" }, "geometry": { "type": "Point", "coordinates": [ -82.6869274, 27.8387988 ] } },
{ "type": "Feature", "properties": { "name": "PT #10084", "street": "3285 West Hillsborough Ave", "city": "Tampa", "state": "FL", "zip": "33614", "latitude": 27.9964417, "longitude": -82.4965212, "phone": "(813) 870-7235", "slug": "pollo-tropical-w-hillsborough-avetampa-fl", "state_name": "Florida", "brand": "Pollo Tropical", "updated": "2024-03-09" }, "geometry": { "type": "Point", "coordinates": [ -82.4965212, 27.9964417 ] } },
{ "type": "Feature", "properties": { "name": "PT #10086", "street": "8301 Red Bud Lake Rd", "city": "Oviedo", "state": "FL", "zip": "32765", "latitude": 28.6551794, "longitude": -81.228605, "phone": "(407) 977-5719", "slug": "pollo-tropical-red-bud-lake-rdoviedo-fl", "state_name": "Florida", "brand": "Pollo Tropical", "updated": "2024-03-09" }, "geometry": { "type": "Point", "coordinates": [ -81.228605, 28.6551794 ] } },
{ "type": "Feature", "properties": { "name": "PT #10087", "street": "5065 Golden Gate Parkway", "city": "Naples", "state": "FL", "zip": "34116", "latitude": 26.1795482, "longitude": -81.7082202, "phone": "(239) 304-0629", "slug": "pollo-tropical-golden-gate-pkynaples-fl", "state_name": "Florida", "brand": "Pollo Tropical", "updated": "2024-03-09" }, "geometry": { "type": "Point", "coordinates": [ -81.7082202, 26.1795482 ] } },
{ "type": "Feature", "properties": { "name": "PT #10088", "street": "6276 W Waters Ave", "city": "Tampa", "state": "FL", "zip": "33634", "latitude": 28.0252224, "longitude": -82.5472857, "phone": "(813) 880-7167", "slug": "pollo-tropical-w-waters-avetampa-fl", "state_name": "Florida", "brand": "Pollo Tropical", "updated": "2024-03-09" }, "geometry": { "type": "Point", "coordinates": [ -82.5472857, 28.0252224 ] } },
{ "type": "Feature", "properties": { "name": "PT #10089", "street": "19700 NW 27th Ave", "city": "Miami Gardens", "state": "FL", "zip": "33056", "latitude": 25.9531796, "longitude": -80.2463478, "phone": "(305) 622-6687", "slug": "pollo-tropical-nw-27-avemiami-gardens-fl", "state_name": "Florida", "brand": "Pollo Tropical", "updated": "2024-03-09" }, "geometry": { "type": "Point", "coordinates": [ -80.2463478, 25.9531796 ] } },
{ "type": "Feature", "properties": { "name": "PT #10090", "street": "5780 S. University Dr", "city": "Davie", "state": "FL", "zip": "33314", "latitude": 26.0485827, "longitude": -80.2510811, "phone": "(954) 252-8434", "slug": "pollo-tropical-sterling-s-univ-drdavie-fl", "state_name": "Florida", "brand": "Pollo Tropical", "updated": "2024-03-09" }, "geometry": { "type": "Point", "coordinates": [ -80.2510811, 26.0485827 ] } }
]
}
