[
    {
        "store_id":"59",
        "store_name":"Arcadia",
        "latitude":"34.13165100",
        "longitude":"-118.06573800",
        "phone":"626-241-9300",
        "street":"1101 Huntington",
        "city":"Arcadia",
        "state":"CA",
        "zip":"91007",
        "state_name":"California",
        "brand":"Hmart"
    },
    {
        "store_id":"66",
        "store_name":"Katy",
        "latitude":"29.79384000",
        "longitude":"-95.77806000",
        "phone":"832-234-0340 ",
        "street":"23119 Colonial",
        "city":"Katy",
        "state":"TX",
        "zip":"77449",
        "state_name":"Texas",
        "brand":"Hmart"
    },
    {
        "store_id":"79",
        "store_name":"Mesa",
        "latitude":"33.41363600",
        "longitude":"-111.87249600",
        "phone":"480\u2013207\u20134560",
        "street":"1919 Main",
        "city":"Mesa",
        "state":"AZ",
        "zip":"85201",
        "state_name":"Arizona",
        "brand":"Hmart"
    },
    {
        "store_id":"85",
        "store_name":"Flushing - Northern 144",
        "latitude":"40.76474210",
        "longitude":"-73.82054010",
        "phone":"718-412-5100",
        "street":"144-74 Northern",
        "city":"Flushing",
        "state":"NY",
        "zip":"11354",
        "state_name":"New York",
        "brand":"Hmart"
    },
    {
        "store_id":"88",
        "store_name":"Philadelphia",
        "latitude":"40.04500770",
        "longitude":"-75.11750370",
        "phone":"267-338-1700",
        "street":"6201 Front",
        "city":"Philadelphia",
        "state":"PA",
        "zip":"19120",
        "state_name":"Pennsylvania",
        "brand":"Hmart"
    },
    {
        "store_id":"89",
        "store_name":"Little Ferry",
        "latitude":"40.85588720",
        "longitude":"-74.03350080",
        "phone":"201-426-2060",
        "street":"260 Bergen",
        "city":"Little Ferry",
        "state":"NJ",
        "zip":"07643",
        "state_name":"New Jersey",
        "brand":"Hmart"
    },
    {
        "store_id":"97",
        "store_name":"San Francisco",
        "latitude":"37.71038490",
        "longitude":"-122.46762820",
        "phone":"650-993-7450",
        "street":"3995 Alemany",
        "city":"San Francisco",
        "state":"CA",
        "zip":"94132",
        "state_name":"California",
        "brand":"Hmart"
    },
    {
        "store_id":"101",
        "store_name":"Flushing - Roosevelt",
        "latitude":"40.76118000",
        "longitude":"-73.82492000",
        "phone":"917-563-3270",
        "street":"142-41 Roosevelt",
        "city":"Flushing",
        "state":"NY",
        "zip":"11354",
        "state_name":"New York",
        "brand":"Hmart"
    },
    {
        "store_id":"104",
        "store_name":"Pearl City",
        "latitude":"21.39432000",
        "longitude":"-157.96887200",
        "phone":"(808) 800-3420",
        "street":"850 Kamehameha",
        "city":"Pearl City",
        "state":"HI",
        "zip":"96782",
        "state_name":"Hawaii",
        "brand":"Hmart"
    },
    {
        "store_id":"107",
        "store_name":"Quincy",
        "latitude":"42.23806000",
        "longitude":"-70.98406000",
        "phone":"857-392-5029",
        "street":"101 Falls",
        "city":"Quincy",
        "state":"MA",
        "zip":"02169",
        "state_name":"Massachusetts",
        "brand":"Hmart"
    },
    {
        "store_id":"110",
        "store_name":"Irvine (WestPark)",
        "latitude":"33.68328000",
        "longitude":"-117.81319000",
        "phone":"949 - 265-8585",
        "street":"3825 Alton",
        "city":"Irvine",
        "state":"CA",
        "zip":"92606",
        "state_name":"California",
        "brand":"Hmart"
    },
    {
        "store_id":"122",
        "store_name":"Long Island City ",
        "latitude":"40.75222000",
        "longitude":"-73.91497000",
        "phone":"718-489-8580",
        "street":"48-18 Northern",
        "city":"Queens",
        "state":"NY",
        "zip":"11101",
        "state_name":"New York",
        "brand":"Hmart"
    },
    {
        "store_id":"128",
        "store_name":"Irvine (NorthPark)",
        "latitude":"33.72317000",
        "longitude":"-117.77176000",
        "phone":"949-739-7474",
        "street":"3931 Irvine",
        "city":"",
        "state":"CA",
        "zip":"92602",
        "state_name":"California",
        "brand":"Hmart"
    },
    {
        "store_id":"131",
        "store_name":"American Dream",
        "latitude":"40.80961000",
        "longitude":"-74.06782000",
        "phone":"201-559-3888",
        "street":"1 American Dream",
        "city":"East Rutherford",
        "state":"NJ",
        "zip":"07073",
        "state_name":"New Jersey",
        "brand":"Hmart"
    },
    {
        "store_id":"132",
        "store_name":"Brookline",
        "latitude":"42.34618610",
        "longitude":"-71.10822630",
        "phone":"617-991-2949",
        "street":"1028 Beacon",
        "city":"Brookline",
        "state":"MA",
        "zip":"02446",
        "state_name":"Massachusetts",
        "brand":"Hmart"
    },
    {
        "store_id":"135",
        "store_name":"Woodside",
        "latitude":"40.74528100",
        "longitude":"-73.90528100",
        "phone":"718-280-9995",
        "street":"59-18 Woodside",
        "city":"Queens",
        "state":"NY",
        "zip":"11377",
        "state_name":"New York",
        "brand":"Hmart"
    },
    {
        "store_id":"10",
        "store_name":"Buena Park",
        "latitude":"33.88672900",
        "longitude":"-117.99533700",
        "phone":"714-249-7070",
        "street":"5111 Beach",
        "city":"Buena Park",
        "state":"CA",
        "zip":"90621",
        "state_name":"California",
        "brand":"Hmart"
    },
    {
        "store_id":"52",
        "store_name":"Lakewood",
        "latitude":"33.84707500",
        "longitude":"-118.08269600",
        "phone":"562-303-9810",
        "street":"20137 Pioneer",
        "city":"Lakewood",
        "state":"CA",
        "zip":"90715",
        "state_name":"California",
        "brand":"Hmart"
    },
    {
        "store_id":"5",
        "store_name":"Diamond Bar",
        "latitude":"33.97421400",
        "longitude":"-117.83963700",
        "phone":"909-839-0300",
        "street":"2825 Diamond Bar",
        "city":"Diamond Bar",
        "state":"CA",
        "zip":"91765",
        "state_name":"California",
        "brand":"Hmart"
    },
    {
        "store_id":"12",
        "store_name":"Garden Grove",
        "latitude":"33.77483400",
        "longitude":"-117.97643500",
        "phone":"714-534-4113",
        "street":"8911 Garden Grove",
        "city":"Garden Grove",
        "state":"CA",
        "zip":"92844",
        "state_name":"California",
        "brand":"Hmart"
    },
    {
        "store_id":"13",
        "store_name":"Irvine",
        "latitude":"33.68921400",
        "longitude":"-117.83445100",
        "phone":"949-833-0111",
        "street":"2600 Alton",
        "city":"Irvine",
        "state":"CA",
        "zip":"92606",
        "state_name":"California",
        "brand":"Hmart"
    },
    {
        "store_id":"4",
        "store_name":"LA Madang",
        "latitude":"34.06270100",
        "longitude":"-118.30947200",
        "phone":"213-235-9560",
        "street":"621 Western",
        "city":"Los Angeles",
        "state":"CA",
        "zip":"90005",
        "state_name":"California",
        "brand":"Hmart"
    },
    {
        "store_id":"82",
        "store_name":"LA City Center",
        "latitude":"34.06327500",
        "longitude":"-118.29861300",
        "phone":"213-235-1917",
        "street":"3500 6th",
        "city":"Los Angeles",
        "state":"CA",
        "zip":"90020",
        "state_name":"California",
        "brand":"Hmart"
    },
    {
        "store_id":"6",
        "store_name":"San Diego",
        "latitude":"32.91100500",
        "longitude":"-117.14803100",
        "phone":"858-577-0060",
        "street":"9440 Mira Mesa",
        "city":"San Diego",
        "state":"CA",
        "zip":"92126",
        "state_name":"California",
        "brand":"Hmart"
    },
    {
        "store_id":"76",
        "store_name":"San Diego Balboa",
        "latitude":"32.82190000",
        "longitude":"-117.15726900",
        "phone":"(858) 836-9230",
        "street":"7725 Balboa",
        "city":"San Diego",
        "state":"CA",
        "zip":"92111",
        "state_name":"California",
        "brand":"Hmart"
    },
    {
        "store_id":"56",
        "store_name":"San Jose - De Anza",
        "latitude":"37.30417900",
        "longitude":"-122.03365300",
        "phone":"408-418-1601",
        "street":"1179 De Anza",
        "city":"San Jose",
        "state":"CA",
        "zip":"95129",
        "state_name":"California",
        "brand":"Hmart"
    },
    {
        "store_id":"63",
        "store_name":"San Jose - Oakland",
        "latitude":"37.38375700",
        "longitude":"-121.89459700",
        "phone":"408-599-5440 ",
        "street":"1710 Oakland",
        "city":"San Jose",
        "state":"CA",
        "zip":"95131",
        "state_name":"California",
        "brand":"Hmart"
    },
    {
        "store_id":"51",
        "store_name":"Torrance",
        "latitude":"33.80782900",
        "longitude":"-118.36053400",
        "phone":"310-974-6880",
        "street":"4340 PACIFIC",
        "city":"COAST HWYTORRANCE",
        "state":"CA",
        "zip":"90505",
        "state_name":"California",
        "brand":"Hmart"
    },
    {
        "store_id":"9",
        "store_name":"Doraville",
        "latitude":"33.90789700",
        "longitude":"-84.28816000",
        "phone":"770-986-2300",
        "street":"6035 Peachtree",
        "city":"Bldg BDoraville",
        "state":"GA",
        "zip":"30360",
        "state_name":"Georgia",
        "brand":"Hmart"
    },
    {
        "store_id":"72",
        "store_name":"LA K-Town",
        "latitude":"34.05540000",
        "longitude":"-118.30839700",
        "phone":"213-235-1666",
        "street":"928 Western",
        "city":"Los Angeles",
        "state":"CA",
        "zip":"90006",
        "state_name":"California",
        "brand":"Hmart"
    },
    {
        "store_id":"14",
        "store_name":"Duluth",
        "latitude":"33.96993000",
        "longitude":"-84.14323000",
        "phone":"678-543-4000",
        "street":"2550 Pleasant Hill",
        "city":"Duluth",
        "state":"GA",
        "zip":"30096",
        "state_name":"Georgia",
        "brand":"Hmart"
    },
    {
        "store_id":"15",
        "store_name":"Johns Creek",
        "latitude":"34.04534400",
        "longitude":"-84.17777600",
        "phone":"678-317-0240",
        "street":"10820 Abbotts Bridge",
        "city":"Johns Creek",
        "state":"GA",
        "zip":"30097",
        "state_name":"Georgia",
        "brand":"Hmart"
    },
    {
        "store_id":"16",
        "store_name":"Riverdale",
        "latitude":"33.58276200",
        "longitude":"-84.41292600",
        "phone":"678-435-0909",
        "street":"6335 85",
        "city":"Riverdale",
        "state":"GA",
        "zip":"30274",
        "state_name":"Georgia",
        "brand":"Hmart"
    },
    {
        "store_id":"17",
        "store_name":"Suwanee",
        "latitude":"34.02200000",
        "longitude":"-84.04486900",
        "phone":"770-932-9511",
        "street":"2700 Lawrenceville Suwanee",
        "city":"Suwanee",
        "state":"GA",
        "zip":"30024",
        "state_name":"Georgia",
        "brand":"Hmart"
    },
    {
        "store_id":"60",
        "store_name":"Chicago",
        "latitude":"41.87760300",
        "longitude":"-87.64469600",
        "phone":"312-966-4666",
        "street":"711 Jackson",
        "city":"Chicago",
        "state":"IL",
        "zip":"60661",
        "state_name":"Illinois",
        "brand":"Hmart"
    },
    {
        "store_id":"18",
        "store_name":"Glenview",
        "latitude":"42.09152200",
        "longitude":"-87.87414900",
        "phone":"847-510-6222",
        "street":"3385 Milwaukee",
        "city":"Northbrook",
        "state":"IL",
        "zip":"60062",
        "state_name":"Illinois",
        "brand":"Hmart"
    },
    {
        "store_id":"19",
        "store_name":"Niles",
        "latitude":"42.02303700",
        "longitude":"-87.80133400",
        "phone":"847-581-1212",
        "street":"801 Civic Center",
        "city":"Niles",
        "state":"IL",
        "zip":"",
        "state_name":"Illinois",
        "brand":"Hmart"
    },
    {
        "store_id":"20",
        "store_name":"Naperville",
        "latitude":"41.79756000",
        "longitude":"-88.12254200",
        "phone":"630-778-9800",
        "street":"1295 Ogden",
        "city":"Naperville",
        "state":"IL",
        "zip":"",
        "state_name":"Illinois",
        "brand":"Hmart"
    },
    {
        "store_id":"21",
        "store_name":"Schaumburg",
        "latitude":"42.05099400",
        "longitude":"-88.07771100",
        "phone":"847-781-0289",
        "street":"34 Golf",
        "city":"Schaumburg",
        "state":"IL",
        "zip":"60173",
        "state_name":"Illinois",
        "brand":"Hmart"
    },
    {
        "store_id":"26",
        "store_name":"Burlington",
        "latitude":"42.47320200",
        "longitude":"-71.20861900",
        "phone":"781-221-4570",
        "street":"3 Old Concord",
        "city":"Burlington",
        "state":"MA",
        "zip":"01803",
        "state_name":"Massachusetts",
        "brand":"Hmart"
    },
    {
        "store_id":"27",
        "store_name":"Cambridge",
        "latitude":"42.36501400",
        "longitude":"-71.10266000",
        "phone":"857-209-2747",
        "street":"581 Massachusetts",
        "city":"Cambridge",
        "state":"MA",
        "zip":"02139",
        "state_name":"Massachusetts",
        "brand":"Hmart"
    },
    {
        "store_id":"22",
        "store_name":"Catonsville",
        "latitude":"39.28243200",
        "longitude":"-76.75535000",
        "phone":"443-612-9020",
        "street":"800 Rolling",
        "city":"Catonsville",
        "state":"MD",
        "zip":"21228",
        "state_name":"Maryland",
        "brand":"Hmart"
    },
    {
        "store_id":"23",
        "store_name":"Ellicott City",
        "latitude":"39.28085300",
        "longitude":"-76.81644500",
        "phone":"443-574-3456",
        "street":"3301 Ridge",
        "city":"Ellicott City",
        "state":"MD",
        "zip":"21043",
        "state_name":"Maryland",
        "brand":"Hmart"
    },
    {
        "store_id":"58",
        "store_name":"Frederick",
        "latitude":"39.41874000",
        "longitude":"-77.44659300",
        "phone":"240-566-1405",
        "street":"1063 Patrick",
        "city":"Frederick",
        "state":"MD",
        "zip":"21702",
        "state_name":"Maryland",
        "brand":"Hmart"
    },
    {
        "store_id":"24",
        "store_name":"Gaithersburg",
        "latitude":"39.15402900",
        "longitude":"-77.19808700",
        "phone":"301-355-7499",
        "street":"9639 Lost Knife",
        "city":"Gaithersburg",
        "state":"MD",
        "zip":"20877",
        "state_name":"Maryland",
        "brand":"Hmart"
    },
    {
        "store_id":"25",
        "store_name":"Wheaton",
        "latitude":"39.05236700",
        "longitude":"-77.04958900",
        "phone":"301-942-5071",
        "street":"12015 Georgia",
        "city":"Wheaton",
        "state":"MD",
        "zip":"20902",
        "state_name":"Maryland",
        "brand":"Hmart"
    },
    {
        "store_id":"28",
        "store_name":"Troy",
        "latitude":"42.56565700",
        "longitude":"-83.09021600",
        "phone":"248-689-2222",
        "street":"2963 Big Beaver",
        "city":"Troy",
        "state":"MI",
        "zip":"",
        "state_name":"Michigan",
        "brand":"Hmart"
    },
    {
        "store_id":"55",
        "store_name":"Cary",
        "latitude":"35.78921600",
        "longitude":"-78.84865400",
        "phone":"919-535-5900",
        "street":"1961 High House",
        "city":"Cary",
        "state":"NC",
        "zip":"27519",
        "state_name":"North Carolina",
        "brand":"Hmart"
    },
    {
        "store_id":"62",
        "store_name":"Paramus",
        "latitude":"40.91578800",
        "longitude":"-74.07149100",
        "phone":"201-708-2820",
        "street":"60 17",
        "city":"Paramus",
        "state":"NJ",
        "zip":"07652",
        "state_name":"New Jersey",
        "brand":"Hmart"
    },
    {
        "store_id":"34",
        "store_name":"Cherry Hill",
        "latitude":"39.90775500",
        "longitude":"-74.97696400",
        "phone":"856-489-4611",
        "street":"1720 70",
        "city":"Cherry Hill",
        "state":"NJ",
        "zip":"08003",
        "state_name":"New Jersey",
        "brand":"Hmart"
    },
    {
        "store_id":"35",
        "store_name":"Edison",
        "latitude":"40.51365700",
        "longitude":"-74.40786600",
        "phone":"732-339-1530",
        "street":"1761 27 (Lincoln",
        "city":"Edison",
        "state":"NJ",
        "zip":"08817",
        "state_name":"New Jersey",
        "brand":"Hmart"
    },
    {
        "store_id":"7",
        "store_name":"Fort Lee",
        "latitude":"40.86108900",
        "longitude":"-73.97098400",
        "phone":"201-947-7800",
        "street":"112 Linwood",
        "city":"Fort Lee",
        "state":"NJ",
        "zip":"07024",
        "state_name":"New Jersey",
        "brand":"Hmart"
    },
    {
        "store_id":"36",
        "store_name":"Fort Lee - H Mart Fresh",
        "latitude":"40.84566800",
        "longitude":"-73.97966900",
        "phone":"201-944-9009",
        "street":"1379 16th",
        "city":"St. Fort Lee",
        "state":"NJ",
        "zip":"07024",
        "state_name":"New Jersey",
        "brand":"Hmart"
    },
    {
        "store_id":"37",
        "store_name":"Leonia",
        "latitude":"40.86144000",
        "longitude":"-73.98774600",
        "phone":"201-720-7005",
        "street":"315 Broad",
        "city":"Leonia",
        "state":"NJ",
        "zip":"07605",
        "state_name":"New Jersey",
        "brand":"Hmart"
    },
    {
        "store_id":"3",
        "store_name":"Ridgefield",
        "latitude":"40.82460500",
        "longitude":"-74.01065400",
        "phone":"201-943-9600",
        "street":"321 Broad",
        "city":"Ridgefield",
        "state":"NJ",
        "zip":"07657",
        "state_name":"New Jersey",
        "brand":"Hmart"
    },
    {
        "store_id":"1",
        "store_name":"Bayside",
        "latitude":"40.75387700",
        "longitude":"-73.78105200",
        "phone":"718-229-7400",
        "street":"46-40 Francis Lewis",
        "city":"Bayside",
        "state":"NY",
        "zip":"11361",
        "state_name":"New York",
        "brand":"Hmart"
    },
    {
        "store_id":"2",
        "store_name":"Flushing - Goowha",
        "latitude":"40.75916600",
        "longitude":"-73.82562400",
        "phone":"718-961-0999",
        "street":"142-06 41st",
        "city":"Flushing",
        "state":"NY",
        "zip":"11355",
        "state_name":"New York",
        "brand":"Hmart"
    },
    {
        "store_id":"29",
        "store_name":"Flushing - Northern 156",
        "latitude":"40.76399600",
        "longitude":"-73.80897900",
        "phone":"718-888-0005",
        "street":"156-40 Northern",
        "city":"Flushing",
        "state":"NY",
        "zip":"11354",
        "state_name":"New York",
        "brand":"Hmart"
    },
    {
        "store_id":"30",
        "store_name":"Flushing - Union",
        "latitude":"40.77196900",
        "longitude":"-73.82659500",
        "phone":"718-445-5656",
        "street":"29-02 Union",
        "city":"Flushing",
        "state":"NY",
        "zip":"11354",
        "state_name":"New York",
        "brand":"Hmart"
    },
    {
        "store_id":"31",
        "store_name":"Great Neck",
        "latitude":"40.77492900",
        "longitude":"-73.73270600",
        "phone":"516-482-3113",
        "street":"495 Great Neck",
        "city":"Great Neck",
        "state":"NY",
        "zip":"11021",
        "state_name":"New York",
        "brand":"Hmart"
    },
    {
        "store_id":"32",
        "store_name":"Hartsdale",
        "latitude":"41.02987100",
        "longitude":"-73.79042300",
        "phone":"914-448-8888",
        "street":"371 Central",
        "city":"Hartsdale",
        "state":"NY",
        "zip":"10530",
        "state_name":"New York",
        "brand":"Hmart"
    },
    {
        "store_id":"53",
        "store_name":"Jericho",
        "latitude":"40.78084400",
        "longitude":"-73.53277400",
        "phone":"516-513-5050  ",
        "street":"336 Broadway",
        "city":"Jericho",
        "state":"NY",
        "zip":"11753",
        "state_name":"New York",
        "brand":"Hmart"
    },
    {
        "store_id":"33",
        "store_name":"Williston Park",
        "latitude":"40.75436100",
        "longitude":"-73.65633300",
        "phone":"516-699-0270",
        "street":"400 Hillside",
        "city":"Williston Park",
        "state":"NY",
        "zip":"11596",
        "state_name":"New York",
        "brand":"Hmart"
    },
    {
        "store_id":"57",
        "store_name":"Yonkers",
        "latitude":"40.96159900",
        "longitude":"-73.84118400",
        "phone":"914-500-6550",
        "street":"1789 Central Park",
        "city":"Yonkers",
        "state":"NY",
        "zip":"10710-2839",
        "state_name":"New York",
        "brand":"Hmart"
    },
    {
        "store_id":"39",
        "store_name":"Elkins Park",
        "latitude":"40.06289000",
        "longitude":"-75.13695900",
        "phone":"215-782-1801",
        "street":"7320 Old York",
        "city":"Elkins Park",
        "state":"PA",
        "zip":"19027",
        "state_name":"Pennsylvania",
        "brand":"Hmart"
    },
    {
        "store_id":"40",
        "store_name":"Levittown",
        "latitude":"40.16569300",
        "longitude":"-74.87605200",
        "phone":"215-949-1003",
        "street":"1138 Bristol Oxford Valley",
        "city":"Levittown",
        "state":"PA",
        "zip":"",
        "state_name":"Pennsylvania",
        "brand":"Hmart"
    },
    {
        "store_id":"41",
        "store_name":"Upper Darby",
        "latitude":"39.96127400",
        "longitude":"-75.26284900",
        "phone":"610-734-1001",
        "street":"7050 Terminal",
        "city":"Upper Darby",
        "state":"PA",
        "zip":"19082",
        "state_name":"Pennsylvania",
        "brand":"Hmart"
    },
    {
        "store_id":"61",
        "store_name":"Austin",
        "latitude":"30.47945700",
        "longitude":"-97.79913500",
        "phone":"737-717-6900",
        "street":"11301 Lakeline",
        "city":"Austin",
        "state":"Tx",
        "zip":"78717",
        "state_name":null,
        "brand":"Hmart"
    },
    {
        "store_id":"73",
        "store_name":"Kaka\u2019ako",
        "latitude":"21.30002760",
        "longitude":"-157.86037840",
        "phone":"808-219-0924",
        "street":"458 Keawe",
        "city":"Honolulu",
        "state":"HI",
        "zip":"96813",
        "state_name":"Hawaii",
        "brand":"Hmart"
    },
    {
        "store_id":"42",
        "store_name":"Carrollton",
        "latitude":"32.98562000",
        "longitude":"-96.91151000",
        "phone":"972-323-9700",
        "street":"2625 Old Denton",
        "city":"Carrollton",
        "state":"TX",
        "zip":"75007",
        "state_name":"Texas",
        "brand":"Hmart"
    },
    {
        "store_id":"43",
        "store_name":"Houston Blalock",
        "latitude":"29.79278300",
        "longitude":"-95.52078700",
        "phone":"713-468-0606",
        "street":"1302 Blalock",
        "city":"Houston",
        "state":"TX",
        "zip":"77055",
        "state_name":"Texas",
        "brand":"Hmart"
    },
    {
        "store_id":"44",
        "store_name":"Houston Bellaire",
        "latitude":"29.70616200",
        "longitude":"-95.55407000",
        "phone":"713-270-1110",
        "street":"9896 Bellaire",
        "city":"Houston",
        "state":"TX",
        "zip":"77036",
        "state_name":"Texas",
        "brand":"Hmart"
    },
    {
        "store_id":"45",
        "store_name":"Plano",
        "latitude":"33.03978300",
        "longitude":"-96.69704100",
        "phone":"972-881-0300",
        "street":"3320 K",
        "city":"Plano",
        "state":"TX",
        "zip":"75074",
        "state_name":"Texas",
        "brand":"Hmart"
    },
    {
        "store_id":"46",
        "store_name":"Annandale",
        "latitude":"38.82614300",
        "longitude":"-77.21394300",
        "phone":"703-914-4222",
        "street":"7885 Heritage",
        "city":"Annandale",
        "state":"VA",
        "zip":"22003",
        "state_name":"Virginia",
        "brand":"Hmart"
    },
    {
        "store_id":"54",
        "store_name":"Burke",
        "latitude":"38.79567100",
        "longitude":"-77.27212100",
        "phone":"703-621-2345",
        "street":"9550 Burke",
        "city":"Burke",
        "state":"VA",
        "zip":"22015",
        "state_name":"Virginia",
        "brand":"Hmart"
    },
    {
        "store_id":"47",
        "store_name":"Centreville",
        "latitude":"38.83772500",
        "longitude":"-77.42711800",
        "phone":"703-830-6180",
        "street":"13818 Braddock",
        "city":"Centreville",
        "state":"VA",
        "zip":"20121",
        "state_name":"Virginia",
        "brand":"Hmart"
    },
    {
        "store_id":"48",
        "store_name":"Falls Church",
        "latitude":"38.87445300",
        "longitude":"-77.22497300",
        "phone":"703-573-6300",
        "street":"8103 Lee",
        "city":"HighwayFalls Church",
        "state":"VA",
        "zip":"22042",
        "state_name":"Virginia",
        "brand":"Hmart"
    },
    {
        "store_id":"49",
        "store_name":"Fairfax",
        "latitude":"38.85270800",
        "longitude":"-77.32364400",
        "phone":"703-896-4640",
        "street":"11200 Fairfax",
        "city":"Fairfax",
        "state":"VA",
        "zip":"22030",
        "state_name":"Virginia",
        "brand":"Hmart"
    },
    {
        "store_id":"50",
        "store_name":"Manassas",
        "latitude":"38.76302200",
        "longitude":"-77.45765600",
        "phone":"571-358-3400",
        "street":"8819 Centreville",
        "city":"Manassas",
        "state":"VA",
        "zip":"20110",
        "state_name":"Virginia",
        "brand":"Hmart"
    },
    {
        "store_id":"69",
        "store_name":"Herndon",
        "latitude":"38.96296100",
        "longitude":"-77.40042800",
        "phone":"571-346-7330",
        "street":"1228 Elden",
        "city":"Herndon",
        "state":"VA",
        "zip":"20170",
        "state_name":"Virginia",
        "brand":"Hmart"
    }
]