[
    {
        "store_number":744,
        "store_type":"Rack",
        "store_name":"Nordstrom Rack Market at Town Center",
        "street":"2665 Town Center Boulevard North",
        "city":"Sugar Land",
        "state":"TX",
        "zip":"77479",
        "phone":"281.566.2000",
        "latitude":29.5931065,
        "longitude":-95.6194639,
        "url":"https:\/\/stores.nordstromrack.com\/us\/tx\/sugar-land\/2665-town-center-blvd-n",
        "timezone":"America\/Chicago",
        "state_name":"Texas",
        "brand":"Nordstrom",
        "updated":"2024-03-31"
    },
    {
        "store_number":748,
        "store_type":"Rack",
        "store_name":"Nordstrom Rack Bunker Hill",
        "street":"9714 Katy Freeway",
        "city":"Houston",
        "state":"TX",
        "zip":"77055",
        "phone":"281.605.2705",
        "latitude":29.7874696,
        "longitude":-95.5335562,
        "url":"https:\/\/stores.nordstromrack.com\/us\/tx\/houston\/9714-katy-freeway",
        "timezone":"America\/Chicago",
        "state_name":"Texas",
        "brand":"Nordstrom",
        "updated":"2024-03-31"
    },
    {
        "store_number":730,
        "store_type":"FullLineStore",
        "store_name":"Nordstrom Houston Galleria",
        "street":"5192 Hidalgo Street",
        "city":"Houston",
        "state":"TX",
        "zip":"77056",
        "phone":"832.201.2700",
        "latitude":29.7358538,
        "longitude":-95.4642148,
        "url":"",
        "timezone":"America\/Chicago",
        "state_name":"Texas",
        "brand":"Nordstrom",
        "updated":"2024-03-31"
    },
    {
        "store_number":741,
        "store_type":"Rack",
        "store_name":"Nordstrom Rack Centre at Post Oak",
        "street":"5000 Westheimer Road, Suite 500",
        "city":"Houston",
        "state":"TX",
        "zip":"77056",
        "phone":"281.661.3600",
        "latitude":29.7421298,
        "longitude":-95.463177,
        "url":"https:\/\/stores.nordstromrack.com\/us\/tx\/houston\/5000-westheimer-rd",
        "timezone":"America\/Chicago",
        "state_name":"Texas",
        "brand":"Nordstrom",
        "updated":"2024-03-31"
    },
    {
        "store_number":747,
        "store_type":"Rack",
        "store_name":"Nordstrom Rack Willowbrook Mall",
        "street":"8000 Willowbrook Mall",
        "city":"Houston",
        "state":"TX",
        "zip":"77070",
        "phone":"832.688.2000",
        "latitude":29.974724,
        "longitude":-95.570652,
        "url":"https:\/\/stores.nordstromrack.com\/us\/tx\/houston\/8000-willowbrook-mall",
        "timezone":"America\/Chicago",
        "state_name":"Texas",
        "brand":"Nordstrom",
        "updated":"2024-03-31"
    },
    {
        "store_number":746,
        "store_type":"FullLineStore",
        "store_name":"Nordstrom The Woodlands",
        "street":"1201 Lake Woodlands Drive Ste 300",
        "city":"The Woodlands",
        "state":"TX",
        "zip":"77380",
        "phone":"832.562.4880",
        "latitude":30.1653706,
        "longitude":-95.4562439,
        "url":"",
        "timezone":"America\/Chicago",
        "state_name":"Texas",
        "brand":"Nordstrom",
        "updated":"2024-03-31"
    },
    {
        "store_number":713,
        "store_type":"Rack",
        "store_name":"Nordstrom Rack Portofino Shopping Center",
        "street":"19075 I-45 South, Suite 106",
        "city":"Shenandoah",
        "state":"TX",
        "zip":"77385",
        "phone":"936.206.3243",
        "latitude":30.1828738,
        "longitude":-95.4501395,
        "url":"https:\/\/stores.nordstromrack.com\/us\/tx\/shenandoah\/19075-i-45-south",
        "timezone":"America\/Chicago",
        "state_name":"Texas",
        "brand":"Nordstrom",
        "updated":"2024-03-31"
    },
    {
        "store_number":721,
        "store_type":"Rack",
        "store_name":"Nordstrom Rack Baybrook Square",
        "street":"1211 W Bay Area Boulevard",
        "city":"Webster",
        "state":"TX",
        "zip":"77598",
        "phone":"281.672.6000",
        "latitude":29.5376288,
        "longitude":-95.140845,
        "url":"https:\/\/stores.nordstromrack.com\/us\/tx\/webster\/1211-w-bay-area-blvd",
        "timezone":"America\/Chicago",
        "state_name":"Texas",
        "brand":"Nordstrom",
        "updated":"2024-03-31"
    },
    {
        "store_number":280,
        "store_type":"Rack",
        "store_name":"Nordstrom Rack South Loop",
        "street":"1118 South Canal Street",
        "city":"Chicago",
        "state":"IL",
        "zip":"60607",
        "phone":"312.276.6201",
        "latitude":41.8684423,
        "longitude":-87.6400906,
        "url":"https:\/\/stores.nordstromrack.com\/us\/il\/chicago\/1118-south-canal-street",
        "timezone":"America\/Chicago",
        "state_name":"Illinois",
        "brand":"Nordstrom",
        "updated":"2024-03-31"
    },
    {
        "store_number":274,
        "store_type":"Rack",
        "store_name":"Nordstrom Rack The Shops at State and Washington",
        "street":"24 North State Street",
        "city":"Chicago",
        "state":"IL",
        "zip":"60602",
        "phone":"312.377.5500",
        "latitude":41.8828688,
        "longitude":-87.6281908,
        "url":"https:\/\/stores.nordstromrack.com\/us\/il\/chicago\/24-n-state-st",
        "timezone":"America\/Chicago",
        "state_name":"Illinois",
        "brand":"Nordstrom",
        "updated":"2024-03-31"
    },
    {
        "store_number":220,
        "store_type":"FullLineStore",
        "store_name":"Nordstrom Michigan Avenue",
        "street":"55 East Grand Avenue",
        "city":"Chicago",
        "state":"IL",
        "zip":"60611",
        "phone":"312.464.1515",
        "latitude":41.891698,
        "longitude":-87.62628,
        "url":"",
        "timezone":"America\/Chicago",
        "state_name":"Illinois",
        "brand":"Nordstrom",
        "updated":"2024-03-31"
    },
    {
        "store_number":245,
        "store_type":"Rack",
        "store_name":"Nordstrom Rack Chicago Avenue",
        "street":"101 East Chicago Avenue",
        "city":"Chicago",
        "state":"IL",
        "zip":"60611",
        "phone":"312.254.3660",
        "latitude":41.8965654,
        "longitude":-87.6253783,
        "url":"https:\/\/stores.nordstromrack.com\/us\/il\/chicago\/101-e-chicago-ave",
        "timezone":"America\/Chicago",
        "state_name":"Illinois",
        "brand":"Nordstrom",
        "updated":"2024-03-31"
    },
    {
        "store_number":268,
        "store_type":"Rack",
        "store_name":"Nordstrom Rack Lincoln Park",
        "street":"1551 North Sheffield Avenue",
        "city":"Chicago",
        "state":"IL",
        "zip":"60642",
        "phone":"312.624.6031",
        "latitude":41.9102172,
        "longitude":-87.6529438,
        "url":"https:\/\/stores.nordstromrack.com\/us\/il\/chicago\/1551-north-sheffield-ave",
        "timezone":"America\/Chicago",
        "state_name":"Illinois",
        "brand":"Nordstrom",
        "updated":"2024-03-31"
    },
    {
        "store_number":264,
        "store_type":"Rack",
        "store_name":"Nordstrom Rack Harlem Irving Plaza",
        "street":"4250 North Harlem Avenue",
        "city":"Norridge",
        "state":"IL",
        "zip":"60706",
        "phone":"708.842.5300",
        "latitude":41.9574173,
        "longitude":-87.8088748,
        "url":"https:\/\/stores.nordstromrack.com\/us\/il\/norridge\/4250-n-harlem-ave",
        "timezone":"America\/Chicago",
        "state_name":"Illinois",
        "brand":"Nordstrom",
        "updated":"2024-03-31"
    },
    {
        "store_number":221,
        "store_type":"FullLineStore",
        "store_name":"Nordstrom Oakbrook Center",
        "street":"10 Oakbrook Center",
        "city":"Oak Brook",
        "state":"IL",
        "zip":"60523",
        "phone":"630.571.2121",
        "latitude":41.8524435,
        "longitude":-87.9511484,
        "url":"",
        "timezone":"America\/Chicago",
        "state_name":"Illinois",
        "brand":"Nordstrom",
        "updated":"2024-03-31"
    },
    {
        "store_number":242,
        "store_type":"Rack",
        "store_name":"Nordstrom Rack Orland Park Place",
        "street":"140 Orland Park Place",
        "city":"Orland Park",
        "state":"IL",
        "zip":"60462",
        "phone":"708.428.2600",
        "latitude":41.6121664,
        "longitude":-87.8510026,
        "url":"https:\/\/stores.nordstromrack.com\/us\/il\/orland-park\/140-orland-park-place",
        "timezone":"America\/Chicago",
        "state_name":"Illinois",
        "brand":"Nordstrom",
        "updated":"2024-03-31"
    },
    {
        "store_number":270,
        "store_type":"Rack",
        "store_name":"Nordstrom Rack The Shops at Oak Brook Place",
        "street":"2155 West 22nd Street",
        "city":"Oak Brook",
        "state":"IL",
        "zip":"60523",
        "phone":"630.572.1212",
        "latitude":41.8451525,
        "longitude":-87.9710484,
        "url":"https:\/\/stores.nordstromrack.com\/us\/il\/oak-brook\/2155-w-22nd-st",
        "timezone":"America\/Chicago",
        "state_name":"Illinois",
        "brand":"Nordstrom",
        "updated":"2024-03-31"
    },
    {
        "store_number":289,
        "store_type":"Rack",
        "store_name":"Nordstrom Rack Fashion Outlets of Chicago",
        "street":"5220 Fashion Outlets Way, #2325",
        "city":"Rosemont",
        "state":"IL",
        "zip":"60018",
        "phone":"847.349.6000",
        "latitude":41.974961,
        "longitude":-87.8671134,
        "url":"https:\/\/stores.nordstromrack.com\/us\/il\/rosemont\/5220-fashion-outlets-way",
        "timezone":"America\/Chicago",
        "state_name":"Illinois",
        "brand":"Nordstrom",
        "updated":"2024-03-31"
    },
    {
        "store_number":260,
        "store_type":"LastChance",
        "store_name":"Last Chance Yorktown Center",
        "street":"100 Yorktown Shopping Center",
        "city":"Lombard",
        "state":"IL",
        "zip":"60148",
        "phone":"630.599.2011",
        "latitude":41.8394982,
        "longitude":-88.0074695,
        "url":"https:\/\/stores.nordstromrack.com\/us\/il\/lombard\/100-yorktown-shopping-center",
        "timezone":"America\/Chicago",
        "state_name":"Illinois",
        "brand":"Nordstrom",
        "updated":"2024-03-31"
    },
    {
        "store_number":244,
        "store_type":"Rack",
        "store_name":"Nordstrom Rack Shops at Orchard Place",
        "street":"9625 Skokie Boulevard",
        "city":"Skokie",
        "state":"IL",
        "zip":"60077",
        "phone":"847.324.2000",
        "latitude":42.0561989,
        "longitude":-87.7449924,
        "url":"https:\/\/stores.nordstromrack.com\/us\/il\/skokie\/9625-skokie-blvd",
        "timezone":"America\/Chicago",
        "state_name":"Illinois",
        "brand":"Nordstrom",
        "updated":"2024-03-31"
    },
    {
        "store_number":223,
        "store_type":"FullLineStore",
        "store_name":"Nordstrom Old Orchard Center",
        "street":"4937 Old Orchard Center",
        "city":"Skokie",
        "state":"IL",
        "zip":"60077",
        "phone":"847.677.2121",
        "latitude":42.0562274,
        "longitude":-87.7498573,
        "url":"",
        "timezone":"America\/Chicago",
        "state_name":"Illinois",
        "brand":"Nordstrom",
        "updated":"2024-03-31"
    },
    {
        "store_number":265,
        "store_type":"Rack",
        "store_name":"Nordstrom Rack Schererville",
        "street":"185 US Highway 41",
        "city":"Schererville",
        "state":"IN",
        "zip":"46375",
        "phone":"219.227.3960",
        "latitude":41.5189788,
        "longitude":-87.4693247,
        "url":"https:\/\/stores.nordstromrack.com\/us\/in\/schererville\/185-us-highway-41",
        "timezone":"America\/Chicago",
        "state_name":"Indiana",
        "brand":"Nordstrom",
        "updated":"2024-03-31"
    },
    {
        "store_number":225,
        "store_type":"FullLineStore",
        "store_name":"Nordstrom Woodfield Shopping Center",
        "street":"6 Woodfield Shopping Center",
        "city":"Schaumburg",
        "state":"IL",
        "zip":"60173",
        "phone":"847.605.2121",
        "latitude":42.0454143,
        "longitude":-88.0401296,
        "url":"",
        "timezone":"America\/Chicago",
        "state_name":"Illinois",
        "brand":"Nordstrom",
        "updated":"2024-03-31"
    },
    {
        "store_number":269,
        "store_type":"Rack",
        "store_name":"Nordstrom Rack Springbrook Prairie Pavilion",
        "street":"2511 West 75th Street",
        "city":"Naperville",
        "state":"IL",
        "zip":"60540",
        "phone":"630.995.4040",
        "latitude":41.7490501,
        "longitude":-88.1970538,
        "url":"https:\/\/stores.nordstromrack.com\/us\/il\/naperville\/2511-w-75th-st",
        "timezone":"America\/Chicago",
        "state_name":"Illinois",
        "brand":"Nordstrom",
        "updated":"2024-03-31"
    },
    {
        "store_number":224,
        "store_type":"Rack",
        "store_name":"Nordstrom Rack Woodfield",
        "street":"1520 East Golf Road",
        "city":"Schaumburg",
        "state":"IL",
        "zip":"60173",
        "phone":"847.413.2121",
        "latitude":42.0526028,
        "longitude":-88.0391761,
        "url":"https:\/\/stores.nordstromrack.com\/us\/il\/schaumburg\/1520-e-golf-rd",
        "timezone":"America\/Chicago",
        "state_name":"Illinois",
        "brand":"Nordstrom",
        "updated":"2024-03-31"
    },
    {
        "store_number":229,
        "store_type":"Rack",
        "store_name":"Nordstrom Rack Northbrook",
        "street":"199 Skokie Boulevard",
        "city":"Northbrook",
        "state":"IL",
        "zip":"60062",
        "phone":"847.205.0890",
        "latitude":42.1493218,
        "longitude":-87.7976757,
        "url":"https:\/\/stores.nordstromrack.com\/us\/il\/northbrook\/199-skokie-blvd",
        "timezone":"America\/Chicago",
        "state_name":"Illinois",
        "brand":"Nordstrom",
        "updated":"2024-03-31"
    },
    {
        "store_number":285,
        "store_type":"Rack",
        "store_name":"Nordstrom Rack Kildeer Village Square",
        "street":"20393 North Rand Road, Suite 104",
        "city":"Kildeer",
        "state":"IL",
        "zip":"60074",
        "phone":"224.286.5000",
        "latitude":42.1617367,
        "longitude":-88.0475043,
        "url":"https:\/\/stores.nordstromrack.com\/us\/il\/kildeer\/20393-north-rand-road",
        "timezone":"America\/Chicago",
        "state_name":"Illinois",
        "brand":"Nordstrom",
        "updated":"2024-03-31"
    },
    {
        "store_number":253,
        "store_type":"Rack",
        "store_name":"Nordstrom Rack Vernon Hills",
        "street":"901 N. Milwaukee Avenue, Unit #600",
        "city":"Vernon Hills",
        "state":"IL",
        "zip":"60061",
        "phone":"224.206.8000",
        "latitude":42.2427109,
        "longitude":-87.9420027,
        "url":"https:\/\/stores.nordstromrack.com\/us\/il\/vernon-hills\/901-n-milwaukee-avenue",
        "timezone":"America\/Chicago",
        "state_name":"Illinois",
        "brand":"Nordstrom",
        "updated":"2024-03-31"
    },
    {
        "store_number":287,
        "store_type":"Rack",
        "store_name":"Nordstrom Rack Algonquin Commons",
        "street":"1808 South Randall Road",
        "city":"Algonquin",
        "state":"IL",
        "zip":"60102",
        "phone":"224.509.3960",
        "latitude":42.1525173,
        "longitude":-88.3398035,
        "url":"https:\/\/stores.nordstromrack.com\/us\/il\/algonquin\/1808-south-randall-road",
        "timezone":"America\/Chicago",
        "state_name":"Illinois",
        "brand":"Nordstrom",
        "updated":"2024-03-31"
    },
    {
        "store_number":202,
        "store_type":"NordstromLocal",
        "store_name":"Nordstrom Local Upper East Side",
        "street":"1273 3rd Ave",
        "city":"New York",
        "state":"NY",
        "zip":"10021",
        "phone":"332.204.9050",
        "latitude":40.7705147,
        "longitude":-73.9597829,
        "url":"",
        "timezone":"America\/New_York",
        "state_name":"New York",
        "brand":"Nordstrom",
        "updated":"2024-03-31"
    },
    {
        "store_number":210,
        "store_type":"FullLineStore",
        "store_name":"Nordstrom NYC Flagship",
        "street":"225 W 57TH ST",
        "city":"New York",
        "state":"NY",
        "zip":"10019",
        "phone":"212.295.2000",
        "latitude":40.7666966,
        "longitude":-73.9821026,
        "url":"",
        "timezone":"America\/New_York",
        "state_name":"New York",
        "brand":"Nordstrom",
        "updated":"2024-03-31"
    },
    {
        "store_number":212,
        "store_type":"FullLineStore",
        "store_name":"Nordstrom Men's Store NYC",
        "street":"235 West 57th Street",
        "city":"New York",
        "state":"NY",
        "zip":"10019",
        "phone":"212.843.5100",
        "latitude":40.7666966,
        "longitude":-73.9821026,
        "url":"",
        "timezone":"America\/New_York",
        "state_name":"New York",
        "brand":"Nordstrom",
        "updated":"2024-03-31"
    },
    {
        "store_number":513,
        "store_type":"Rack",
        "store_name":"Nordstrom Rack Gateway Center",
        "street":"550 Gateway Drive #2",
        "city":"Brooklyn",
        "state":"NY",
        "zip":"11239",
        "phone":"718.223.2420",
        "latitude":40.651405,
        "longitude":-73.868625,
        "url":"https:\/\/stores.nordstromrack.com\/us\/ny\/brooklyn\/550-gateway-dr",
        "timezone":"America\/New_York",
        "state_name":"New York",
        "brand":"Nordstrom",
        "updated":"2024-03-31"
    },
    {
        "store_number":509,
        "store_type":"Rack",
        "store_name":"Nordstrom Rack 31st & 6th",
        "street":"865 Avenue of the Americas",
        "city":"New York",
        "state":"NY",
        "zip":"10001",
        "phone":"646.861.5440",
        "latitude":40.747676,
        "longitude":-73.989355,
        "url":"https:\/\/stores.nordstromrack.com\/us\/ny\/new-york\/865-avenue-of-the-americas",
        "timezone":"America\/New_York",
        "state_name":"New York",
        "brand":"Nordstrom",
        "updated":"2024-03-31"
    },
    {
        "store_number":515,
        "store_type":"Rack",
        "store_name":"Nordstrom Rack Union Square",
        "street":"60 East 14th Street",
        "city":"New York",
        "state":"NY",
        "zip":"10003",
        "phone":"212.220.2080",
        "latitude":40.734615,
        "longitude":-73.990373,
        "url":"https:\/\/stores.nordstromrack.com\/us\/ny\/new-york\/60-e-14th-st",
        "timezone":"America\/New_York",
        "state_name":"New York",
        "brand":"Nordstrom",
        "updated":"2024-03-31"
    },
    {
        "store_number":201,
        "store_type":"NordstromLocal",
        "store_name":"Nordstrom Local West Village",
        "street":"13 7th Ave",
        "city":"New York",
        "state":"NY",
        "zip":"10011",
        "phone":"332.204.8965",
        "latitude":40.7369182,
        "longitude":-74.0006617,
        "url":"",
        "timezone":"America\/New_York",
        "state_name":"New York",
        "brand":"Nordstrom",
        "updated":"2024-03-31"
    },
    {
        "store_number":548,
        "store_type":"Rack",
        "store_name":"Nordstrom Rack Manhasset Center",
        "street":"1400 Northern Boulevard",
        "city":"Manhasset",
        "state":"NY",
        "zip":"11030",
        "phone":"516.467.2250",
        "latitude":40.793029,
        "longitude":-73.69523,
        "url":"https:\/\/stores.nordstromrack.com\/us\/ny\/manhasset\/1400-northern-blvd",
        "timezone":"America\/New_York",
        "state_name":"New York",
        "brand":"Nordstrom",
        "updated":"2024-03-31"
    },
    {
        "store_number":524,
        "store_type":"FullLineStore",
        "store_name":"Nordstrom Roosevelt Field",
        "street":"630 Old Country Road",
        "city":"Garden City",
        "state":"NY",
        "zip":"11530",
        "phone":"516.746.0011",
        "latitude":40.74312,
        "longitude":-73.614303,
        "url":"",
        "timezone":"America\/New_York",
        "state_name":"New York",
        "brand":"Nordstrom",
        "updated":"2024-03-31"
    },
    {
        "store_number":529,
        "store_type":"Rack",
        "store_name":"Nordstrom Rack The Gallery At Westbury Plaza",
        "street":"1040 Old Country Road",
        "city":"Garden City",
        "state":"NY",
        "zip":"11530",
        "phone":"516.222.5544",
        "latitude":40.745172,
        "longitude":-73.604139,
        "url":"https:\/\/stores.nordstromrack.com\/us\/ny\/garden-city\/1040-old-country-rd",
        "timezone":"America\/New_York",
        "state_name":"New York",
        "brand":"Nordstrom",
        "updated":"2024-03-31"
    },
    {
        "store_number":511,
        "store_type":"Rack",
        "store_name":"Nordstrom Rack Staten Island",
        "street":"15 Richmond Terrace, Suite 301",
        "city":"Staten Island",
        "state":"NY",
        "zip":"10301",
        "phone":"929.464.2827",
        "latitude":40.644341,
        "longitude":-74.07668,
        "url":"https:\/\/stores.nordstromrack.com\/us\/ny\/staten-island\/15-richmond-terrace",
        "timezone":"America\/New_York",
        "state_name":"New York",
        "brand":"Nordstrom",
        "updated":"2024-03-31"
    },
    {
        "store_number":539,
        "store_type":"Rack",
        "store_name":"Nordstrom Rack Bergen Town Center",
        "street":"510 Bergen Town Center",
        "city":"Paramus",
        "state":"NJ",
        "zip":"07652",
        "phone":"201.518.2170",
        "latitude":40.916691,
        "longitude":-74.059785,
        "url":"https:\/\/stores.nordstromrack.com\/us\/nj\/paramus\/510-bergen-town-center",
        "timezone":"America\/New_York",
        "state_name":"New Jersey",
        "brand":"Nordstrom",
        "updated":"2024-03-31"
    },
    {
        "store_number":520,
        "store_type":"FullLineStore",
        "store_name":"Nordstrom Garden State Plaza",
        "street":"501 Garden State Plaza",
        "city":"Paramus",
        "state":"NJ",
        "zip":"07652",
        "phone":"201.843.1122",
        "latitude":40.920968,
        "longitude":-74.074472,
        "url":"",
        "timezone":"America\/New_York",
        "state_name":"New Jersey",
        "brand":"Nordstrom",
        "updated":"2024-03-31"
    },
    {
        "store_number":519,
        "store_type":"Rack",
        "store_name":"Nordstrom Rack White Plains",
        "street":"3 City Place",
        "city":"White Plains",
        "state":"NY",
        "zip":"10601",
        "phone":"914.614.6400",
        "latitude":41.033175,
        "longitude":-73.76502,
        "url":"https:\/\/stores.nordstromrack.com\/us\/ny\/white-plains\/3-city-place",
        "timezone":"America\/New_York",
        "state_name":"New York",
        "brand":"Nordstrom",
        "updated":"2024-03-31"
    },
    {
        "store_number":523,
        "store_type":"FullLineStore",
        "store_name":"Nordstrom The Westchester",
        "street":"135 Westchester Avenue",
        "city":"White Plains",
        "state":"NY",
        "zip":"10601",
        "phone":"914.946.1122",
        "latitude":41.032405,
        "longitude":-73.759783,
        "url":"",
        "timezone":"America\/New_York",
        "state_name":"New York",
        "brand":"Nordstrom",
        "updated":"2024-03-31"
    },
    {
        "store_number":649,
        "store_type":"Rack",
        "store_name":"Nordstrom Rack Wayne Town Center",
        "street":"141 State Route 23",
        "city":"Wayne",
        "state":"NJ",
        "zip":"07470",
        "phone":"973.200.2999",
        "latitude":40.891851,
        "longitude":-74.251816,
        "url":"https:\/\/stores.nordstromrack.com\/us\/nj\/wayne\/141-state-route-23",
        "timezone":"America\/New_York",
        "state_name":"New Jersey",
        "brand":"Nordstrom",
        "updated":"2024-03-31"
    },
    {
        "store_number":646,
        "store_type":"Rack",
        "store_name":"Nordstrom Rack Livingston Center",
        "street":"530 West Mount Pleasant Avenue",
        "city":"Livingston",
        "state":"NJ",
        "zip":"07039",
        "phone":"973.629.6100",
        "latitude":40.797006,
        "longitude":-74.349866,
        "url":"https:\/\/stores.nordstromrack.com\/us\/nj\/livingston\/530-west-mount-pleasant-avenue",
        "timezone":"America\/New_York",
        "state_name":"New Jersey",
        "brand":"Nordstrom",
        "updated":"2024-03-31"
    },
    {
        "store_number":527,
        "store_type":"FullLineStore",
        "store_name":"Nordstrom The Mall at Short Hills",
        "street":"1200 Morris Turnpike",
        "city":"Short Hills",
        "state":"NJ",
        "zip":"07078",
        "phone":"973.467.1500",
        "latitude":40.737785,
        "longitude":-74.364243,
        "url":"",
        "timezone":"America\/New_York",
        "state_name":"New Jersey",
        "brand":"Nordstrom",
        "updated":"2024-03-31"
    },
    {
        "store_number":521,
        "store_type":"FullLineStore",
        "store_name":"Nordstrom Menlo Park",
        "street":"449 Menlo Park Drive",
        "city":"Edison",
        "state":"NJ",
        "zip":"08837",
        "phone":"732.603.5000",
        "latitude":40.549965,
        "longitude":-74.334837,
        "url":"",
        "timezone":"America\/New_York",
        "state_name":"New Jersey",
        "brand":"Nordstrom",
        "updated":"2024-03-31"
    },
    {
        "store_number":538,
        "store_type":"FullLineStore",
        "store_name":"Nordstrom at The SoNo Collection",
        "street":"100 North Water Street, Suite A",
        "city":"Norwalk",
        "state":"CT",
        "zip":"06854",
        "phone":"203.642.2634",
        "latitude":41.096559,
        "longitude":-73.415761,
        "url":"",
        "timezone":"America\/New_York",
        "state_name":"Connecticut",
        "brand":"Nordstrom",
        "updated":"2024-03-31"
    },
    {
        "store_number":650,
        "store_type":"Rack",
        "store_name":"Nordstrom Rack Crossroads at Eatontown",
        "street":"231 Highway 35",
        "city":"Eatontown",
        "state":"NJ",
        "zip":"07724",
        "phone":"732.676.7200",
        "latitude":40.28711,
        "longitude":-74.051066,
        "url":"https:\/\/stores.nordstromrack.com\/us\/nj\/eatontown\/231-highway-35",
        "timezone":"America\/New_York",
        "state_name":"New Jersey",
        "brand":"Nordstrom",
        "updated":"2024-03-31"
    },
    {
        "store_number":647,
        "store_type":"Rack",
        "store_name":"Nordstrom Rack Rockaway Commons",
        "street":"343 Mount Hope Avenue",
        "city":"Rockaway",
        "state":"NJ",
        "zip":"07801",
        "phone":"973.620.6100",
        "latitude":40.91706,
        "longitude":-74.508792,
        "url":"https:\/\/stores.nordstromrack.com\/us\/nj\/rockaway\/343-mount-hope-ave",
        "timezone":"America\/New_York",
        "state_name":"New Jersey",
        "brand":"Nordstrom",
        "updated":"2024-03-31"
    },
    {
        "store_number":651,
        "store_type":"Rack",
        "store_name":"Nordstrom Rack Chimney Rock",
        "street":"362 Chimney Rock Road",
        "city":"Bound Brook",
        "state":"NJ",
        "zip":"08805",
        "phone":"732.627.3000",
        "latitude":40.56275,
        "longitude":-74.537075,
        "url":"https:\/\/stores.nordstromrack.com\/us\/nj\/bound-brook\/362-chimney-rock-rd",
        "timezone":"America\/New_York",
        "state_name":"New Jersey",
        "brand":"Nordstrom",
        "updated":"2024-03-31"
    },
    {
        "store_number":373,
        "store_type":"Rack",
        "store_name":"Nordstrom Rack The Fountains at Farah",
        "street":"8889 Gateway Boulevard West",
        "city":"El Paso",
        "state":"TX",
        "zip":"79925",
        "phone":"915.730.7900",
        "latitude":31.7699287,
        "longitude":-106.3695939,
        "url":"https:\/\/stores.nordstromrack.com\/us\/tx\/el-paso\/8889-gateway-blvd-w",
        "timezone":"America\/Denver",
        "state_name":"Texas",
        "brand":"Nordstrom",
        "updated":"2024-03-31"
    },
    {
        "store_number":163,
        "store_type":"Rack",
        "store_name":"Nordstrom Rack FIGat7th",
        "street":"735 South Figueroa Street",
        "city":"Los Angeles",
        "state":"CA",
        "zip":"90017",
        "phone":"213.995.5568",
        "latitude":34.0491696,
        "longitude":-118.2608507,
        "url":"https:\/\/stores.nordstromrack.com\/us\/ca\/los-angeles\/735-s-figueroa-st",
        "timezone":"America\/Los_Angeles",
        "state_name":"California",
        "brand":"Nordstrom",
        "updated":"2024-03-31"
    },
    {
        "store_number":349,
        "store_type":"FullLineStore",
        "store_name":"Nordstrom The Grove",
        "street":"189 The Grove Drive",
        "city":"Los Angeles",
        "state":"CA",
        "zip":"90036",
        "phone":"323.930.2230",
        "latitude":34.0713408,
        "longitude":-118.3570079,
        "url":"",
        "timezone":"America\/Los_Angeles",
        "state_name":"California",
        "brand":"Nordstrom",
        "updated":"2024-03-31"
    },
    {
        "store_number":347,
        "store_type":"Rack",
        "store_name":"Nordstrom Rack Westfield Culver City",
        "street":"6000 Sepulveda Blvd Ste #2581",
        "city":"Culver City",
        "state":"CA",
        "zip":"90230",
        "phone":"310.591.2728",
        "latitude":33.986504,
        "longitude":-118.3926522,
        "url":"https:\/\/stores.nordstromrack.com\/us\/ca\/culver-city\/6000-sepulveda-blvd",
        "timezone":"America\/Los_Angeles",
        "state_name":"California",
        "brand":"Nordstrom",
        "updated":"2024-03-31"
    },
    {
        "store_number":351,
        "store_type":"Rack",
        "store_name":"Nordstrom Rack Beverly Connection",
        "street":"100 North La Cienega Boulevard",
        "city":"Los Angeles",
        "state":"CA",
        "zip":"90048",
        "phone":"323.602.0282",
        "latitude":34.0745002,
        "longitude":-118.3755016,
        "url":"https:\/\/stores.nordstromrack.com\/us\/ca\/los-angeles\/100-n-la-cienega-blvd",
        "timezone":"America\/Los_Angeles",
        "state_name":"California",
        "brand":"Nordstrom",
        "updated":"2024-03-31"
    },
    {
        "store_number":45,
        "store_type":"NordstromLocal",
        "store_name":"Nordstrom Local Melrose",
        "street":"8401 Melrose Place",
        "city":"Los Angeles",
        "state":"CA",
        "zip":"90069",
        "phone":"323.602.2201",
        "latitude":34.0838354,
        "longitude":-118.3733858,
        "url":"",
        "timezone":"America\/Los_Angeles",
        "state_name":"California",
        "brand":"Nordstrom",
        "updated":"2024-03-31"
    },
    {
        "store_number":340,
        "store_type":"FullLineStore",
        "store_name":"Nordstrom at the Americana at Brand",
        "street":"102 Caruso Avenue",
        "city":"Glendale",
        "state":"CA",
        "zip":"91210",
        "phone":"818.502.9922",
        "latitude":34.1434712,
        "longitude":-118.2562835,
        "url":"",
        "timezone":"America\/Los_Angeles",
        "state_name":"California",
        "brand":"Nordstrom",
        "updated":"2024-03-31"
    },
    {
        "store_number":384,
        "store_type":"FullLineStore",
        "store_name":"Nordstrom Century City",
        "street":"10250 Santa Monica Blvd",
        "city":"Los Angeles",
        "state":"CA",
        "zip":"90067",
        "phone":"424.204.1177",
        "latitude":34.0581381,
        "longitude":-118.4178287,
        "url":"",
        "timezone":"America\/Los_Angeles",
        "state_name":"California",
        "brand":"Nordstrom",
        "updated":"2024-03-31"
    },
    {
        "store_number":350,
        "store_type":"Rack",
        "store_name":"Nordstrom Rack Glendale Fashion Center",
        "street":"227 North Glendale Avenue",
        "city":"Glendale",
        "state":"CA",
        "zip":"91206",
        "phone":"818.240.2404",
        "latitude":34.1494592,
        "longitude":-118.24764,
        "url":"https:\/\/stores.nordstromrack.com\/us\/ca\/glendale\/227-n-glendale-ave",
        "timezone":"America\/Los_Angeles",
        "state_name":"California",
        "brand":"Nordstrom",
        "updated":"2024-03-31"
    },
    {
        "store_number":162,
        "store_type":"Rack",
        "store_name":"Nordstrom Rack El Segundo",
        "street":"720 S Pacific Coast Highway",
        "city":"El Segundo",
        "state":"CA",
        "zip":"90245",
        "phone":"310.765.5461",
        "latitude":33.906663,
        "longitude":-118.394934,
        "url":"https:\/\/stores.nordstromrack.com\/us\/ca\/el-segundo\/720-s-pacific-coast-highway",
        "timezone":"America\/Los_Angeles",
        "state_name":"California",
        "brand":"Nordstrom",
        "updated":"2024-03-31"
    },
    {
        "store_number":370,
        "store_type":"Rack",
        "store_name":"Nordstrom Rack South Bay MarketPlace",
        "street":"1517 Hawthorne Boulevard",
        "city":"Redondo Beach",
        "state":"CA",
        "zip":"90278",
        "phone":"424.254.2448",
        "latitude":33.8684391,
        "longitude":-118.3547738,
        "url":"https:\/\/stores.nordstromrack.com\/us\/ca\/redondo-beach\/1517-hawthorne-blvd",
        "timezone":"America\/Los_Angeles",
        "state_name":"California",
        "brand":"Nordstrom",
        "updated":"2024-03-31"
    },
    {
        "store_number":486,
        "store_type":"NordstromLocal",
        "store_name":"Nordstrom Local Manhattan Beach",
        "street":"451 Manhattan Beach Blvd Suite D116",
        "city":"Manhattan Beach",
        "state":"CA",
        "zip":"90266",
        "phone":"424.409.2000",
        "latitude":33.885633,
        "longitude":-118.408171,
        "url":"",
        "timezone":"America\/Los_Angeles",
        "state_name":"California",
        "brand":"Nordstrom",
        "updated":"2024-03-31"
    },
    {
        "store_number":342,
        "store_type":"FullLineStore",
        "store_name":"Nordstrom Del Amo Fashion Center",
        "street":"21500 Hawthorne Boulevard",
        "city":"Torrance",
        "state":"CA",
        "zip":"90503",
        "phone":"310.542.9440",
        "latitude":33.8349221,
        "longitude":-118.3510822,
        "url":"",
        "timezone":"America\/Los_Angeles",
        "state_name":"California",
        "brand":"Nordstrom",
        "updated":"2024-03-31"
    },
    {
        "store_number":354,
        "store_type":"Rack",
        "store_name":"Nordstrom Rack Burbank Empire Center",
        "street":"1601 North Victory Place",
        "city":"Burbank",
        "state":"CA",
        "zip":"91502",
        "phone":"818.478.2930",
        "latitude":34.1887087,
        "longitude":-118.3288264,
        "url":"https:\/\/stores.nordstromrack.com\/us\/ca\/burbank\/1601-n-victory-place",
        "timezone":"America\/Los_Angeles",
        "state_name":"California",
        "brand":"Nordstrom",
        "updated":"2024-03-31"
    },
    {
        "store_number":167,
        "store_type":"Rack",
        "store_name":"Nordstrom Rack Cerritos Plaza",
        "street":"11111 183rd Street",
        "city":"Cerritos",
        "state":"CA",
        "zip":"90703",
        "phone":"562.565.6025",
        "latitude":33.8667339,
        "longitude":-118.0979983,
        "url":"https:\/\/stores.nordstromrack.com\/us\/ca\/cerritos\/11111-183rd-street",
        "timezone":"America\/Los_Angeles",
        "state_name":"California",
        "brand":"Nordstrom",
        "updated":"2024-03-31"
    },
    {
        "store_number":322,
        "store_type":"FullLineStore",
        "store_name":"Nordstrom Los Cerritos Center",
        "street":"300 Los Cerritos Center",
        "city":"Cerritos",
        "state":"CA",
        "zip":"90703",
        "phone":"562.924.0940",
        "latitude":33.8634588,
        "longitude":-118.0937519,
        "url":"",
        "timezone":"America\/Los_Angeles",
        "state_name":"California",
        "brand":"Nordstrom",
        "updated":"2024-03-31"
    },
    {
        "store_number":353,
        "store_type":"FullLineStore",
        "store_name":"Nordstrom Santa Monica",
        "street":"220 Broadway",
        "city":"Santa Monica",
        "state":"CA",
        "zip":"90401",
        "phone":"310.752.2701",
        "latitude":34.0135572,
        "longitude":-118.4948201,
        "url":"",
        "timezone":"America\/Los_Angeles",
        "state_name":"California",
        "brand":"Nordstrom",
        "updated":"2024-03-31"
    },
    {
        "store_number":332,
        "store_type":"Rack",
        "store_name":"Nordstrom Rack Long Beach Exchange",
        "street":"4260 E. Carson Street",
        "city":"Long Beach",
        "state":"CA",
        "zip":"90808",
        "phone":"562.249.6747",
        "latitude":33.8315808,
        "longitude":-118.1438188,
        "url":"https:\/\/stores.nordstromrack.com\/us\/ca\/long-beach\/4260-e-carson-street",
        "timezone":"America\/Los_Angeles",
        "state_name":"California",
        "brand":"Nordstrom",
        "updated":"2024-03-31"
    },
    {
        "store_number":54,
        "store_type":"NordstromLocal",
        "store_name":"Nordstrom Local Brentwood",
        "street":"214 26th Street",
        "city":"Santa Monica",
        "state":"CA",
        "zip":"90402",
        "phone":"213.995.5601",
        "latitude":34.0478609,
        "longitude":-118.491614,
        "url":"",
        "timezone":"America\/Los_Angeles",
        "state_name":"California",
        "brand":"Nordstrom",
        "updated":"2024-03-31"
    },
    {
        "store_number":352,
        "store_type":"Rack",
        "store_name":"Nordstrom Rack Hastings Village",
        "street":"3363 East Foothill Boulevard",
        "city":"Pasadena",
        "state":"CA",
        "zip":"91107",
        "phone":"626.264.9044",
        "latitude":34.1534115,
        "longitude":-118.0810352,
        "url":"https:\/\/stores.nordstromrack.com\/us\/ca\/pasadena\/3363-east-foothill-boulevard",
        "timezone":"America\/Los_Angeles",
        "state_name":"California",
        "brand":"Nordstrom",
        "updated":"2024-03-31"
    },
    {
        "store_number":413,
        "store_type":"Rack",
        "store_name":"Nordstrom NoHo West Rack",
        "street":"6150 Laurel Canyon Blvd Ste 160",
        "city":"North Hollywood",
        "state":"CA",
        "zip":"91606",
        "phone":"747.205.5655",
        "latitude":34.18079,
        "longitude":-118.39474,
        "url":"https:\/\/stores.nordstromrack.com\/us\/ca\/north-hollywood\/6140-laurel-canyon-blvd ",
        "timezone":"America\/Los_Angeles",
        "state_name":"California",
        "brand":"Nordstrom",
        "updated":"2024-03-31"
    },
    {
        "store_number":345,
        "store_type":"FullLineStore",
        "store_name":"Nordstrom Santa Anita",
        "street":"400 South Baldwin Avenue",
        "city":"Arcadia",
        "state":"CA",
        "zip":"91007",
        "phone":"626.821.6363",
        "latitude":34.1353439,
        "longitude":-118.0524237,
        "url":"",
        "timezone":"America\/Los_Angeles",
        "state_name":"California",
        "brand":"Nordstrom",
        "updated":"2024-03-31"
    },
    {
        "store_number":165,
        "store_type":"Rack",
        "store_name":"Nordstrom Rack Marina Pacifica",
        "street":"6274 East Pacific Coast Highway",
        "city":"Long Beach",
        "state":"CA",
        "zip":"90803",
        "phone":"562.546.6100",
        "latitude":33.7617429,
        "longitude":-118.1165637,
        "url":"https:\/\/stores.nordstromrack.com\/us\/ca\/long-beach\/6274-east-pacific-coast-highway",
        "timezone":"America\/Los_Angeles",
        "state_name":"California",
        "brand":"Nordstrom",
        "updated":"2024-03-31"
    },
    {
        "store_number":359,
        "store_type":"Rack",
        "store_name":"Nordstrom Rack West Covina Mall",
        "street":"1415 Plaza Drive",
        "city":"West Covina",
        "state":"CA",
        "zip":"91790",
        "phone":"626.404.2633",
        "latitude":34.0708681,
        "longitude":-117.9337506,
        "url":"https:\/\/stores.nordstromrack.com\/us\/ca\/west-covina\/1415-plaza-dr",
        "timezone":"America\/Los_Angeles",
        "state_name":"California",
        "brand":"Nordstrom",
        "updated":"2024-03-31"
    },
    {
        "store_number":321,
        "store_type":"FullLineStore",
        "store_name":"Nordstrom Brea Mall",
        "street":"500 Brea Mall Way",
        "city":"Brea",
        "state":"CA",
        "zip":"92821",
        "phone":"714.529.0123",
        "latitude":33.9158345,
        "longitude":-117.8881634,
        "url":"",
        "timezone":"America\/Los_Angeles",
        "state_name":"California",
        "brand":"Nordstrom",
        "updated":"2024-03-31"
    },
    {
        "store_number":329,
        "store_type":"Rack",
        "store_name":"Nordstrom Rack Brea Union Plaza",
        "street":"2345 East Imperial Highway",
        "city":"Brea",
        "state":"CA",
        "zip":"92821",
        "phone":"714.529.4222",
        "latitude":33.912927,
        "longitude":-117.8710473,
        "url":"https:\/\/stores.nordstromrack.com\/us\/ca\/brea\/2345-e-imperial-highway",
        "timezone":"America\/Los_Angeles",
        "state_name":"California",
        "brand":"Nordstrom",
        "updated":"2024-03-31"
    },
    {
        "store_number":358,
        "store_type":"Rack",
        "store_name":"Nordstrom Rack Topanga",
        "street":"21490 Victory Boulevard",
        "city":"Woodland Hills",
        "state":"CA",
        "zip":"91367",
        "phone":"818.884.6771",
        "latitude":34.1865097,
        "longitude":-118.5992518,
        "url":"https:\/\/stores.nordstromrack.com\/us\/ca\/woodland-hills\/21490-victory-blvd",
        "timezone":"America\/Los_Angeles",
        "state_name":"California",
        "brand":"Nordstrom",
        "updated":"2024-03-31"
    },
    {
        "store_number":341,
        "store_type":"FullLineStore",
        "store_name":"Nordstrom Topanga",
        "street":"21725 Victory Boulevard",
        "city":"Canoga Park",
        "state":"CA",
        "zip":"91303",
        "phone":"818.884.7900",
        "latitude":34.1887114,
        "longitude":-118.6026661,
        "url":"",
        "timezone":"America\/Los_Angeles",
        "state_name":"California",
        "brand":"Nordstrom",
        "updated":"2024-03-31"
    },
    {
        "store_number":356,
        "store_type":"Rack",
        "store_name":"Nordstrom Rack Edinger Plaza",
        "street":"7532 Edinger Avenue",
        "city":"Huntington Beach",
        "state":"CA",
        "zip":"92647",
        "phone":"657.204.7300",
        "latitude":33.7287923,
        "longitude":-117.9975843,
        "url":"https:\/\/stores.nordstromrack.com\/us\/ca\/huntington-beach\/7532-edinger-ave",
        "timezone":"America\/Los_Angeles",
        "state_name":"California",
        "brand":"Nordstrom",
        "updated":"2024-03-31"
    },
    {
        "store_number":164,
        "store_type":"Rack",
        "store_name":"Nordstrom Rack Porter Ranch",
        "street":"20039 W Rinaldi St, Suite 120",
        "city":"Porter Ranch",
        "state":"CA",
        "zip":"91326",
        "phone":"818.739.4140",
        "latitude":34.2769944,
        "longitude":-118.5712421,
        "url":"https:\/\/stores.nordstromrack.com\/us\/ca\/porter-ranch\/20039-w-rinaldi-st",
        "timezone":"America\/Los_Angeles",
        "state_name":"California",
        "brand":"Nordstrom",
        "updated":"2024-03-31"
    },
    {
        "store_number":336,
        "store_type":"Rack",
        "store_name":"Nordstrom Rack Outlets at Orange",
        "street":"20 City Boulevard West",
        "city":"Orange",
        "state":"CA",
        "zip":"92868",
        "phone":"714.202.3400",
        "latitude":33.7827076,
        "longitude":-117.8913689,
        "url":"https:\/\/stores.nordstromrack.com\/us\/ca\/orange\/20-city-blvd-w",
        "timezone":"America\/Los_Angeles",
        "state_name":"California",
        "brand":"Nordstrom",
        "updated":"2024-03-31"
    },
    {
        "store_number":338,
        "store_type":"Rack",
        "store_name":"Nordstrom Rack Metro Pointe at South Coast",
        "street":"901 S Coast Dr. Ste C",
        "city":"Costa Mesa",
        "state":"CA",
        "zip":"92626",
        "phone":"714.751.5901",
        "latitude":33.68869,
        "longitude":-117.8956107,
        "url":"https:\/\/stores.nordstromrack.com\/us\/ca\/costa-mesa\/901-s-coast-dr",
        "timezone":"America\/Los_Angeles",
        "state_name":"California",
        "brand":"Nordstrom",
        "updated":"2024-03-31"
    },
    {
        "store_number":320,
        "store_type":"FullLineStore",
        "store_name":"Nordstrom South Coast Plaza",
        "street":"3333 Bristol Street Suite 7000",
        "city":"Costa Mesa",
        "state":"CA",
        "zip":"92626",
        "phone":"714.549.8300",
        "latitude":33.6908033,
        "longitude":-117.8887855,
        "url":"",
        "timezone":"America\/Los_Angeles",
        "state_name":"California",
        "brand":"Nordstrom",
        "updated":"2024-03-31"
    },
    {
        "store_number":414,
        "store_type":"Rack",
        "store_name":"Nordstrom Anaheim Hills Festival Rack",
        "street":"8140 E Santa Ana Canyon Rd",
        "city":"Anaheim",
        "state":"CA",
        "zip":"92808",
        "phone":"657.888.6011",
        "latitude":33.86856,
        "longitude":-117.74877,
        "url":"https:\/\/stores.nordstromrack.com\/us\/ca\/anaheim\/8140-east-santa-ana-canyon-road",
        "timezone":"America\/Los_Angeles",
        "state_name":"California",
        "brand":"Nordstrom",
        "updated":"2024-03-31"
    },
    {
        "store_number":328,
        "store_type":"Rack",
        "store_name":"Nordstrom Rack Chino Spectrum Towne Centre",
        "street":"3849 Grand Avenue",
        "city":"Chino",
        "state":"CA",
        "zip":"91710",
        "phone":"909.591.0551",
        "latitude":33.9972709,
        "longitude":-117.7205974,
        "url":"https:\/\/stores.nordstromrack.com\/us\/ca\/chino\/3849-grand-ave",
        "timezone":"America\/Los_Angeles",
        "state_name":"California",
        "brand":"Nordstrom",
        "updated":"2024-03-31"
    },
    {
        "store_number":168,
        "store_type":"Rack",
        "store_name":"Nordstrom Rack Tustin Market Place",
        "street":"2882 El Camino Real",
        "city":"Tustin",
        "state":"CA",
        "zip":"92782",
        "phone":"714.689.3550",
        "latitude":33.7222732,
        "longitude":-117.7963744,
        "url":"https:\/\/stores.nordstromrack.com\/us\/ca\/tustin\/2882-el-camino-real",
        "timezone":"America\/Los_Angeles",
        "state_name":"California",
        "brand":"Nordstrom",
        "updated":"2024-03-31"
    },
    {
        "store_number":488,
        "store_type":"NordstromLocal",
        "store_name":"Nordstrom Local Newport Beach",
        "street":"2043 Westcliff Dr Suite 103",
        "city":"Newport Beach",
        "state":"CA",
        "zip":"92660",
        "phone":"949.763.2922",
        "latitude":33.627938,
        "longitude":-117.908089,
        "url":"",
        "timezone":"America\/Los_Angeles",
        "state_name":"California",
        "brand":"Nordstrom",
        "updated":"2024-03-31"
    },
    {
        "store_number":161,
        "store_type":"Rack",
        "store_name":"Nordstrom Rack The Promenade at Town Center Valencia",
        "street":"27095 McBean Parkway",
        "city":"Santa Clarita",
        "state":"CA",
        "zip":"91355",
        "phone":"661.388.2782",
        "latitude":34.4230899,
        "longitude":-118.5643412,
        "url":"https:\/\/stores.nordstromrack.com\/us\/ca\/santa-clarita\/27095-mcbean-parkway",
        "timezone":"America\/Los_Angeles",
        "state_name":"California",
        "brand":"Nordstrom",
        "updated":"2024-03-31"
    },
    {
        "store_number":333,
        "store_type":"FullLineStore",
        "store_name":"Nordstrom Fashion Island",
        "street":"901 Newport Center Drive",
        "city":"Newport Beach",
        "state":"CA",
        "zip":"92660",
        "phone":"949.610.0700",
        "latitude":33.6159538,
        "longitude":-117.877787,
        "url":"",
        "timezone":"America\/Los_Angeles",
        "state_name":"California",
        "brand":"Nordstrom",
        "updated":"2024-03-31"
    },
    {
        "store_number":334,
        "store_type":"Rack",
        "store_name":"Nordstrom Rack at Colonies Crossroads",
        "street":"1301 East 19th Street",
        "city":"Upland",
        "state":"CA",
        "zip":"91784",
        "phone":"909.912.6300",
        "latitude":34.132166,
        "longitude":-117.632614,
        "url":"https:\/\/stores.nordstromrack.com\/us\/ca\/upland\/1301-e-19th-st",
        "timezone":"America\/Los_Angeles",
        "state_name":"California",
        "brand":"Nordstrom",
        "updated":"2024-03-31"
    },
    {
        "store_number":396,
        "store_type":"Rack",
        "store_name":"Nordstrom Rack Janss Marketplace",
        "street":"145 West Hillcrest Drive",
        "city":"Thousand Oaks",
        "state":"CA",
        "zip":"91360",
        "phone":"805.852.2800",
        "latitude":34.1815983,
        "longitude":-118.8789694,
        "url":"https:\/\/stores.nordstromrack.com\/us\/ca\/thousand-oaks\/145-west-hillcrest-drive",
        "timezone":"America\/Los_Angeles",
        "state_name":"California",
        "brand":"Nordstrom",
        "updated":"2024-03-31"
    },
    {
        "store_number":348,
        "store_type":"FullLineStore",
        "store_name":"Nordstrom Thousand Oaks",
        "street":"346 West Hillcrest Drive",
        "city":"Thousand Oaks",
        "state":"CA",
        "zip":"91360",
        "phone":"805.418.4500",
        "latitude":34.1836602,
        "longitude":-118.8886533,
        "url":"",
        "timezone":"America\/Los_Angeles",
        "state_name":"California",
        "brand":"Nordstrom",
        "updated":"2024-03-31"
    },
    {
        "store_number":330,
        "store_type":"FullLineStore",
        "store_name":"Nordstrom Irvine Spectrum Center",
        "street":"800 Spectrum Center Drive",
        "city":"Irvine",
        "state":"CA",
        "zip":"92618",
        "phone":"949.255.2800",
        "latitude":33.648841,
        "longitude":-117.7427411,
        "url":"",
        "timezone":"America\/Los_Angeles",
        "state_name":"California",
        "brand":"Nordstrom",
        "updated":"2024-03-31"
    },
    {
        "store_number":374,
        "store_type":"Rack",
        "store_name":"Nordstrom Rack Ontario Mills Mall",
        "street":"4750 East Mills Circle",
        "city":"Ontario",
        "state":"CA",
        "zip":"91764",
        "phone":"909.476.3160",
        "latitude":34.0718367,
        "longitude":-117.5494711,
        "url":"https:\/\/stores.nordstromrack.com\/us\/ca\/ontario\/4750-e-mills-circle",
        "timezone":"America\/Los_Angeles",
        "state_name":"California",
        "brand":"Nordstrom",
        "updated":"2024-03-31"
    },
    {
        "store_number":337,
        "store_type":"Rack",
        "store_name":"Nordstrom Rack Laguna Hills Mall",
        "street":"23541 Calle de la Louisa",
        "city":"Laguna Hills",
        "state":"CA",
        "zip":"92653",
        "phone":"949.334.4924",
        "latitude":33.6105606,
        "longitude":-117.708874,
        "url":"https:\/\/stores.nordstromrack.com\/us\/ca\/laguna-hills\/23541-calle-de-la-louisa",
        "timezone":"America\/Los_Angeles",
        "state_name":"California",
        "brand":"Nordstrom",
        "updated":"2024-03-31"
    },
    {
        "store_number":160,
        "store_type":"Rack",
        "store_name":"Nordstrom Rack Laguna Niguel",
        "street":"27991 Greenfield Drive",
        "city":"Laguna Niguel",
        "state":"CA",
        "zip":"92677",
        "phone":"949.334.6250",
        "latitude":33.5571775,
        "longitude":-117.6872875,
        "url":"https:\/\/stores.nordstromrack.com\/us\/ca\/laguna-niguel\/27991-greenfield-drive",
        "timezone":"America\/Los_Angeles",
        "state_name":"California",
        "brand":"Nordstrom",
        "updated":"2024-03-31"
    },
    {
        "store_number":326,
        "store_type":"FullLineStore",
        "store_name":"Nordstrom The Shops at Mission Viejo",
        "street":"100 The Shops at Mission Viejo",
        "city":"Mission Viejo",
        "state":"CA",
        "zip":"92691",
        "phone":"949.347.2710",
        "latitude":33.5564551,
        "longitude":-117.670678,
        "url":"",
        "timezone":"America\/Los_Angeles",
        "state_name":"California",
        "brand":"Nordstrom",
        "updated":"2024-03-31"
    },
    {
        "store_number":357,
        "store_type":"Rack",
        "store_name":"Nordstrom Rack Riverside Plaza",
        "street":"3635 Riverside Plaza Dr Ste 120",
        "city":"Riverside",
        "state":"CA",
        "zip":"92506",
        "phone":"951.905.6272",
        "latitude":33.9552168,
        "longitude":-117.3919829,
        "url":"https:\/\/stores.nordstromrack.com\/us\/ca\/riverside\/3635-riverside-plaza-dr",
        "timezone":"America\/Los_Angeles",
        "state_name":"California",
        "brand":"Nordstrom",
        "updated":"2024-03-31"
    },
    {
        "store_number":555,
        "store_type":"Rack",
        "store_name":"Nordstrom Rack Mercer Mall",
        "street":"3371 US Highway 1",
        "city":"Lawrenceville",
        "state":"NJ",
        "zip":"08648",
        "phone":"609.524.2625",
        "latitude":40.29443,
        "longitude":-74.682951,
        "url":"https:\/\/stores.nordstromrack.com\/us\/nj\/lawrenceville\/3371-us-highway-1",
        "timezone":"America\/New_York",
        "state_name":"New Jersey",
        "brand":"Nordstrom",
        "updated":"2024-03-31"
    },
    {
        "store_number":656,
        "store_type":"Rack",
        "store_name":"Nordstrom Rack Lincoln Plaza",
        "street":"2424 East Lincoln Hwy, #500",
        "city":"Langhorne",
        "state":"PA",
        "zip":"19047",
        "phone":"267.590.7300",
        "latitude":40.180137,
        "longitude":-74.873474,
        "url":"https:\/\/stores.nordstromrack.com\/us\/pa\/langhorne\/2424-east-lincoln-highway",
        "timezone":"America\/New_York",
        "state_name":"Pennsylvania",
        "brand":"Nordstrom",
        "updated":"2024-03-31"
    },
    {
        "store_number":637,
        "store_type":"FullLineStore",
        "store_name":"Nordstrom Cherry Hill",
        "street":"2000 Route 38",
        "city":"Cherry Hill",
        "state":"NJ",
        "zip":"08002",
        "phone":"856.773.5600",
        "latitude":39.938872,
        "longitude":-75.025279,
        "url":"",
        "timezone":"America\/New_York",
        "state_name":"New Jersey",
        "brand":"Nordstrom",
        "updated":"2024-03-31"
    },
    {
        "store_number":642,
        "store_type":"Rack",
        "store_name":"Nordstrom Rack Towne Place at Garden State Park",
        "street":"951 Haddonfield Road, Suite A",
        "city":"Cherry Hill",
        "state":"NJ",
        "zip":"08002",
        "phone":"856.773.4111",
        "latitude":39.924589,
        "longitude":-75.033107,
        "url":"https:\/\/stores.nordstromrack.com\/us\/nj\/cherry-hill\/951-haddonfield-rd",
        "timezone":"America\/New_York",
        "state_name":"New Jersey",
        "brand":"Nordstrom",
        "updated":"2024-03-31"
    },
    {
        "store_number":544,
        "store_type":"Rack",
        "store_name":"Nordstrom Rack Willow Grove Park",
        "street":"2500 West Moreland Road",
        "city":"Willow Grove",
        "state":"PA",
        "zip":"19090",
        "phone":"215.449.3777",
        "latitude":40.142815,
        "longitude":-75.11965,
        "url":"https:\/\/stores.nordstromrack.com\/us\/pa\/willow-grove\/2500-w-moreland-rd",
        "timezone":"America\/New_York",
        "state_name":"Pennsylvania",
        "brand":"Nordstrom",
        "updated":"2024-03-31"
    },
    {
        "store_number":403,
        "store_type":"Rack",
        "store_name":"Nordstrom San Clemente Plaza Rack",
        "street":"550 Camino De Estrella Ste B",
        "city":"San Clemente",
        "state":"CA",
        "zip":"92672",
        "phone":"949.325.1184",
        "latitude":33.45696,
        "longitude":-117.65605,
        "url":"https:\/\/stores.nordstromrack.com\/us\/ca\/san-clemente\/550-camino-de-estrella",
        "timezone":"America\/Los_Angeles",
        "state_name":"California",
        "brand":"Nordstrom",
        "updated":"2024-03-31"
    },
    {
        "store_number":411,
        "store_type":"Rack",
        "store_name":"Nordstrom Rack Canyon Springs Marketplace",
        "street":"2660 CANYON SPRINGS PKWY",
        "city":"RIVERSIDE",
        "state":"CA",
        "zip":"92507",
        "phone":"951.497.4420",
        "latitude":33.980251,
        "longitude":-117.336137,
        "url":"https:\/\/stores.nordstromrack.com\/us\/ca\/riverside\/2660-canyon-springs-parkway",
        "timezone":"America\/Los_Angeles",
        "state_name":"California",
        "brand":"Nordstrom",
        "updated":"2024-03-31"
    },
    {
        "store_number":372,
        "store_type":"Rack",
        "store_name":"Nordstrom Rack Esplanade Shopping Center",
        "street":"261 Esplanade Drive",
        "city":"Oxnard",
        "state":"CA",
        "zip":"93030",
        "phone":"805.604.1122",
        "latitude":34.234147,
        "longitude":-119.1766938,
        "url":"https:\/\/stores.nordstromrack.com\/us\/ca\/oxnard\/261-esplanade-dr",
        "timezone":"America\/Los_Angeles",
        "state_name":"California",
        "brand":"Nordstrom",
        "updated":"2024-03-31"
    },
    {
        "store_number":691,
        "store_type":"Rack",
        "store_name":"Nordstrom The Village at Allen Rack",
        "street":"170 E Stacy Rd",
        "city":"Allen",
        "state":"TX",
        "zip":"75002",
        "phone":"972.737.6333",
        "latitude":33.12518,
        "longitude":-96.6549,
        "url":"https:\/\/stores.nordstromrack.com\/us\/tx\/allen\/170-e-stacy-road",
        "timezone":"America\/Chicago",
        "state_name":"Texas",
        "brand":"Nordstrom",
        "updated":"2024-03-31"
    },
    {
        "store_number":709,
        "store_type":"Rack",
        "store_name":"Nordstrom Rack The Centre at Preston Ridge",
        "street":"3241 Preston Road",
        "city":"Frisco",
        "state":"TX",
        "zip":"75034",
        "phone":"972.668.6860",
        "latitude":33.1059235,
        "longitude":-96.80909,
        "url":"https:\/\/stores.nordstromrack.com\/us\/tx\/frisco\/3241-preston-road",
        "timezone":"America\/Chicago",
        "state_name":"Texas",
        "brand":"Nordstrom",
        "updated":"2024-03-31"
    },
    {
        "store_number":724,
        "store_type":"FullLineStore",
        "store_name":"Nordstrom Stonebriar Centre",
        "street":"2613 Preston Road",
        "city":"Frisco",
        "state":"TX",
        "zip":"75034",
        "phone":"972.712.3794",
        "latitude":33.0999953,
        "longitude":-96.8122421,
        "url":"",
        "timezone":"America\/Chicago",
        "state_name":"Texas",
        "brand":"Nordstrom",
        "updated":"2024-03-31"
    },
    {
        "store_number":727,
        "store_type":"Rack",
        "store_name":"Nordstrom Rack Preston Shepard Place",
        "street":"1701 D-1 Preston Road",
        "city":"Plano",
        "state":"TX",
        "zip":"75093",
        "phone":"972.267.1414",
        "latitude":33.0229917,
        "longitude":-96.7986975,
        "url":"https:\/\/stores.nordstromrack.com\/us\/tx\/plano\/1701-d-1-preston-rd",
        "timezone":"America\/Chicago",
        "state_name":"Texas",
        "brand":"Nordstrom",
        "updated":"2024-03-31"
    },
    {
        "store_number":719,
        "store_type":"Rack",
        "store_name":"Nordstrom Rack Gallery on the Parkway",
        "street":"13900 Dallas Parkway",
        "city":"Dallas",
        "state":"TX",
        "zip":"75240",
        "phone":"214.234.2808",
        "latitude":32.9372788,
        "longitude":-96.8196344,
        "url":"https:\/\/stores.nordstromrack.com\/us\/tx\/dallas\/13900-dallas-pkwy",
        "timezone":"America\/Chicago",
        "state_name":"Texas",
        "brand":"Nordstrom",
        "updated":"2024-03-31"
    },
    {
        "store_number":720,
        "store_type":"FullLineStore",
        "store_name":"Nordstrom Galleria Dallas",
        "street":"5220 Alpha Road",
        "city":"Dallas",
        "state":"TX",
        "zip":"75240",
        "phone":"972.702.0055",
        "latitude":32.9325465,
        "longitude":-96.8194,
        "url":"",
        "timezone":"America\/Chicago",
        "state_name":"Texas",
        "brand":"Nordstrom",
        "updated":"2024-03-31"
    },
    {
        "store_number":723,
        "store_type":"FullLineStore",
        "store_name":"Nordstrom NorthPark Center",
        "street":"8687 N Central Expy Ste 2000",
        "city":"Dallas",
        "state":"TX",
        "zip":"75225",
        "phone":"214.231.3900",
        "latitude":32.8697969,
        "longitude":-96.7746854,
        "url":"",
        "timezone":"America\/Chicago",
        "state_name":"Texas",
        "brand":"Nordstrom",
        "updated":"2024-03-31"
    },
    {
        "store_number":738,
        "store_type":"Rack",
        "store_name":"Nordstrom Rack The Shops at Park Lane",
        "street":"8050 Park Lane",
        "city":"Dallas",
        "state":"TX",
        "zip":"75231",
        "phone":"214.932.6222",
        "latitude":32.868146,
        "longitude":-96.7690503,
        "url":"https:\/\/stores.nordstromrack.com\/us\/tx\/dallas\/8050-park-lane",
        "timezone":"America\/Chicago",
        "state_name":"Texas",
        "brand":"Nordstrom",
        "updated":"2024-03-31"
    },
    {
        "store_number":620,
        "store_type":"Rack",
        "store_name":"Nordstrom Denton Crossing Rack",
        "street":"1800 S Loop 288",
        "city":"Denton",
        "state":"TX",
        "zip":"76205",
        "phone":"940.735.3113",
        "latitude":33.20213,
        "longitude":-97.09125,
        "url":"https:\/\/stores.nordstromrack.com\/us\/tx\/denton\/1800-south-loop-288",
        "timezone":"America\/Chicago",
        "state_name":"Texas",
        "brand":"Nordstrom",
        "updated":"2024-03-31"
    },
    {
        "store_number":735,
        "store_type":"Rack",
        "store_name":"Nordstrom Rack The Shops of Southlake",
        "street":"1445 East Southlake Boulevard",
        "city":"Southlake",
        "state":"TX",
        "zip":"76092",
        "phone":"817.601.3480",
        "latitude":32.9388726,
        "longitude":-97.1299101,
        "url":"https:\/\/stores.nordstromrack.com\/us\/tx\/southlake\/1445-e-southlake-blvd",
        "timezone":"America\/Chicago",
        "state_name":"Texas",
        "brand":"Nordstrom",
        "updated":"2024-03-31"
    },
    {
        "store_number":739,
        "store_type":"Rack",
        "store_name":"Nordstrom Rack The Parks at Arlington Mall",
        "street":"3865 South Cooper Street",
        "city":"Arlington",
        "state":"TX",
        "zip":"76015",
        "phone":"817.664.3030",
        "latitude":32.6786972,
        "longitude":-97.1282322,
        "url":"https:\/\/stores.nordstromrack.com\/us\/tx\/arlington\/3865-s-cooper-st",
        "timezone":"America\/Chicago",
        "state_name":"Texas",
        "brand":"Nordstrom",
        "updated":"2024-03-31"
    },
    {
        "store_number":393,
        "store_type":"Rack",
        "store_name":"Nordstrom Rack Mountain Grove",
        "street":"27651 San Bernardino Avenue",
        "city":"Redlands",
        "state":"CA",
        "zip":"92374",
        "phone":"909.801.2750",
        "latitude":34.0743587,
        "longitude":-117.2019839,
        "url":"https:\/\/stores.nordstromrack.com\/us\/ca\/redlands\/27651-san-bernardino-avenue",
        "timezone":"America\/Los_Angeles",
        "state_name":"California",
        "brand":"Nordstrom",
        "updated":"2024-03-31"
    },
    {
        "store_number":368,
        "store_type":"Rack",
        "store_name":"Nordstrom Rack Commons at Temecula",
        "street":"40450 Winchester Road",
        "city":"Temecula",
        "state":"CA",
        "zip":"92591",
        "phone":"951.514.4941",
        "latitude":33.528653,
        "longitude":-117.1503869,
        "url":"https:\/\/stores.nordstromrack.com\/us\/ca\/temecula\/40450-winchester-rd",
        "timezone":"America\/Los_Angeles",
        "state_name":"California",
        "brand":"Nordstrom",
        "updated":"2024-03-31"
    },
    {
        "store_number":733,
        "store_type":"FullLineStore",
        "store_name":"Nordstrom Domain Northside",
        "street":"3111 Palm Way",
        "city":"Austin",
        "state":"TX",
        "zip":"78758",
        "phone":"512.605.4900",
        "latitude":30.4023499,
        "longitude":-97.7203953,
        "url":"",
        "timezone":"America\/Chicago",
        "state_name":"Texas",
        "brand":"Nordstrom",
        "updated":"2024-03-31"
    },
    {
        "store_number":736,
        "store_type":"Rack",
        "store_name":"Nordstrom Rack Gateway",
        "street":"9607 Research Boulevard",
        "city":"Austin",
        "state":"TX",
        "zip":"78759",
        "phone":"512.651.6180",
        "latitude":30.388617,
        "longitude":-97.74369,
        "url":"https:\/\/stores.nordstromrack.com\/us\/tx\/austin\/9607-research-blvd",
        "timezone":"America\/Chicago",
        "state_name":"Texas",
        "brand":"Nordstrom",
        "updated":"2024-03-31"
    },
    {
        "store_number":715,
        "store_type":"Rack",
        "store_name":"Nordstrom Rack The Parke",
        "street":"5001 Hwy 183A Toll Rd, Suite C1100",
        "city":"Cedar Park",
        "state":"TX",
        "zip":"78613",
        "phone":"737.843.3100",
        "latitude":30.5360251,
        "longitude":-97.8187197,
        "url":"https:\/\/stores.nordstromrack.com\/us\/tx\/cedar-park\/5001-highway-183a-toll-road",
        "timezone":"America\/Chicago",
        "state_name":"Texas",
        "brand":"Nordstrom",
        "updated":"2024-03-31"
    },
    {
        "store_number":731,
        "store_type":"FullLineStore",
        "store_name":"Nordstrom Barton Creek Square",
        "street":"2901 S Capital of Texas Hwy",
        "city":"Austin",
        "state":"TX",
        "zip":"78746",
        "phone":"512.691.3500",
        "latitude":30.2590192,
        "longitude":-97.808566,
        "url":"",
        "timezone":"America\/Chicago",
        "state_name":"Texas",
        "brand":"Nordstrom",
        "updated":"2024-03-31"
    },
    {
        "store_number":740,
        "store_type":"Rack",
        "store_name":"Nordstrom Rack Sunset Valley Shopping Center",
        "street":"5601 Brodie Lane",
        "city":"Sunset Valley",
        "state":"TX",
        "zip":"78745",
        "phone":"512.697.2600",
        "latitude":30.225341,
        "longitude":-97.8203395,
        "url":"https:\/\/stores.nordstromrack.com\/us\/tx\/sunset-valley\/5601-brodie-lane",
        "timezone":"America\/Chicago",
        "state_name":"Texas",
        "brand":"Nordstrom",
        "updated":"2024-03-31"
    },
    {
        "store_number":479,
        "store_type":"Rack",
        "store_name":"Nordstrom Rack Sunvalley Shopping Center",
        "street":"703 Contra Costa Boulevard",
        "city":"Pleasant Hill",
        "state":"CA",
        "zip":"94523",
        "phone":"925.566.7700",
        "latitude":37.9715192,
        "longitude":-122.0621875,
        "url":"https:\/\/stores.nordstromrack.com\/us\/ca\/pleasant-hill\/703-contra-costa-blvd",
        "timezone":"America\/Los_Angeles",
        "state_name":"California",
        "brand":"Nordstrom",
        "updated":"2024-03-31"
    },
    {
        "store_number":421,
        "store_type":"FullLineStore",
        "store_name":"Nordstrom Broadway Plaza in Walnut Creek",
        "street":"1200 Broadway Plaza",
        "city":"Walnut Creek",
        "state":"CA",
        "zip":"94596",
        "phone":"925.930.7959",
        "latitude":37.89717,
        "longitude":-122.058284,
        "url":"",
        "timezone":"America\/Los_Angeles",
        "state_name":"California",
        "brand":"Nordstrom",
        "updated":"2024-03-31"
    },
    {
        "store_number":476,
        "store_type":"Rack",
        "store_name":"Nordstrom Rack Persimmon Place",
        "street":"5300 Dublin Boulevard",
        "city":"Dublin",
        "state":"CA",
        "zip":"94568",
        "phone":"925.558.2900",
        "latitude":37.705721,
        "longitude":-121.8920818,
        "url":"https:\/\/stores.nordstromrack.com\/us\/ca\/dublin\/5300-dublin-boulevard",
        "timezone":"America\/Los_Angeles",
        "state_name":"California",
        "brand":"Nordstrom",
        "updated":"2024-03-31"
    },
    {
        "store_number":440,
        "store_type":"Rack",
        "store_name":"Nordstrom Pinole Vista Crossing Rack",
        "street":"1330 Fitzgerald Dr",
        "city":"Pinole",
        "state":"CA",
        "zip":"94564",
        "phone":"510.964.3701",
        "latitude":37.98476,
        "longitude":-122.31177,
        "url":"https:\/\/stores.nordstromrack.com\/us\/ca\/pinole\/1330-b-fitzgerald-drive",
        "timezone":"America\/Los_Angeles",
        "state_name":"California",
        "brand":"Nordstrom",
        "updated":"2024-03-31"
    },
    {
        "store_number":435,
        "store_type":"Rack",
        "store_name":"Nordstrom Rack East Bay Bridge Center",
        "street":"3839 Emery Street",
        "city":"Emeryville",
        "state":"CA",
        "zip":"94608",
        "phone":"510.740.4320",
        "latitude":37.8290963,
        "longitude":-122.280875,
        "url":"https:\/\/stores.nordstromrack.com\/us\/ca\/emeryville\/3839-emery-street",
        "timezone":"America\/Los_Angeles",
        "state_name":"California",
        "brand":"Nordstrom",
        "updated":"2024-03-31"
    },
    {
        "store_number":484,
        "store_type":"Rack",
        "store_name":"Nordstrom Rack Nut Tree Village",
        "street":"1621 East Monte Vista Avenue",
        "city":"Vacaville",
        "state":"CA",
        "zip":"95688",
        "phone":"707.301.4756",
        "latitude":38.3680018,
        "longitude":-121.9644925,
        "url":"https:\/\/stores.nordstromrack.com\/us\/ca\/vacaville\/1621-e-monte-vista-ave",
        "timezone":"America\/Los_Angeles",
        "state_name":"California",
        "brand":"Nordstrom",
        "updated":"2024-03-31"
    },
    {
        "store_number":431,
        "store_type":"Rack",
        "store_name":"Nordstrom Rack San Leandro",
        "street":"1285 Marina Boulevard",
        "city":"San Leandro",
        "state":"CA",
        "zip":"94577",
        "phone":"510.614.1742",
        "latitude":37.7097338,
        "longitude":-122.1638435,
        "url":"https:\/\/stores.nordstromrack.com\/us\/ca\/san-leandro\/1285-marina-blvd",
        "timezone":"America\/Los_Angeles",
        "state_name":"California",
        "brand":"Nordstrom",
        "updated":"2024-03-31"
    },
    {
        "store_number":423,
        "store_type":"FullLineStore",
        "store_name":"Nordstrom The Village at Corte Madera",
        "street":"1870 Redwood Highway",
        "city":"Corte Madera",
        "state":"CA",
        "zip":"94925",
        "phone":"415.927.1690",
        "latitude":37.931397,
        "longitude":-122.514836,
        "url":"",
        "timezone":"America\/Los_Angeles",
        "state_name":"California",
        "brand":"Nordstrom",
        "updated":"2024-03-31"
    },
    {
        "store_number":483,
        "store_type":"Rack",
        "store_name":"Nordstrom Rack Vintage Oaks",
        "street":"212 Vintage Way",
        "city":"Novato",
        "state":"CA",
        "zip":"94945",
        "phone":"415.878.7841",
        "latitude":38.0882238,
        "longitude":-122.5511865,
        "url":"https:\/\/stores.nordstromrack.com\/us\/ca\/novato\/212-vintage-way",
        "timezone":"America\/Los_Angeles",
        "state_name":"California",
        "brand":"Nordstrom",
        "updated":"2024-03-31"
    },
    {
        "store_number":478,
        "store_type":"Rack",
        "store_name":"Nordstrom Rack Pacific Commons Shopping Center",
        "street":"43706 Christy Street",
        "city":"Fremont",
        "state":"CA",
        "zip":"94538",
        "phone":"510.580.7240",
        "latitude":37.5050553,
        "longitude":-121.966733,
        "url":"https:\/\/stores.nordstromrack.com\/us\/ca\/fremont\/43706-christy-st",
        "timezone":"America\/Los_Angeles",
        "state_name":"California",
        "brand":"Nordstrom",
        "updated":"2024-03-31"
    },
    {
        "store_number":428,
        "store_type":"Rack",
        "store_name":"Nordstrom Rack Serramonte Center",
        "street":"152 Serramonte Center",
        "city":"Daly City",
        "state":"CA",
        "zip":"94015",
        "phone":"650.755.1444",
        "latitude":37.671159,
        "longitude":-122.467698,
        "url":"https:\/\/stores.nordstromrack.com\/us\/ca\/daly-city\/152-serramonte-center",
        "timezone":"America\/Los_Angeles",
        "state_name":"California",
        "brand":"Nordstrom",
        "updated":"2024-03-31"
    },
    {
        "store_number":420,
        "store_type":"FullLineStore",
        "store_name":"Nordstrom Hillsdale Shopping Center",
        "street":"130 Hillsdale Shopping Center",
        "city":"San Mateo",
        "state":"CA",
        "zip":"94403",
        "phone":"650.570.5111",
        "latitude":37.5374785,
        "longitude":-122.3013453,
        "url":"",
        "timezone":"America\/Los_Angeles",
        "state_name":"California",
        "brand":"Nordstrom",
        "updated":"2024-03-31"
    },
    {
        "store_number":472,
        "store_type":"Rack",
        "store_name":"Nordstrom Rack East Palo Alto",
        "street":"1771 East Bayshore Road",
        "city":"East Palo Alto",
        "state":"CA",
        "zip":"94303",
        "phone":"650.798.2022",
        "latitude":37.4602567,
        "longitude":-122.1359079,
        "url":"https:\/\/stores.nordstromrack.com\/us\/ca\/east-palo-alto\/1771-e-bayshore-rd",
        "timezone":"America\/Los_Angeles",
        "state_name":"California",
        "brand":"Nordstrom",
        "updated":"2024-03-31"
    },
    {
        "store_number":422,
        "store_type":"FullLineStore",
        "store_name":"Nordstrom Stanford Shopping Center",
        "street":"550 Stanford Shopping Center",
        "city":"Palo Alto",
        "state":"CA",
        "zip":"94304",
        "phone":"650.323.5111",
        "latitude":37.4394661,
        "longitude":-122.1739601,
        "url":"",
        "timezone":"America\/Los_Angeles",
        "state_name":"California",
        "brand":"Nordstrom",
        "updated":"2024-03-31"
    },
    {
        "store_number":425,
        "store_type":"FullLineStore",
        "store_name":"Nordstrom Valley Fair",
        "street":"2400 Forest Avenue",
        "city":"San Jose",
        "state":"CA",
        "zip":"95128",
        "phone":"408.248.2180",
        "latitude":37.326947,
        "longitude":-121.948603,
        "url":"",
        "timezone":"America\/Los_Angeles",
        "state_name":"California",
        "brand":"Nordstrom",
        "updated":"2024-03-31"
    },
    {
        "store_number":433,
        "store_type":"Rack",
        "store_name":"Nordstrom Rack at Howe Bout Arden",
        "street":"1600 Ethan Way, Suite # 100",
        "city":"Sacramento",
        "state":"CA",
        "zip":"95825",
        "phone":"916.646.0846",
        "latitude":38.5949448,
        "longitude":-121.4190326,
        "url":"https:\/\/stores.nordstromrack.com\/us\/ca\/sacramento\/1600-ethan-way",
        "timezone":"America\/Los_Angeles",
        "state_name":"California",
        "brand":"Nordstrom",
        "updated":"2024-03-31"
    },
    {
        "store_number":402,
        "store_type":"Rack",
        "store_name":"Nordstrom Promenade at Sacramento Gateway Rack",
        "street":"3561 N Freeway Blvd",
        "city":"Sacramento",
        "state":"CA",
        "zip":"95834",
        "phone":"916.333.6113",
        "latitude":38.63986,
        "longitude":-121.50083,
        "url":"https:\/\/stores.nordstromrack.com\/us\/ca\/sacramento\/3561-n-freeway-blvd",
        "timezone":"America\/Los_Angeles",
        "state_name":"California",
        "brand":"Nordstrom",
        "updated":"2024-03-31"
    },
    {
        "store_number":764,
        "store_type":"Rack",
        "store_name":"Nordstrom Rack The Mall of Georgia Crossing",
        "street":"3205 Woodward Crossing Boulevard",
        "city":"Buford",
        "state":"GA",
        "zip":"30519",
        "phone":"678.482.0123",
        "latitude":34.0699098,
        "longitude":-83.9789336,
        "url":"https:\/\/stores.nordstromrack.com\/us\/ga\/buford\/3205-woodward-crossing-blvd",
        "timezone":"America\/New_York",
        "state_name":"Georgia",
        "brand":"Nordstrom",
        "updated":"2024-03-31"
    },
    {
        "store_number":610,
        "store_type":"Rack",
        "store_name":"Nordstrom Presidential Markets Rack",
        "street":"1905 Scenic Hwy N",
        "city":"Snellville",
        "state":"GA",
        "zip":"30078",
        "phone":"770.325.1755",
        "latitude":33.87808,
        "longitude":-84.01585,
        "url":"https:\/\/stores.nordstromrack.com\/us\/ga\/snellville\/1905-scenic-hwy-s",
        "timezone":"America\/New_York",
        "state_name":"Georgia",
        "brand":"Nordstrom",
        "updated":"2024-03-31"
    },
    {
        "store_number":783,
        "store_type":"Rack",
        "store_name":"Nordstrom Rack North Point MarketCenter",
        "street":"6200 N. Point Parkway",
        "city":"Alpharetta",
        "state":"GA",
        "zip":"30022",
        "phone":"678.281.6660",
        "latitude":34.0454367,
        "longitude":-84.2885539,
        "url":"https:\/\/stores.nordstromrack.com\/us\/ga\/alpharetta\/6200-n-point-pkwy",
        "timezone":"America\/New_York",
        "state_name":"Georgia",
        "brand":"Nordstrom",
        "updated":"2024-03-31"
    },
    {
        "store_number":760,
        "store_type":"FullLineStore",
        "store_name":"Nordstrom Perimeter Mall",
        "street":"4390 Ashford Dunwoody Road NE",
        "city":"Atlanta",
        "state":"GA",
        "zip":"30346",
        "phone":"770.394.1141",
        "latitude":33.9236807,
        "longitude":-84.3424128,
        "url":"",
        "timezone":"America\/New_York",
        "state_name":"Georgia",
        "brand":"Nordstrom",
        "updated":"2024-03-31"
    },
    {
        "store_number":788,
        "store_type":"Rack",
        "store_name":"Nordstrom Rack Perimeter Expo",
        "street":"1201 Hammond Drive NE",
        "city":"Dunwoody",
        "state":"GA",
        "zip":"30346",
        "phone":"678.405.7830",
        "latitude":33.9196326,
        "longitude":-84.3429372,
        "url":"https:\/\/stores.nordstromrack.com\/us\/ga\/dunwoody\/1201-hammond-dr-ne",
        "timezone":"America\/New_York",
        "state_name":"Georgia",
        "brand":"Nordstrom",
        "updated":"2024-03-31"
    },
    {
        "store_number":772,
        "store_type":"FullLineStore",
        "store_name":"Nordstrom Phipps Plaza",
        "street":"3500 Peachtree Road NE",
        "city":"Atlanta",
        "state":"GA",
        "zip":"30326",
        "phone":"404.442.3000",
        "latitude":33.8531338,
        "longitude":-84.3613433,
        "url":"",
        "timezone":"America\/New_York",
        "state_name":"Georgia",
        "brand":"Nordstrom",
        "updated":"2024-03-31"
    },
    {
        "store_number":782,
        "store_type":"Rack",
        "store_name":"Nordstrom Rack Buckhead Station",
        "street":"3495 Buckhead Loop NE",
        "city":"Atlanta",
        "state":"GA",
        "zip":"30326",
        "phone":"404.736.2230",
        "latitude":33.850473,
        "longitude":-84.361722,
        "url":"https:\/\/stores.nordstromrack.com\/us\/ga\/atlanta\/3495-buckhead-loop-ne",
        "timezone":"America\/New_York",
        "state_name":"Georgia",
        "brand":"Nordstrom",
        "updated":"2024-03-31"
    },
    {
        "store_number":700,
        "store_type":"Rack",
        "store_name":"Nordstrom Barrett Place Rack",
        "street":"860 Cobb Place Blvd NW",
        "city":"Kennesaw",
        "state":"GA",
        "zip":"30144",
        "phone":"678.337.3099",
        "latitude":34.01162,
        "longitude":-84.57152,
        "url":"https:\/\/stores.nordstromrack.com\/us\/ga\/kennesaw\/860-cobb-place-blvd-nw-suite-200",
        "timezone":"America\/New_York",
        "state_name":"Georgia",
        "brand":"Nordstrom",
        "updated":"2024-03-31"
    },
    {
        "store_number":758,
        "store_type":"Rack",
        "store_name":"Nordstrom Rack Brentwood Place",
        "street":"330 Franklin Road",
        "city":"Brentwood",
        "state":"TN",
        "zip":"37027",
        "phone":"615.843.4200",
        "latitude":36.027254,
        "longitude":-86.79208,
        "url":"https:\/\/stores.nordstromrack.com\/us\/tn\/brentwood\/330-franklin-road",
        "timezone":"America\/Chicago",
        "state_name":"Tennessee",
        "brand":"Nordstrom",
        "updated":"2024-03-31"
    },
    {
        "store_number":759,
        "store_type":"FullLineStore",
        "store_name":"Nordstrom The Mall at Green Hills",
        "street":"2130 Abbott Martin Road",
        "city":"Nashville",
        "state":"TN",
        "zip":"37215",
        "phone":"615.850.6700",
        "latitude":36.1065199,
        "longitude":-86.8164808,
        "url":"",
        "timezone":"America\/Chicago",
        "state_name":"Tennessee",
        "brand":"Nordstrom",
        "updated":"2024-03-31"
    },
    {
        "store_number":363,
        "store_type":"Rack",
        "store_name":"Nordstrom Rack Plaza Bonita",
        "street":"3010 Plaza Bonita Road, Suite 2036",
        "city":"National City",
        "state":"CA",
        "zip":"91950",
        "phone":"619.765.3055",
        "latitude":32.657012,
        "longitude":-117.0655251,
        "url":"https:\/\/stores.nordstromrack.com\/us\/ca\/national-city\/3010-plaza-bonita-rd",
        "timezone":"America\/Los_Angeles",
        "state_name":"California",
        "brand":"Nordstrom",
        "updated":"2024-03-31"
    },
    {
        "store_number":378,
        "store_type":"Rack",
        "store_name":"Nordstrom Rack Mission Valley",
        "street":"1640 Camino Del Rio North",
        "city":"San Diego",
        "state":"CA",
        "zip":"92108",
        "phone":"619.296.0143",
        "latitude":32.7696531,
        "longitude":-117.1476056,
        "url":"https:\/\/stores.nordstromrack.com\/us\/ca\/san-diego\/1640-camino-del-rio-n",
        "timezone":"America\/Los_Angeles",
        "state_name":"California",
        "brand":"Nordstrom",
        "updated":"2024-03-31"
    },
    {
        "store_number":360,
        "store_type":"FullLineStore",
        "store_name":"Nordstrom Fashion Valley",
        "street":"6997 Friars Road",
        "city":"San Diego",
        "state":"CA",
        "zip":"92108",
        "phone":"619.295.4441",
        "latitude":32.768701,
        "longitude":-117.1681829,
        "url":"",
        "timezone":"America\/Los_Angeles",
        "state_name":"California",
        "brand":"Nordstrom",
        "updated":"2024-03-31"
    },
    {
        "store_number":361,
        "store_type":"FullLineStore",
        "store_name":"Nordstrom La Jolla at UTC",
        "street":"4401 La Jolla Village Drive",
        "city":"San Diego",
        "state":"CA",
        "zip":"92122",
        "phone":"858.457.4575",
        "latitude":32.870919,
        "longitude":-117.2130392,
        "url":"",
        "timezone":"America\/Los_Angeles",
        "state_name":"California",
        "brand":"Nordstrom",
        "updated":"2024-03-31"
    },
    {
        "store_number":166,
        "store_type":"Rack",
        "store_name":"Nordstrom Rack The Shops at La Jolla Village",
        "street":"8875 Villa La Jolla Drive",
        "city":"La Jolla",
        "state":"CA",
        "zip":"92037",
        "phone":"858.373.4600",
        "latitude":32.869335,
        "longitude":-117.2333583,
        "url":"https:\/\/stores.nordstromrack.com\/us\/ca\/la-jolla\/8875-villa-la-jolla-drive",
        "timezone":"America\/Los_Angeles",
        "state_name":"California",
        "brand":"Nordstrom",
        "updated":"2024-03-31"
    },
    {
        "store_number":369,
        "store_type":"Rack",
        "store_name":"Nordstrom Rack Carmel Mountain Plaza",
        "street":"11940 Carmel Mountain Road",
        "city":"San Diego",
        "state":"CA",
        "zip":"92128",
        "phone":"858.312.7766",
        "latitude":32.9823367,
        "longitude":-117.0785084,
        "url":"https:\/\/stores.nordstromrack.com\/us\/ca\/san-diego\/11940-carmel-mountain-rd",
        "timezone":"America\/Los_Angeles",
        "state_name":"California",
        "brand":"Nordstrom",
        "updated":"2024-03-31"
    },
    {
        "store_number":383,
        "store_type":"Rack",
        "store_name":"Nordstrom Rack Grand Plaza",
        "street":"173 South Las Posas Road",
        "city":"San Marcos",
        "state":"CA",
        "zip":"92078",
        "phone":"760.304.7050",
        "latitude":33.1386454,
        "longitude":-117.1916084,
        "url":"https:\/\/stores.nordstromrack.com\/us\/ca\/san-marcos\/173-s-las-posas-rd",
        "timezone":"America\/Los_Angeles",
        "state_name":"California",
        "brand":"Nordstrom",
        "updated":"2024-03-31"
    },
    {
        "store_number":366,
        "store_type":"Rack",
        "store_name":"Nordstrom Rack The Shops at River Walk",
        "street":"10650 Stockdale Highway, Suite 300",
        "city":"Bakersfield",
        "state":"CA",
        "zip":"93311",
        "phone":"661.282.4500",
        "latitude":35.3520765,
        "longitude":-119.1216871,
        "url":"https:\/\/stores.nordstromrack.com\/us\/ca\/bakersfield\/10650-stockdale-hwy",
        "timezone":"America\/Los_Angeles",
        "state_name":"California",
        "brand":"Nordstrom",
        "updated":"2024-03-31"
    },
    {
        "store_number":475,
        "store_type":"Rack",
        "store_name":"Nordstrom Rack Oakridge",
        "street":"925 Blossom Hill Road Suite 1427",
        "city":"San Jose",
        "state":"CA",
        "zip":"95123",
        "phone":"408.600.3800",
        "latitude":37.2517845,
        "longitude":-121.8649316,
        "url":"https:\/\/stores.nordstromrack.com\/us\/ca\/san-jose\/925-blossom-hill-rd",
        "timezone":"America\/Los_Angeles",
        "state_name":"California",
        "brand":"Nordstrom",
        "updated":"2024-03-31"
    },
    {
        "store_number":432,
        "store_type":"Rack",
        "store_name":"Nordstrom Rack Westgate Mall",
        "street":"1600 Saratoga Avenue",
        "city":"San Jose",
        "state":"CA",
        "zip":"95129",
        "phone":"408.374.4144",
        "latitude":37.2931075,
        "longitude":-121.987355,
        "url":"https:\/\/stores.nordstromrack.com\/us\/ca\/san-jose\/1600-saratoga-ave",
        "timezone":"America\/Los_Angeles",
        "state_name":"California",
        "brand":"Nordstrom",
        "updated":"2024-03-31"
    },
    {
        "store_number":686,
        "store_type":"Rack",
        "store_name":"Nordstrom Northwoods Rack",
        "street":"18134 San Pedro Ave",
        "city":"San Antonio",
        "state":"TX",
        "zip":"78232",
        "phone":"210.453.3040",
        "latitude":29.60731,
        "longitude":-98.46853,
        "url":"",
        "timezone":"America\/Chicago",
        "state_name":"Texas",
        "brand":"Nordstrom",
        "updated":"2024-03-31"
    },
    {
        "store_number":745,
        "store_type":"Rack",
        "store_name":"Nordstrom Rack Alamo Quarry",
        "street":"255 East Basse Road",
        "city":"San Antonio",
        "state":"TX",
        "zip":"78209",
        "phone":"210.202.2400",
        "latitude":29.4960983,
        "longitude":-98.4806374,
        "url":"https:\/\/stores.nordstromrack.com\/us\/tx\/san-antonio\/255-e-basse-rd",
        "timezone":"America\/Chicago",
        "state_name":"Texas",
        "brand":"Nordstrom",
        "updated":"2024-03-31"
    },
    {
        "store_number":734,
        "store_type":"Rack",
        "store_name":"Nordstrom Rack The Rim",
        "street":"5823 Worth Parkway",
        "city":"San Antonio",
        "state":"TX",
        "zip":"78257",
        "phone":"210.587.6644",
        "latitude":29.6140795,
        "longitude":-98.6006038,
        "url":"https:\/\/stores.nordstromrack.com\/us\/tx\/san-antonio\/5823-worth-pkwy",
        "timezone":"America\/Chicago",
        "state_name":"Texas",
        "brand":"Nordstrom",
        "updated":"2024-03-31"
    },
    {
        "store_number":732,
        "store_type":"FullLineStore",
        "store_name":"Nordstrom The Shops at La Cantera",
        "street":"15900 La Cantera Parkway",
        "city":"San Antonio",
        "state":"TX",
        "zip":"78256",
        "phone":"210.332.1900",
        "latitude":29.594534,
        "longitude":-98.6169108,
        "url":"",
        "timezone":"America\/Chicago",
        "state_name":"Texas",
        "brand":"Nordstrom",
        "updated":"2024-03-31"
    },
    {
        "store_number":471,
        "store_type":"Rack",
        "store_name":"Nordstrom Rack Villaggio Retail Center",
        "street":"7883 North Blackstone Avenue",
        "city":"Fresno",
        "state":"CA",
        "zip":"93720",
        "phone":"559.440.0111",
        "latitude":36.8498235,
        "longitude":-119.7934197,
        "url":"https:\/\/stores.nordstromrack.com\/us\/ca\/fresno\/7883-n-blackstone-ave",
        "timezone":"America\/Los_Angeles",
        "state_name":"California",
        "brand":"Nordstrom",
        "updated":"2024-03-31"
    },
    {
        "store_number":450,
        "store_type":"Rack",
        "store_name":"Nordstrom Clovis Crossing Rack",
        "street":"1085 Herndon Ave",
        "city":"Clovis",
        "state":"CA",
        "zip":"93612",
        "phone":"559.321.2391",
        "latitude":36.837525,
        "longitude":-119.697755,
        "url":"https:\/\/stores.nordstromrack.com\/us\/ca\/clovis\/1085-herndon-ave ",
        "timezone":"America\/Los_Angeles",
        "state_name":"California",
        "brand":"Nordstrom",
        "updated":"2024-03-31"
    },
    {
        "store_number":400,
        "store_type":"Rack",
        "store_name":"Nordstrom Sequoia Mall Rack",
        "street":"3501 S Mooney Blvd",
        "city":"Visalia",
        "state":"CA",
        "zip":"93277",
        "phone":"559.754.3500",
        "latitude":36.29938,
        "longitude":-119.31386,
        "url":"https:\/\/stores.nordstromrack.com\/us\/ca\/visalia\/3501-s-mooney-blvd",
        "timezone":"America\/Los_Angeles",
        "state_name":"California",
        "brand":"Nordstrom",
        "updated":"2024-03-31"
    },
    {
        "store_number":155,
        "store_type":"Rack",
        "store_name":"Nordstrom Rack Winrock Town Center",
        "street":"2100 Louisiana Blvd NE, #316",
        "city":"Albuquerque",
        "state":"NM",
        "zip":"87110",
        "phone":"505.348.5460",
        "latitude":35.0997059,
        "longitude":-106.5650364,
        "url":"https:\/\/stores.nordstromrack.com\/us\/nm\/albuquerque\/2100-louisiana-boulevard-ne",
        "timezone":"America\/Denver",
        "state_name":"New Mexico",
        "brand":"Nordstrom",
        "updated":"2024-03-31"
    },
    {
        "store_number":750,
        "store_type":"FullLineStore",
        "store_name":"Nordstrom SouthPark",
        "street":"4400 Sharon Road",
        "city":"Charlotte",
        "state":"NC",
        "zip":"28211",
        "phone":"704.442.6000",
        "latitude":35.1504864,
        "longitude":-80.8333496,
        "url":"",
        "timezone":"America\/New_York",
        "state_name":"North Carolina",
        "brand":"Nordstrom",
        "updated":"2024-03-31"
    },
    {
        "store_number":641,
        "store_type":"Rack",
        "store_name":"Nordstrom Rack Carolina Pavilion",
        "street":"9563 South Boulevard",
        "city":"Charlotte",
        "state":"NC",
        "zip":"28273",
        "phone":"704.705.2161",
        "latitude":35.104673,
        "longitude":-80.8776607,
        "url":"https:\/\/stores.nordstromrack.com\/us\/nc\/charlotte\/9563-s-blvd",
        "timezone":"America\/New_York",
        "state_name":"North Carolina",
        "brand":"Nordstrom",
        "updated":"2024-03-31"
    },
    {
        "store_number":331,
        "store_type":"Rack",
        "store_name":"Nordstrom Rack Town Center",
        "street":"44449 Town Center Way",
        "city":"Palm Desert",
        "state":"CA",
        "zip":"92260",
        "phone":"760.469.5300",
        "latitude":33.725838,
        "longitude":-116.398434,
        "url":"https:\/\/stores.nordstromrack.com\/us\/ca\/palm-desert\/44449-town-center-way",
        "timezone":"America\/Los_Angeles",
        "state_name":"California",
        "brand":"Nordstrom",
        "updated":"2024-03-31"
    },
    {
        "store_number":481,
        "store_type":"Rack",
        "store_name":"Nordstrom Rack at Palladio",
        "street":"440 Palladio Parkway",
        "city":"Folsom",
        "state":"CA",
        "zip":"95630",
        "phone":"916.850.4505",
        "latitude":38.651021,
        "longitude":-121.123063,
        "url":"https:\/\/stores.nordstromrack.com\/us\/ca\/folsom\/440-palladio-parkway",
        "timezone":"America\/Los_Angeles",
        "state_name":"California",
        "brand":"Nordstrom",
        "updated":"2024-03-31"
    },
    {
        "store_number":470,
        "store_type":"Rack",
        "store_name":"Nordstrom Rack at Creekside Town Center",
        "street":"1196 Galleria Boulevard",
        "city":"Roseville",
        "state":"CA",
        "zip":"95678",
        "phone":"916.788.7700",
        "latitude":38.7720419,
        "longitude":-121.2620662,
        "url":"https:\/\/stores.nordstromrack.com\/us\/ca\/roseville\/1196-galleria-blvd",
        "timezone":"America\/Los_Angeles",
        "state_name":"California",
        "brand":"Nordstrom",
        "updated":"2024-03-31"
    },
    {
        "store_number":434,
        "store_type":"FullLineStore",
        "store_name":"Nordstrom Galleria at Roseville",
        "street":"1131 Galleria Boulevard",
        "city":"Roseville",
        "state":"CA",
        "zip":"95678",
        "phone":"916.780.7300",
        "latitude":38.7722332,
        "longitude":-121.2690199,
        "url":"",
        "timezone":"America\/Los_Angeles",
        "state_name":"California",
        "brand":"Nordstrom",
        "updated":"2024-03-31"
    },
    {
        "store_number":249,
        "store_type":"Rack",
        "store_name":"Nordstrom Rack Manchester Highlands",
        "street":"100 Highlands Boulevard Drive",
        "city":"Manchester",
        "state":"MO",
        "zip":"63011",
        "phone":"636.438.4100",
        "latitude":38.5941179,
        "longitude":-90.5038637,
        "url":"https:\/\/stores.nordstromrack.com\/us\/mo\/manchester\/100-highlands-blvd-dr",
        "timezone":"America\/Chicago",
        "state_name":"Missouri",
        "brand":"Nordstrom",
        "updated":"2024-03-31"
    },
    {
        "store_number":232,
        "store_type":"FullLineStore",
        "store_name":"Nordstrom West County",
        "street":"47 West County Center",
        "city":"Des Peres",
        "state":"MO",
        "zip":"63131",
        "phone":"314.255.2000",
        "latitude":38.6008751,
        "longitude":-90.447939,
        "url":"",
        "timezone":"America\/Chicago",
        "state_name":"Missouri",
        "brand":"Nordstrom",
        "updated":"2024-03-31"
    },
    {
        "store_number":240,
        "store_type":"FullLineStore",
        "store_name":"Nordstrom Saint Louis Galleria",
        "street":"1453 Saint Louis Galleria",
        "city":"St. Louis",
        "state":"MO",
        "zip":"63117",
        "phone":"314.884.4900",
        "latitude":38.634576,
        "longitude":-90.347612,
        "url":"",
        "timezone":"America\/Chicago",
        "state_name":"Missouri",
        "brand":"Nordstrom",
        "updated":"2024-03-31"
    },
    {
        "store_number":246,
        "store_type":"Rack",
        "store_name":"Nordstrom Rack Brentwood Square",
        "street":"1585 South Brentwood Boulevard",
        "city":"St. Louis",
        "state":"MO",
        "zip":"63144",
        "phone":"314.785.1030",
        "latitude":38.62757,
        "longitude":-90.3475912,
        "url":"https:\/\/stores.nordstromrack.com\/us\/mo\/saint-louis\/1585-s-brentwood-blvd",
        "timezone":"America\/Chicago",
        "state_name":"Missouri",
        "brand":"Nordstrom",
        "updated":"2024-03-31"
    },
    {
        "store_number":482,
        "store_type":"Rack",
        "store_name":"Nordstrom Rack at Coddingtown Mall",
        "street":"180 Coddingtown Center",
        "city":"Santa Rosa",
        "state":"CA",
        "zip":"95401",
        "phone":"707.595.4200",
        "latitude":38.4585728,
        "longitude":-122.7285287,
        "url":"https:\/\/stores.nordstromrack.com\/us\/ca\/santa-rosa\/180-coddingtown-center",
        "timezone":"America\/Los_Angeles",
        "state_name":"California",
        "brand":"Nordstrom",
        "updated":"2024-03-31"
    },
    {
        "store_number":441,
        "store_type":"Rack",
        "store_name":"Nordstrom Best in the West Rack",
        "street":"2060 N Rainbow Blvd",
        "city":"Las Vegas",
        "state":"NV",
        "zip":"89108",
        "phone":"702.854.3955",
        "latitude":36.196965,
        "longitude":-115.241879,
        "url":"https:\/\/stores.nordstromrack.com\/us\/nv\/las-vegas\/2060-north-rainbow-blvd ",
        "timezone":"America\/Los_Angeles",
        "state_name":"Nevada",
        "brand":"Nordstrom",
        "updated":"2024-03-31"
    },
    {
        "store_number":386,
        "store_type":"FullLineStore",
        "store_name":"Nordstrom Fashion Show",
        "street":"3200 Las Vegas Blvd South, #710",
        "city":"Las Vegas",
        "state":"NV",
        "zip":"89109",
        "phone":"702.862.2525",
        "latitude":36.1279289,
        "longitude":-115.173048,
        "url":"",
        "timezone":"America\/Los_Angeles",
        "state_name":"Nevada",
        "brand":"Nordstrom",
        "updated":"2024-03-31"
    },
    {
        "store_number":371,
        "store_type":"Rack",
        "store_name":"Nordstrom Rack Downtown Summerlin",
        "street":"2310 Park Center Drive #100",
        "city":"Las Vegas",
        "state":"NV",
        "zip":"89135",
        "phone":"702.915.2000",
        "latitude":36.1469019,
        "longitude":-115.3323247,
        "url":"https:\/\/stores.nordstromrack.com\/us\/nv\/las-vegas\/2310-park-center-dr",
        "timezone":"America\/Los_Angeles",
        "state_name":"Nevada",
        "brand":"Nordstrom",
        "updated":"2024-03-31"
    },
    {
        "store_number":376,
        "store_type":"Rack",
        "store_name":"Nordstrom Rack Stephanie Street Center",
        "street":"579 North Stephanie Street",
        "city":"Henderson",
        "state":"NV",
        "zip":"89014",
        "phone":"702.948.2121",
        "latitude":36.0608632,
        "longitude":-115.047932,
        "url":"https:\/\/stores.nordstromrack.com\/us\/nv\/henderson\/579-n-stephanie-st",
        "timezone":"America\/Los_Angeles",
        "state_name":"Nevada",
        "brand":"Nordstrom",
        "updated":"2024-03-31"
    },
    {
        "store_number":230,
        "store_type":"FullLineStore",
        "store_name":"Nordstrom Oak Park Mall",
        "street":"11143 West 95th Street",
        "city":"Overland Park",
        "state":"KS",
        "zip":"66214",
        "phone":"913.492.8111",
        "latitude":38.9522873,
        "longitude":-94.718537,
        "url":"",
        "timezone":"America\/Chicago",
        "state_name":"Kansas",
        "brand":"Nordstrom",
        "updated":"2024-03-31"
    },
    {
        "store_number":248,
        "store_type":"Rack",
        "store_name":"Nordstrom Rack Orchard Corners",
        "street":"9540 Quivira Road",
        "city":"Lenexa",
        "state":"KS",
        "zip":"66215",
        "phone":"913.553.6242",
        "latitude":38.9557004,
        "longitude":-94.7250116,
        "url":"https:\/\/stores.nordstromrack.com\/us\/ks\/lenexa\/9540-quivira-rd",
        "timezone":"America\/Chicago",
        "state_name":"Kansas",
        "brand":"Nordstrom",
        "updated":"2024-03-31"
    },
    {
        "store_number":200,
        "store_type":"Rack",
        "store_name":"Nordstrom Rack Overland Crossing",
        "street":"12050 Metcalf Ave",
        "city":"Overland Park",
        "state":"KS",
        "zip":"66213",
        "phone":"913.982.1777",
        "latitude":38.984764,
        "longitude":-94.677658,
        "url":"",
        "timezone":"America\/Chicago",
        "state_name":"Kansas",
        "brand":"Nordstrom",
        "updated":"2024-03-31"
    },
    {
        "store_number":377,
        "store_type":"Rack",
        "store_name":"Nordstrom Rack Chandler Festival",
        "street":"2620 West Chandler Boulevard",
        "city":"Chandler",
        "state":"AZ",
        "zip":"85224",
        "phone":"480.722.2000",
        "latitude":33.3076253,
        "longitude":-111.8865942,
        "url":"https:\/\/stores.nordstromrack.com\/us\/az\/chandler\/2620-w-chandler-blvd",
        "timezone":"America\/Phoenix",
        "state_name":"Arizona",
        "brand":"Nordstrom",
        "updated":"2024-03-31"
    },
    {
        "store_number":154,
        "store_type":"Rack",
        "store_name":"Nordstrom Rack SanTan Village",
        "street":"2090 E. Williams Field Road",
        "city":"Gilbert",
        "state":"AZ",
        "zip":"85295",
        "phone":"480.665.5103",
        "latitude":33.3080536,
        "longitude":-111.7450886,
        "url":"https:\/\/stores.nordstromrack.com\/us\/az\/gilbert\/2090-e-williams-field-road",
        "timezone":"America\/Phoenix",
        "state_name":"Arizona",
        "brand":"Nordstrom",
        "updated":"2024-03-31"
    },
    {
        "store_number":150,
        "store_type":"Rack",
        "store_name":"Nordstrom Rack Tempe Marketplace",
        "street":"1900 East Rio Salado Parkway",
        "city":"Tempe",
        "state":"AZ",
        "zip":"85281",
        "phone":"480.603.4600",
        "latitude":33.4301127,
        "longitude":-111.9020577,
        "url":"https:\/\/stores.nordstromrack.com\/us\/az\/tempe\/1900-east-rio-salado-parkway",
        "timezone":"America\/Phoenix",
        "state_name":"Arizona",
        "brand":"Nordstrom",
        "updated":"2024-03-31"
    },
    {
        "store_number":380,
        "store_type":"FullLineStore",
        "store_name":"Nordstrom Scottsdale Fashion Square",
        "street":"7055 East Camelback Road",
        "city":"Scottsdale",
        "state":"AZ",
        "zip":"85251",
        "phone":"480.946.4111",
        "latitude":33.5013274,
        "longitude":-111.9290039,
        "url":"",
        "timezone":"America\/Phoenix",
        "state_name":"Arizona",
        "brand":"Nordstrom",
        "updated":"2024-03-31"
    },
    {
        "store_number":367,
        "store_type":"Rack",
        "store_name":"Nordstrom Rack The Shops At Town and Country",
        "street":"2073 East Camelback Road",
        "city":"Phoenix",
        "state":"AZ",
        "zip":"85016",
        "phone":"602.345.6880",
        "latitude":33.509251,
        "longitude":-112.038242,
        "url":"https:\/\/stores.nordstromrack.com\/us\/az\/phoenix\/2073-east-camelback-road",
        "timezone":"America\/Phoenix",
        "state_name":"Arizona",
        "brand":"Nordstrom",
        "updated":"2024-03-31"
    },
    {
        "store_number":770,
        "store_type":"LastChance",
        "store_name":"Last Chance Clearance Store",
        "street":"1919 East Camelback Road",
        "city":"Phoenix",
        "state":"AZ",
        "zip":"85016",
        "phone":"602.248.2843",
        "latitude":33.5071775,
        "longitude":-112.0422343,
        "url":"https:\/\/stores.nordstromrack.com\/us\/az\/phoenix\/1919-e-camelback-rd",
        "timezone":"America\/Phoenix",
        "state_name":"Arizona",
        "brand":"Nordstrom",
        "updated":"2024-03-31"
    },
    {
        "store_number":379,
        "store_type":"Rack",
        "store_name":"Nordstrom Rack Scottsdale Promenade",
        "street":"16245 North Scottsdale Road",
        "city":"Scottsdale",
        "state":"AZ",
        "zip":"85254",
        "phone":"480.624.2200",
        "latitude":33.6339923,
        "longitude":-111.9212327,
        "url":"https:\/\/stores.nordstromrack.com\/us\/az\/scottsdale\/16245-n-scottsdale-rd",
        "timezone":"America\/Phoenix",
        "state_name":"Arizona",
        "brand":"Nordstrom",
        "updated":"2024-03-31"
    },
    {
        "store_number":416,
        "store_type":"Rack",
        "store_name":"Nordstrom Rack Desert Ridge Marketplace",
        "street":"21001 N TATUM BLVD STE 24",
        "city":"PHOENIX",
        "state":"AZ",
        "zip":"850504208",
        "phone":"480.750.5860",
        "latitude":33.677386,
        "longitude":-111.977274,
        "url":"https:\/\/stores.nordstromrack.com\/us\/az\/phoenix\/21001-n-tatum-blvd-suite-24",
        "timezone":"America\/Phoenix",
        "state_name":"Arizona",
        "brand":"Nordstrom",
        "updated":"2024-03-31"
    },
    {
        "store_number":388,
        "store_type":"Rack",
        "store_name":"Nordstrom Rack Arrowhead Crossing",
        "street":"7535 West Bell Road",
        "city":"Peoria",
        "state":"AZ",
        "zip":"85382",
        "phone":"623.240.2430",
        "latitude":33.6371096,
        "longitude":-112.2211602,
        "url":"https:\/\/stores.nordstromrack.com\/us\/az\/peoria\/7535-w-bell-rd",
        "timezone":"America\/Phoenix",
        "state_name":"Arizona",
        "brand":"Nordstrom",
        "updated":"2024-03-31"
    },
    {
        "store_number":677,
        "store_type":"Rack",
        "store_name":"Nordstrom Rack Pembroke Mall",
        "street":"4588 Virginia Beach Boulevard",
        "city":"Virginia Beach",
        "state":"VA",
        "zip":"23462",
        "phone":"757.518.2550",
        "latitude":36.8450876,
        "longitude":-76.1356853,
        "url":"https:\/\/stores.nordstromrack.com\/us\/va\/virginia-beach\/4588-virginia-beach-blvd",
        "timezone":"America\/New_York",
        "state_name":"Virginia",
        "brand":"Nordstrom",
        "updated":"2024-03-31"
    },
    {
        "store_number":624,
        "store_type":"Rack",
        "store_name":"Nordstrom Rack Potomac Mills",
        "street":"2700 Potomac Mills Circle",
        "city":"Woodbridge",
        "state":"VA",
        "zip":"22192",
        "phone":"703.490.1440",
        "latitude":38.640362,
        "longitude":-77.297539,
        "url":"https:\/\/stores.nordstromrack.com\/us\/va\/woodbridge\/2700-potomac-mills-circle",
        "timezone":"America\/New_York",
        "state_name":"Virginia",
        "brand":"Nordstrom",
        "updated":"2024-03-31"
    },
    {
        "store_number":674,
        "store_type":"Rack",
        "store_name":"Nordstrom Rack Springfield Town Center",
        "street":"6501 Springfield Mall",
        "city":"Springfield",
        "state":"VA",
        "zip":"22150",
        "phone":"703.373.4500",
        "latitude":38.776539,
        "longitude":-77.175607,
        "url":"https:\/\/stores.nordstromrack.com\/us\/va\/springfield\/6501-springfield-mall",
        "timezone":"America\/New_York",
        "state_name":"Virginia",
        "brand":"Nordstrom",
        "updated":"2024-03-31"
    },
    {
        "store_number":640,
        "store_type":"Rack",
        "store_name":"Nordstrom Rack Fair Lakes Promenade",
        "street":"12199 Fair Lakes Promenade Drive",
        "city":"Fairfax",
        "state":"VA",
        "zip":"22033",
        "phone":"703.563.2540",
        "latitude":38.859399,
        "longitude":-77.368963,
        "url":"https:\/\/stores.nordstromrack.com\/us\/va\/fairfax\/12199-fair-lakes-promenade-dr",
        "timezone":"America\/New_York",
        "state_name":"Virginia",
        "brand":"Nordstrom",
        "updated":"2024-03-31"
    },
    {
        "store_number":644,
        "store_type":"Rack",
        "store_name":"Nordstrom Rack Tysons Corner",
        "street":"8027 Leesburg Pike",
        "city":"Vienna",
        "state":"VA",
        "zip":"22182",
        "phone":"703.206.7100",
        "latitude":38.912865,
        "longitude":-77.222332,
        "url":"https:\/\/stores.nordstromrack.com\/us\/va\/vienna\/8027-leesburg-pike",
        "timezone":"America\/New_York",
        "state_name":"Virginia",
        "brand":"Nordstrom",
        "updated":"2024-03-31"
    },
    {
        "store_number":600,
        "store_type":"FullLineStore",
        "store_name":"Nordstrom Tysons Corner Center",
        "street":"8075 Tysons Corner Center",
        "city":"McLean",
        "state":"VA",
        "zip":"22102",
        "phone":"703.761.1121",
        "latitude":38.916183,
        "longitude":-77.22004,
        "url":"",
        "timezone":"America\/New_York",
        "state_name":"Virginia",
        "brand":"Nordstrom",
        "updated":"2024-03-31"
    },
    {
        "store_number":621,
        "store_type":"FullLineStore",
        "store_name":"Nordstrom The Fashion Centre at Pentagon City",
        "street":"1400 South Hayes Street",
        "city":"Arlington",
        "state":"VA",
        "zip":"22202",
        "phone":"703.415.1121",
        "latitude":38.861305,
        "longitude":-77.059911,
        "url":"",
        "timezone":"America\/New_York",
        "state_name":"Virginia",
        "brand":"Nordstrom",
        "updated":"2024-03-31"
    },
    {
        "store_number":671,
        "store_type":"Rack",
        "store_name":"Nordstrom Rack Pentagon Centre",
        "street":"1201 South Hayes Street. Suite A",
        "city":"Arlington",
        "state":"VA",
        "zip":"22202",
        "phone":"703.399.3222",
        "latitude":38.862979,
        "longitude":-77.059278,
        "url":"https:\/\/stores.nordstromrack.com\/us\/va\/arlington\/1201-s-hayes-st",
        "timezone":"America\/New_York",
        "state_name":"Virginia",
        "brand":"Nordstrom",
        "updated":"2024-03-31"
    },
    {
        "store_number":673,
        "store_type":"Rack",
        "store_name":"Nordstrom Rack L Street",
        "street":"1800 L Street NW",
        "city":"Washington",
        "state":"DC",
        "zip":"20036",
        "phone":"202.627.3650",
        "latitude":38.906283,
        "longitude":-77.041364,
        "url":"https:\/\/stores.nordstromrack.com\/us\/dc\/washington\/1800-l-st-nw",
        "timezone":"America\/New_York",
        "state_name":null,
        "brand":"Nordstrom",
        "updated":"2024-03-31"
    },
    {
        "store_number":675,
        "store_type":"Rack",
        "store_name":"Nordstrom Rack Metro Center",
        "street":"555 12th Street NW, Suite C120",
        "city":"Washington",
        "state":"DC",
        "zip":"20004",
        "phone":"202.827.2499",
        "latitude":38.896719,
        "longitude":-77.028009,
        "url":"https:\/\/stores.nordstromrack.com\/us\/dc\/washington\/555-12th-street-nw",
        "timezone":"America\/New_York",
        "state_name":null,
        "brand":"Nordstrom",
        "updated":"2024-03-31"
    },
    {
        "store_number":670,
        "store_type":"Rack",
        "store_name":"Nordstrom Rack Dulles Town Crossing",
        "street":"45575 Dulles Eastern Plaza",
        "city":"Sterling",
        "state":"VA",
        "zip":"20166",
        "phone":"703.948.0100",
        "latitude":39.023875,
        "longitude":-77.422635,
        "url":"https:\/\/stores.nordstromrack.com\/us\/va\/sterling\/45575-dulles-eastern-plaza",
        "timezone":"America\/New_York",
        "state_name":"Virginia",
        "brand":"Nordstrom",
        "updated":"2024-03-31"
    },
    {
        "store_number":623,
        "store_type":"FullLineStore",
        "store_name":"Nordstrom Montgomery Mall",
        "street":"7111 Democracy Boulevard",
        "city":"Bethesda",
        "state":"MD",
        "zip":"20817",
        "phone":"301.365.4111",
        "latitude":39.022415,
        "longitude":-77.148722,
        "url":"",
        "timezone":"America\/New_York",
        "state_name":"Maryland",
        "brand":"Nordstrom",
        "updated":"2024-03-31"
    },
    {
        "store_number":633,
        "store_type":"Rack",
        "store_name":"Nordstrom Rack Gaithersburg",
        "street":"15760 Shady Grove Road",
        "city":"Gaithersburg",
        "state":"MD",
        "zip":"20877",
        "phone":"301.527.1133",
        "latitude":39.116212,
        "longitude":-77.18462,
        "url":"https:\/\/stores.nordstromrack.com\/us\/md\/gaithersburg\/15760-shady-grove-rd",
        "timezone":"America\/New_York",
        "state_name":"Maryland",
        "brand":"Nordstrom",
        "updated":"2024-03-31"
    },
    {
        "store_number":660,
        "store_type":"Rack",
        "store_name":"Nordstrom Rack Woodmore Towne Centre",
        "street":"2700  Campus Way N. Ste. 100",
        "city":"Lanham",
        "state":"MD",
        "zip":"20706",
        "phone":"240.764.2021",
        "latitude":38.964971,
        "longitude":-76.848602,
        "url":"https:\/\/stores.nordstromrack.com\/us\/md\/lanham\/2700-campus-way-n",
        "timezone":"America\/New_York",
        "state_name":"Maryland",
        "brand":"Nordstrom",
        "updated":"2024-03-31"
    },
    {
        "store_number":631,
        "store_type":"FullLineStore",
        "store_name":"Nordstrom The Mall in Columbia",
        "street":"10300 Little Patuxent Parkway",
        "city":"Columbia",
        "state":"MD",
        "zip":"21044",
        "phone":"410.715.2222",
        "latitude":39.219574,
        "longitude":-76.859036,
        "url":"",
        "timezone":"America\/New_York",
        "state_name":"Maryland",
        "brand":"Nordstrom",
        "updated":"2024-03-31"
    },
    {
        "store_number":625,
        "store_type":"Rack",
        "store_name":"Nordstrom Rack at Columbia Crossing",
        "street":"6141 Columbia Crossing Circle",
        "city":"Columbia",
        "state":"MD",
        "zip":"21045",
        "phone":"443.518.7205",
        "latitude":39.195956,
        "longitude":-76.81346,
        "url":"https:\/\/stores.nordstromrack.com\/us\/md\/columbia\/6141-columbia-crossing",
        "timezone":"America\/New_York",
        "state_name":"Maryland",
        "brand":"Nordstrom",
        "updated":"2024-03-31"
    },
    {
        "store_number":643,
        "store_type":"Rack",
        "store_name":"Nordstrom Rack Annapolis Harbour Center",
        "street":"2540 Solomons Island Road",
        "city":"Annapolis",
        "state":"MD",
        "zip":"21401",
        "phone":"443.440.6330",
        "latitude":38.967702,
        "longitude":-76.544644,
        "url":"https:\/\/stores.nordstromrack.com\/us\/md\/annapolis\/2540-solomons-island-rd",
        "timezone":"America\/New_York",
        "state_name":"Maryland",
        "brand":"Nordstrom",
        "updated":"2024-03-31"
    },
    {
        "store_number":754,
        "store_type":"Rack",
        "store_name":"Nordstrom Rack Renaissance Center",
        "street":"6807 Fayetteville Road",
        "city":"Durham",
        "state":"NC",
        "zip":"27713",
        "phone":"919.695.1000",
        "latitude":35.9049244,
        "longitude":-78.9353997,
        "url":"https:\/\/stores.nordstromrack.com\/us\/nc\/durham\/6807-fayetteville-rd",
        "timezone":"America\/New_York",
        "state_name":"North Carolina",
        "brand":"Nordstrom",
        "updated":"2024-03-31"
    },
    {
        "store_number":751,
        "store_type":"FullLineStore",
        "store_name":"Nordstrom The Streets at Southpoint",
        "street":"6910 Fayetteville Road #500",
        "city":"Durham",
        "state":"NC",
        "zip":"27713",
        "phone":"919.806.3700",
        "latitude":35.9042348,
        "longitude":-78.9410777,
        "url":"",
        "timezone":"America\/New_York",
        "state_name":"North Carolina",
        "brand":"Nordstrom",
        "updated":"2024-03-31"
    },
    {
        "store_number":239,
        "store_type":"FullLineStore",
        "store_name":"Nordstrom Kenwood Towne Centre",
        "street":"7801 Montgomery Road",
        "city":"Cincinnati",
        "state":"OH",
        "zip":"45236",
        "phone":"513.699.4190",
        "latitude":39.2001668,
        "longitude":-84.3788864,
        "url":"",
        "timezone":"America\/New_York",
        "state_name":"Ohio",
        "brand":"Nordstrom",
        "updated":"2024-03-31"
    },
    {
        "store_number":243,
        "store_type":"Rack",
        "store_name":"Nordstrom Rack Rookwood Pavilion",
        "street":"2692 Madison Road",
        "city":"Cincinnati",
        "state":"OH",
        "zip":"45208",
        "phone":"513.878.6810",
        "latitude":39.1456706,
        "longitude":-84.4452462,
        "url":"https:\/\/stores.nordstromrack.com\/us\/oh\/cincinnati\/2692-madison-rd",
        "timezone":"America\/New_York",
        "state_name":"Ohio",
        "brand":"Nordstrom",
        "updated":"2024-03-31"
    },
    {
        "store_number":279,
        "store_type":"Rack",
        "store_name":"Nordstrom Rack The Greene",
        "street":"33 Greene Boulevard",
        "city":"Beavercreek",
        "state":"OH",
        "zip":"45440",
        "phone":"937.306.4145",
        "latitude":39.6954851,
        "longitude":-84.1044253,
        "url":"https:\/\/stores.nordstromrack.com\/us\/oh\/beavercreek\/33-greene-boulevard",
        "timezone":"America\/New_York",
        "state_name":"Ohio",
        "brand":"Nordstrom",
        "updated":"2024-03-31"
    },
    {
        "store_number":785,
        "store_type":"Rack",
        "store_name":"Nordstrom Rack Belle Isle Station",
        "street":"1741 Belle Isle Boulevard",
        "city":"Oklahoma City",
        "state":"OK",
        "zip":"73118",
        "phone":"405.529.5290",
        "latitude":35.5265141,
        "longitude":-97.5380077,
        "url":"https:\/\/stores.nordstromrack.com\/us\/ok\/oklahoma-city\/1741-belle-isle-blvd",
        "timezone":"America\/Chicago",
        "state_name":"Oklahoma",
        "brand":"Nordstrom",
        "updated":"2024-03-31"
    },
    {
        "store_number":217,
        "store_type":"Rack",
        "store_name":"Nordstrom Southlands Rack",
        "street":"24101 E Orchard Rd",
        "city":"Aurora",
        "state":"CO",
        "zip":"80016",
        "phone":"303.481.3838",
        "latitude":39.60875,
        "longitude":-104.70592,
        "url":"https:\/\/stores.nordstromrack.com\/us\/co\/aurora\/24101-e-orchard-rd",
        "timezone":"America\/Denver",
        "state_name":"Colorado",
        "brand":"Nordstrom",
        "updated":"2024-03-31"
    },
    {
        "store_number":34,
        "store_type":"FullLineStore",
        "store_name":"Nordstrom Park Meadows",
        "street":"8465 Park Meadows Center Drive",
        "city":"Lone Tree",
        "state":"CO",
        "zip":"80124",
        "phone":"303.799.3400",
        "latitude":39.5613293,
        "longitude":-104.8749196,
        "url":"",
        "timezone":"America\/Denver",
        "state_name":"Colorado",
        "brand":"Nordstrom",
        "updated":"2024-03-31"
    },
    {
        "store_number":36,
        "store_type":"Rack",
        "store_name":"Nordstrom Rack Park Meadows",
        "street":"8676 Park Meadows Center Drive",
        "city":"Lone Tree",
        "state":"CO",
        "zip":"80124",
        "phone":"303.706.0035",
        "latitude":39.557539,
        "longitude":-104.8738079,
        "url":"https:\/\/stores.nordstromrack.com\/us\/co\/lone-tree\/8676-park-meadows-center-dr",
        "timezone":"America\/Denver",
        "state_name":"Colorado",
        "brand":"Nordstrom",
        "updated":"2024-03-31"
    },
    {
        "store_number":136,
        "store_type":"Rack",
        "store_name":"Nordstrom Rack Cherry Creek",
        "street":"1505 South Colorado Boulevard",
        "city":"Denver",
        "state":"CO",
        "zip":"80222",
        "phone":"303.305.4380",
        "latitude":39.688784,
        "longitude":-104.9423662,
        "url":"https:\/\/stores.nordstromrack.com\/us\/co\/denver\/1505-s-colorado-blvd",
        "timezone":"America\/Denver",
        "state_name":"Colorado",
        "brand":"Nordstrom",
        "updated":"2024-03-31"
    },
    {
        "store_number":37,
        "store_type":"FullLineStore",
        "store_name":"Nordstrom Cherry Creek Shopping Center",
        "street":"2810 East First Avenue",
        "city":"Denver",
        "state":"CO",
        "zip":"80206",
        "phone":"720.746.2424",
        "latitude":39.7172026,
        "longitude":-104.9550336,
        "url":"",
        "timezone":"America\/Denver",
        "state_name":"Colorado",
        "brand":"Nordstrom",
        "updated":"2024-03-31"
    },
    {
        "store_number":110,
        "store_type":"Rack",
        "store_name":"Nordstrom Rack Belmar",
        "street":"393 South Vance Street",
        "city":"Lakewood",
        "state":"CO",
        "zip":"80226",
        "phone":"720.389.3420",
        "latitude":39.7096472,
        "longitude":-105.0799865,
        "url":"https:\/\/stores.nordstromrack.com\/us\/co\/lakewood\/393-s-vance-st",
        "timezone":"America\/Denver",
        "state_name":"Colorado",
        "brand":"Nordstrom",
        "updated":"2024-03-31"
    },
    {
        "store_number":148,
        "store_type":"Rack",
        "store_name":"Nordstrom Rack the Orchard",
        "street":"14530 Delaware St",
        "city":"Westminster",
        "state":"CO",
        "zip":"80023",
        "phone":"303.729.6560",
        "latitude":39.9605347,
        "longitude":-104.9898488,
        "url":"https:\/\/stores.nordstromrack.com\/us\/co\/westminster\/14530-delaware-st",
        "timezone":"America\/Denver",
        "state_name":"Colorado",
        "brand":"Nordstrom",
        "updated":"2024-03-31"
    },
    {
        "store_number":135,
        "store_type":"Rack",
        "store_name":"Nordstrom Rack Twenty Ninth Street Shopping Center",
        "street":"1601 29th Street",
        "city":"Boulder",
        "state":"CO",
        "zip":"80301",
        "phone":"720.887.3588",
        "latitude":40.0153236,
        "longitude":-105.2566784,
        "url":"https:\/\/stores.nordstromrack.com\/us\/co\/boulder\/1601-29th-st",
        "timezone":"America\/Denver",
        "state_name":"Colorado",
        "brand":"Nordstrom",
        "updated":"2024-03-31"
    },
    {
        "store_number":137,
        "store_type":"Rack",
        "store_name":"Nordstrom Rack Chapel Hills East",
        "street":"7645 Academy Boulevard North",
        "city":"Colorado Springs",
        "state":"CO",
        "zip":"80920",
        "phone":"719.772.6001",
        "latitude":38.9427955,
        "longitude":-104.7973849,
        "url":"https:\/\/stores.nordstromrack.com\/us\/co\/colorado-springs\/7645-n-academy-blvd",
        "timezone":"America\/Denver",
        "state_name":"Colorado",
        "brand":"Nordstrom",
        "updated":"2024-03-31"
    },
    {
        "store_number":797,
        "store_type":"Rack",
        "store_name":"Nordstrom Rack The Shops at Midtown Miami",
        "street":"3201 North Miami Avenue",
        "city":"Miami",
        "state":"FL",
        "zip":"33127",
        "phone":"786.338.2000",
        "latitude":25.8072115,
        "longitude":-80.1947411,
        "url":"https:\/\/stores.nordstromrack.com\/us\/fl\/miami\/3201-north-miami-avenue",
        "timezone":"America\/New_York",
        "state_name":"Florida",
        "brand":"Nordstrom",
        "updated":"2024-03-31"
    },
    {
        "store_number":777,
        "store_type":"Rack",
        "store_name":"Nordstrom Rack Miracle Marketplace",
        "street":"3301 Coral Way",
        "city":"Miami",
        "state":"FL",
        "zip":"33145",
        "phone":"786.662.6025",
        "latitude":25.750451,
        "longitude":-80.2497308,
        "url":"https:\/\/stores.nordstromrack.com\/us\/fl\/miami\/3301-coral-way",
        "timezone":"America\/New_York",
        "state_name":"Florida",
        "brand":"Nordstrom",
        "updated":"2024-03-31"
    },
    {
        "store_number":763,
        "store_type":"FullLineStore",
        "store_name":"Nordstrom Shops at Merrick Park",
        "street":"4310 Ponce de Leon Boulevard",
        "city":"Coral Gables",
        "state":"FL",
        "zip":"33146",
        "phone":"786.999.1313",
        "latitude":25.732069,
        "longitude":-80.258474,
        "url":"",
        "timezone":"America\/New_York",
        "state_name":"Florida",
        "brand":"Nordstrom",
        "updated":"2024-03-31"
    },
    {
        "store_number":774,
        "store_type":"FullLineStore",
        "store_name":"Nordstrom Aventura",
        "street":"19507 Biscayne Boulevard",
        "city":"Aventura",
        "state":"FL",
        "zip":"33180",
        "phone":"305.356.6900",
        "latitude":25.957253,
        "longitude":-80.14524,
        "url":"",
        "timezone":"America\/New_York",
        "state_name":"Florida",
        "brand":"Nordstrom",
        "updated":"2024-03-31"
    },
    {
        "store_number":743,
        "store_type":"Rack",
        "store_name":"Nordstrom Rack The Promenade Shops",
        "street":"20669 Biscayne Boulevard",
        "city":"Aventura",
        "state":"FL",
        "zip":"33180",
        "phone":"305.384.4850",
        "latitude":25.9672024,
        "longitude":-80.14457,
        "url":"https:\/\/stores.nordstromrack.com\/us\/fl\/aventura\/20669-biscayne-blvd",
        "timezone":"America\/New_York",
        "state_name":"Florida",
        "brand":"Nordstrom",
        "updated":"2024-03-31"
    },
    {
        "store_number":779,
        "store_type":"Rack",
        "store_name":"Nordstrom Rack The Palms at Town and Country",
        "street":"8525 Mills Drive",
        "city":"Kendall",
        "state":"FL",
        "zip":"33183",
        "phone":"786.972.3450",
        "latitude":25.687978,
        "longitude":-80.3861721,
        "url":"https:\/\/stores.nordstromrack.com\/us\/fl\/kendall\/8525-mills-dr",
        "timezone":"America\/New_York",
        "state_name":"Florida",
        "brand":"Nordstrom",
        "updated":"2024-03-31"
    },
    {
        "store_number":771,
        "store_type":"Rack",
        "store_name":"Nordstrom Rack The Oasis at Sawgrass Mills",
        "street":"2604 Sawgrass Mills Circle, #1129",
        "city":"Sunrise",
        "state":"FL",
        "zip":"33323",
        "phone":"954.331.3960",
        "latitude":26.1538022,
        "longitude":-80.3211668,
        "url":"https:\/\/stores.nordstromrack.com\/us\/fl\/sunrise\/2604-sawgrass-mills-circle",
        "timezone":"America\/New_York",
        "state_name":"Florida",
        "brand":"Nordstrom",
        "updated":"2024-03-31"
    },
    {
        "store_number":712,
        "store_type":"Rack",
        "store_name":"Nordstrom Rack at 1600 Commons",
        "street":"1540 North Federal Highway",
        "city":"Ft. Lauderdale",
        "state":"FL",
        "zip":"33304",
        "phone":"954.901.2950",
        "latitude":26.1471033,
        "longitude":-80.1191134,
        "url":"https:\/\/stores.nordstromrack.com\/us\/fl\/fort-lauderdale\/1540-north-federal-highway",
        "timezone":"America\/New_York",
        "state_name":"Florida",
        "brand":"Nordstrom",
        "updated":"2024-03-31"
    },
    {
        "store_number":762,
        "store_type":"FullLineStore",
        "store_name":"Nordstrom Town Center at Boca Raton",
        "street":"5820 Glades Road",
        "city":"Boca Raton",
        "state":"FL",
        "zip":"33431",
        "phone":"561.620.5555",
        "latitude":26.3628304,
        "longitude":-80.1308142,
        "url":"",
        "timezone":"America\/New_York",
        "state_name":"Florida",
        "brand":"Nordstrom",
        "updated":"2024-03-31"
    },
    {
        "store_number":755,
        "store_type":"Rack",
        "store_name":"Nordstrom Rack University Commons",
        "street":"1400 Glades Road",
        "city":"Boca Raton",
        "state":"FL",
        "zip":"33431",
        "phone":"561.287.4663",
        "latitude":26.3656936,
        "longitude":-80.1131859,
        "url":"https:\/\/stores.nordstromrack.com\/us\/fl\/boca-raton\/1400-glades-rd",
        "timezone":"America\/New_York",
        "state_name":"Florida",
        "brand":"Nordstrom",
        "updated":"2024-03-31"
    },
    {
        "store_number":692,
        "store_type":"Rack",
        "store_name":"Nordstrom Delray Beach Rack",
        "street":"1855 S Federal Hwy Suite 514",
        "city":"Delray Beach",
        "state":"FL",
        "zip":"33483",
        "phone":"561.404.2000",
        "latitude":26.444633,
        "longitude":-80.067822,
        "url":"https:\/\/stores.nordstromrack.com\/us\/fl\/delray-beach\/1855-s-federal-highway",
        "timezone":"America\/New_York",
        "state_name":"Florida",
        "brand":"Nordstrom",
        "updated":"2024-03-31"
    },
    {
        "store_number":282,
        "store_type":"FullLineStore",
        "store_name":"Nordstrom Mayfair",
        "street":"2424 N. Mayfair Road",
        "city":"Wauwatosa",
        "state":"WI",
        "zip":"53226",
        "phone":"414.203.6900",
        "latitude":43.062757,
        "longitude":-88.047597,
        "url":"",
        "timezone":"America\/Chicago",
        "state_name":"Wisconsin",
        "brand":"Nordstrom",
        "updated":"2024-03-31"
    },
    {
        "store_number":784,
        "store_type":"Rack",
        "store_name":"Nordstrom Rack Palm Beach Outlets",
        "street":"1865 Palm Beach Lakes Blvd, #B24",
        "city":"West Palm Beach",
        "state":"FL",
        "zip":"33401",
        "phone":"561.491.4540",
        "latitude":26.7226619,
        "longitude":-80.0900328,
        "url":"https:\/\/stores.nordstromrack.com\/us\/fl\/west-palm-beach\/1865-palm-beach-lakes-boulevard",
        "timezone":"America\/New_York",
        "state_name":"Florida",
        "brand":"Nordstrom",
        "updated":"2024-03-31"
    },
    {
        "store_number":773,
        "store_type":"FullLineStore",
        "store_name":"Nordstrom The Gardens",
        "street":"3111 PGA Boulevard",
        "city":"Palm Beach Gardens",
        "state":"FL",
        "zip":"33410",
        "phone":"561.340.2100",
        "latitude":26.8481472,
        "longitude":-80.0875819,
        "url":"",
        "timezone":"America\/New_York",
        "state_name":"Florida",
        "brand":"Nordstrom",
        "updated":"2024-03-31"
    },
    {
        "store_number":661,
        "store_type":"Rack",
        "store_name":"Nordstrom Rack Canton Crossing",
        "street":"3967 Boston St",
        "city":"Baltimore",
        "state":"MD",
        "zip":"21224",
        "phone":"410.801.4922",
        "latitude":39.28382,
        "longitude":-76.550113,
        "url":"https:\/\/stores.nordstromrack.com\/us\/md\/baltimore\/3967-boston-st",
        "timezone":"America\/New_York",
        "state_name":"Maryland",
        "brand":"Nordstrom",
        "updated":"2024-03-31"
    },
    {
        "store_number":622,
        "store_type":"FullLineStore",
        "store_name":"Nordstrom Towson Town Center",
        "street":"700 Fairmount Avenue",
        "city":"Towson",
        "state":"MD",
        "zip":"21286",
        "phone":"410.296.2111",
        "latitude":39.404083,
        "longitude":-76.596677,
        "url":"",
        "timezone":"America\/New_York",
        "state_name":"Maryland",
        "brand":"Nordstrom",
        "updated":"2024-03-31"
    },
    {
        "store_number":627,
        "store_type":"Rack",
        "store_name":"Nordstrom Rack Towson",
        "street":"700 Fairmount Avenue",
        "city":"Towson",
        "state":"MD",
        "zip":"21286",
        "phone":"410.494.9111",
        "latitude":39.404083,
        "longitude":-76.596677,
        "url":"https:\/\/stores.nordstromrack.com\/us\/md\/towson\/700-fairmount-ave",
        "timezone":"America\/New_York",
        "state_name":"Maryland",
        "brand":"Nordstrom",
        "updated":"2024-03-31"
    },
    {
        "store_number":796,
        "store_type":"Rack",
        "store_name":"Nordstrom Rack Lake Brandon Plaza",
        "street":"11201 Causeway Boulevard",
        "city":"Brandon",
        "state":"FL",
        "zip":"33511",
        "phone":"813.330.4500",
        "latitude":27.923099,
        "longitude":-82.324066,
        "url":"https:\/\/stores.nordstromrack.com\/us\/fl\/brandon\/11201-causeway-boulevard",
        "timezone":"America\/New_York",
        "state_name":"Florida",
        "brand":"Nordstrom",
        "updated":"2024-03-31"
    },
    {
        "store_number":781,
        "store_type":"Rack",
        "store_name":"Nordstrom Rack in Tampa",
        "street":"1702 North Dale Mabry Highway",
        "city":"Tampa",
        "state":"FL",
        "zip":"33607",
        "phone":"813.422.7500",
        "latitude":27.958001,
        "longitude":-82.505678,
        "url":"https:\/\/stores.nordstromrack.com\/us\/fl\/tampa\/1702-n-dale-mabry-highway",
        "timezone":"America\/New_York",
        "state_name":"Florida",
        "brand":"Nordstrom",
        "updated":"2024-03-31"
    },
    {
        "store_number":765,
        "store_type":"FullLineStore",
        "store_name":"Nordstrom International Plaza",
        "street":"2223 N Westshore Blvd Ste 300",
        "city":"Tampa",
        "state":"FL",
        "zip":"33607",
        "phone":"813.875.4400",
        "latitude":27.961608,
        "longitude":-82.524039,
        "url":"",
        "timezone":"America\/New_York",
        "state_name":"Florida",
        "brand":"Nordstrom",
        "updated":"2024-03-31"
    },
    {
        "store_number":793,
        "store_type":"Rack",
        "store_name":"Nordstrom Rack Clearwater",
        "street":"2435 State Road 580",
        "city":"Clearwater",
        "state":"FL",
        "zip":"33761",
        "phone":"727.216.2525",
        "latitude":28.0188758,
        "longitude":-82.7367201,
        "url":"https:\/\/stores.nordstromrack.com\/us\/fl\/clearwater\/2435-state-road-580",
        "timezone":"America\/New_York",
        "state_name":"Florida",
        "brand":"Nordstrom",
        "updated":"2024-03-31"
    },
    {
        "store_number":27,
        "store_type":"Rack",
        "store_name":"Nordstrom Rack Tanasbourne Town Center",
        "street":"11100 NE Evergreen Parkway",
        "city":"Hillsboro",
        "state":"OR",
        "zip":"97006",
        "phone":"503.439.0900",
        "latitude":45.5353945,
        "longitude":-122.8656015,
        "url":"https:\/\/stores.nordstromrack.com\/us\/or\/hillsboro\/11100-ne-evergreen-pkwy",
        "timezone":"America\/Los_Angeles",
        "state_name":"Oregon",
        "brand":"Nordstrom",
        "updated":"2024-03-31"
    },
    {
        "store_number":125,
        "store_type":"Rack",
        "store_name":"Nordstrom Rack Cascade Plaza",
        "street":"9175 SW Cascade Avenue",
        "city":"Beaverton",
        "state":"OR",
        "zip":"97008",
        "phone":"971.327.6161",
        "latitude":45.453587,
        "longitude":-122.786513,
        "url":"https:\/\/stores.nordstromrack.com\/us\/or\/beaverton\/9175-sw-cascade-ave",
        "timezone":"America\/Los_Angeles",
        "state_name":"Oregon",
        "brand":"Nordstrom",
        "updated":"2024-03-31"
    },
    {
        "store_number":25,
        "store_type":"FullLineStore",
        "store_name":"Nordstrom Washington Square",
        "street":"9700 SW Washington Square Road",
        "city":"Tigard",
        "state":"OR",
        "zip":"97223",
        "phone":"503.620.0555",
        "latitude":45.4491225,
        "longitude":-122.7820142,
        "url":"",
        "timezone":"America\/Los_Angeles",
        "state_name":"Oregon",
        "brand":"Nordstrom",
        "updated":"2024-03-31"
    },
    {
        "store_number":20,
        "store_type":"FullLineStore",
        "store_name":"Nordstrom Downtown Portland",
        "street":"701 SW Broadway",
        "city":"Portland",
        "state":"OR",
        "zip":"97205",
        "phone":"503.224.6666",
        "latitude":45.5191726,
        "longitude":-122.6803729,
        "url":"",
        "timezone":"America\/Los_Angeles",
        "state_name":"Oregon",
        "brand":"Nordstrom",
        "updated":"2024-03-31"
    },
    {
        "store_number":28,
        "store_type":"Rack",
        "store_name":"Nordstrom Rack Downtown Portland",
        "street":"245 SW Morrison Street",
        "city":"Portland",
        "state":"OR",
        "zip":"97204",
        "phone":"503.299.1815",
        "latitude":45.5183505,
        "longitude":-122.6752872,
        "url":"https:\/\/stores.nordstromrack.com\/us\/or\/portland\/245-sw-morrison-st",
        "timezone":"America\/Los_Angeles",
        "state_name":"Oregon",
        "brand":"Nordstrom",
        "updated":"2024-03-31"
    },
    {
        "store_number":113,
        "store_type":"Rack",
        "store_name":"Nordstrom Rack Cascade Station",
        "street":"10159 NE Cascades Parkway",
        "city":"Portland",
        "state":"OR",
        "zip":"97220",
        "phone":"971.201.4332",
        "latitude":45.572915,
        "longitude":-122.558151,
        "url":"https:\/\/stores.nordstromrack.com\/us\/or\/portland\/10159-ne-cascades-parkway",
        "timezone":"America\/Los_Angeles",
        "state_name":"Oregon",
        "brand":"Nordstrom",
        "updated":"2024-03-31"
    },
    {
        "store_number":22,
        "store_type":"Rack",
        "store_name":"Nordstrom Rack Clackamas Promenade",
        "street":"8930 SE Sunnyside Road",
        "city":"Clackamas",
        "state":"OR",
        "zip":"97015",
        "phone":"503.654.5415",
        "latitude":45.4308309,
        "longitude":-122.572411,
        "url":"https:\/\/stores.nordstromrack.com\/us\/or\/clackamas\/8930-se-sunnyside-rd",
        "timezone":"America\/Los_Angeles",
        "state_name":"Oregon",
        "brand":"Nordstrom",
        "updated":"2024-03-31"
    },
    {
        "store_number":417,
        "store_type":"Rack",
        "store_name":"Nordstrom Willamette Town Center Rack",
        "street":"827 Lancaster Dr NE",
        "city":"Salem",
        "state":"OR",
        "zip":"97301",
        "phone":"971.345.3336",
        "latitude":44.94128,
        "longitude":-122.985588,
        "url":"",
        "timezone":"America\/Los_Angeles",
        "state_name":"Oregon",
        "brand":"Nordstrom",
        "updated":"2024-03-31"
    },
    {
        "store_number":139,
        "store_type":"Rack",
        "store_name":"Nordstrom Rack The Village at Totem Lake",
        "street":"12520 Totem Lake Blvd NE #120",
        "city":"Kirkland",
        "state":"WA",
        "zip":"98034",
        "phone":"425.202.0205",
        "latitude":47.715886,
        "longitude":-122.203819,
        "url":"https:\/\/stores.nordstromrack.com\/us\/wa\/kirkland\/12520-totem-lake-blvd-ne",
        "timezone":"America\/Los_Angeles",
        "state_name":"Washington",
        "brand":"Nordstrom",
        "updated":"2024-03-31"
    },
    {
        "store_number":138,
        "store_type":"Rack",
        "store_name":"Nordstrom Rack Bellevue Lincoln Square",
        "street":"500 Bellevue Way NE",
        "city":"Bellevue",
        "state":"WA",
        "zip":"98004",
        "phone":"425.505.4222",
        "latitude":47.6148123,
        "longitude":-122.2013927,
        "url":"https:\/\/stores.nordstromrack.com\/us\/wa\/bellevue\/500-bellevue-way-ne",
        "timezone":"America\/Los_Angeles",
        "state_name":"Washington",
        "brand":"Nordstrom",
        "updated":"2024-03-31"
    },
    {
        "store_number":4,
        "store_type":"FullLineStore",
        "store_name":"Nordstrom Bellevue Square",
        "street":"100 Bellevue Square",
        "city":"Bellevue",
        "state":"WA",
        "zip":"98004",
        "phone":"425.455.5800",
        "latitude":47.614107,
        "longitude":-122.204688,
        "url":"",
        "timezone":"America\/Los_Angeles",
        "state_name":"Washington",
        "brand":"Nordstrom",
        "updated":"2024-03-31"
    },
    {
        "store_number":14,
        "store_type":"Rack",
        "store_name":"Nordstrom Rack Factoria Mall",
        "street":"3920 124th Avenue SE",
        "city":"Bellevue",
        "state":"WA",
        "zip":"98006",
        "phone":"425.746.7200",
        "latitude":47.5755136,
        "longitude":-122.1721649,
        "url":"https:\/\/stores.nordstromrack.com\/us\/wa\/bellevue\/3920-124th-ave-se",
        "timezone":"America\/Los_Angeles",
        "state_name":"Washington",
        "brand":"Nordstrom",
        "updated":"2024-03-31"
    },
    {
        "store_number":111,
        "store_type":"Rack",
        "store_name":"Nordstrom Rack Northgate",
        "street":"401 NE Northgate Way, Suite #304",
        "city":"Seattle",
        "state":"WA",
        "zip":"98125",
        "phone":"206.641.3300",
        "latitude":47.7040309,
        "longitude":-122.3254295,
        "url":"https:\/\/stores.nordstromrack.com\/us\/wa\/seattle\/401-ne-northgate-way",
        "timezone":"America\/Los_Angeles",
        "state_name":"Washington",
        "brand":"Nordstrom",
        "updated":"2024-03-31"
    },
    {
        "store_number":1,
        "store_type":"FullLineStore",
        "store_name":"Nordstrom Downtown Seattle",
        "street":"500 Pine Street",
        "city":"Seattle",
        "state":"WA",
        "zip":"98101",
        "phone":"206.628.2111",
        "latitude":47.611949,
        "longitude":-122.335961,
        "url":"",
        "timezone":"America\/Los_Angeles",
        "state_name":"Washington",
        "brand":"Nordstrom",
        "updated":"2024-03-31"
    },
    {
        "store_number":16,
        "store_type":"Rack",
        "store_name":"Nordstrom Rack Downtown Seattle",
        "street":"400 Pine Street",
        "city":"Seattle",
        "state":"WA",
        "zip":"98101",
        "phone":"206.448.8522",
        "latitude":47.611759,
        "longitude":-122.3367904,
        "url":"https:\/\/stores.nordstromrack.com\/us\/wa\/seattle\/400-pine-st",
        "timezone":"America\/Los_Angeles",
        "state_name":"Washington",
        "brand":"Nordstrom",
        "updated":"2024-03-31"
    },
    {
        "store_number":15,
        "store_type":"Rack",
        "store_name":"Nordstrom Rack Golde Creek Plaza",
        "street":"19500 Alderwood Mall Parkway",
        "city":"Lynnwood",
        "state":"WA",
        "zip":"98036",
        "phone":"425.774.6569",
        "latitude":47.822014,
        "longitude":-122.2718707,
        "url":"https:\/\/stores.nordstromrack.com\/us\/wa\/lynnwood\/19500-alderwood-mall-pkwy",
        "timezone":"America\/Los_Angeles",
        "state_name":"Washington",
        "brand":"Nordstrom",
        "updated":"2024-03-31"
    },
    {
        "store_number":10,
        "store_type":"FullLineStore",
        "store_name":"Nordstrom Alderwood Mall",
        "street":"3200 184th Street SW",
        "city":"Lynnwood",
        "state":"WA",
        "zip":"98037",
        "phone":"425.771.5755",
        "latitude":47.8306559,
        "longitude":-122.2741404,
        "url":"",
        "timezone":"America\/Los_Angeles",
        "state_name":"Washington",
        "brand":"Nordstrom",
        "updated":"2024-03-31"
    },
    {
        "store_number":3,
        "store_type":"Rack",
        "store_name":"Nordstrom Rack Southcenter Square",
        "street":"17200 Southcenter Parkway",
        "city":"Tukwila",
        "state":"WA",
        "zip":"98188",
        "phone":"206.407.1020",
        "latitude":47.450822,
        "longitude":-122.262458,
        "url":"https:\/\/stores.nordstromrack.com\/us\/wa\/tukwila\/17200-southcenter-pkwy",
        "timezone":"America\/Los_Angeles",
        "state_name":"Washington",
        "brand":"Nordstrom",
        "updated":"2024-03-31"
    },
    {
        "store_number":5,
        "store_type":"FullLineStore",
        "store_name":"Nordstrom Southcenter",
        "street":"100 Southcenter Mall",
        "city":"Tukwila",
        "state":"WA",
        "zip":"98188",
        "phone":"206.246.0400",
        "latitude":47.452837,
        "longitude":-122.271716,
        "url":"",
        "timezone":"America\/Los_Angeles",
        "state_name":"Washington",
        "brand":"Nordstrom",
        "updated":"2024-03-31"
    },
    {
        "store_number":17,
        "store_type":"Rack",
        "store_name":"Nordstrom Rack at The Outlet Collection",
        "street":"1101 Outlet Collection Dr SW, #1320",
        "city":"Auburn",
        "state":"WA",
        "zip":"98001",
        "phone":"253.833.8824",
        "latitude":47.298706,
        "longitude":-122.2484283,
        "url":"https:\/\/stores.nordstromrack.com\/us\/wa\/auburn\/1101-outlet-collection-dr-sw",
        "timezone":"America\/Los_Angeles",
        "state_name":"Washington",
        "brand":"Nordstrom",
        "updated":"2024-03-31"
    },
    {
        "store_number":120,
        "store_type":"Rack",
        "store_name":"Nordstrom Tacoma Mall Rack",
        "street":"4502 S STEELE ST STE 1670",
        "city":"TACOMA",
        "state":"WA",
        "zip":"984097242",
        "phone":"253.393.4500",
        "latitude":47.217879,
        "longitude":-122.467628,
        "url":"https:\/\/stores.nordstromrack.com\/us\/wa\/tacoma\/4502-s-steele-st",
        "timezone":"America\/Los_Angeles",
        "state_name":"Washington",
        "brand":"Nordstrom",
        "updated":"2024-03-31"
    },
    {
        "store_number":6,
        "store_type":"FullLineStore",
        "store_name":"Nordstrom Tacoma Mall",
        "street":"4502 South Steele Street, #800",
        "city":"Tacoma",
        "state":"WA",
        "zip":"98409",
        "phone":"253.475.3630",
        "latitude":47.217879,
        "longitude":-122.467628,
        "url":"",
        "timezone":"America\/Los_Angeles",
        "state_name":"Washington",
        "brand":"Nordstrom",
        "updated":"2024-03-31"
    },
    {
        "store_number":645,
        "store_type":"Rack",
        "store_name":"Nordstrom Rack Christiana Fashion Center",
        "street":"2400 Fashion Center Boulevard",
        "city":"Newark",
        "state":"DE",
        "zip":"19702",
        "phone":"302.613.6400",
        "latitude":39.633688,
        "longitude":-75.713964,
        "url":"https:\/\/stores.nordstromrack.com\/us\/de\/newark\/2400-fashion-center-blvd",
        "timezone":"America\/New_York",
        "state_name":"Delaware",
        "brand":"Nordstrom",
        "updated":"2024-03-31"
    },
    {
        "store_number":652,
        "store_type":"Rack",
        "store_name":"Nordstrom Rack Shoppes at Belmont",
        "street":"1585 Fruitville Pike",
        "city":"Lancaster",
        "state":"PA",
        "zip":"17601",
        "phone":"717.666.6420",
        "latitude":40.063258,
        "longitude":-76.314052,
        "url":"https:\/\/stores.nordstromrack.com\/us\/pa\/lancaster\/1585-fruitville-pike",
        "timezone":"America\/New_York",
        "state_name":"Pennsylvania",
        "brand":"Nordstrom",
        "updated":"2024-03-31"
    },
    {
        "store_number":72,
        "store_type":"Rack",
        "store_name":"Nordstrom Rack Station Park",
        "street":"380 North Station Parkway",
        "city":"Farmington",
        "state":"UT",
        "zip":"84025",
        "phone":"801.447.6077",
        "latitude":40.9867087,
        "longitude":-111.9049188,
        "url":"https:\/\/stores.nordstromrack.com\/us\/ut\/farmington\/380-n-station-pkwy",
        "timezone":"America\/Denver",
        "state_name":"Utah",
        "brand":"Nordstrom",
        "updated":"2024-03-31"
    },
    {
        "store_number":73,
        "store_type":"FullLineStore",
        "store_name":"Nordstrom City Creek Center",
        "street":"55 South West Temple",
        "city":"Salt Lake City",
        "state":"UT",
        "zip":"84101",
        "phone":"801.322.4200",
        "latitude":40.76811,
        "longitude":-111.893822,
        "url":"",
        "timezone":"America\/Denver",
        "state_name":"Utah",
        "brand":"Nordstrom",
        "updated":"2024-03-31"
    },
    {
        "store_number":33,
        "store_type":"Rack",
        "store_name":"Nordstrom Rack Sugar House",
        "street":"2210 South 1300 East",
        "city":"Salt Lake City",
        "state":"UT",
        "zip":"84106",
        "phone":"801.484.8880",
        "latitude":40.722851,
        "longitude":-111.855343,
        "url":"https:\/\/stores.nordstromrack.com\/us\/ut\/salt-lake-city\/2210-s-1300-e",
        "timezone":"America\/Denver",
        "state_name":"Utah",
        "brand":"Nordstrom",
        "updated":"2024-03-31"
    },
    {
        "store_number":32,
        "store_type":"FullLineStore",
        "store_name":"Nordstrom Fashion Place",
        "street":"6191 South State Street, Suite 200",
        "city":"Murray",
        "state":"UT",
        "zip":"84107",
        "phone":"801.261.4402",
        "latitude":40.6368125,
        "longitude":-111.8871581,
        "url":"",
        "timezone":"America\/Denver",
        "state_name":"Utah",
        "brand":"Nordstrom",
        "updated":"2024-03-31"
    },
    {
        "store_number":71,
        "store_type":"Rack",
        "store_name":"Nordstrom Rack Commons at South Towne",
        "street":"10379 South State Street",
        "city":"Sandy",
        "state":"UT",
        "zip":"84070",
        "phone":"801.432.5100",
        "latitude":40.5627165,
        "longitude":-111.8888718,
        "url":"https:\/\/stores.nordstromrack.com\/us\/ut\/sandy\/10379-s-state-st",
        "timezone":"America\/Denver",
        "state_name":"Utah",
        "brand":"Nordstrom",
        "updated":"2024-03-31"
    },
    {
        "store_number":551,
        "store_type":"Rack",
        "store_name":"Nordstrom Rack Chestnut Street",
        "street":"1700 Chestnut Street",
        "city":"Philadelphia",
        "state":"PA",
        "zip":"19103",
        "phone":"215.599.6755",
        "latitude":39.951524,
        "longitude":-75.169577,
        "url":"https:\/\/stores.nordstromrack.com\/us\/pa\/philadelphia\/1700-chestnut-street",
        "timezone":"America\/New_York",
        "state_name":"Pennsylvania",
        "brand":"Nordstrom",
        "updated":"2024-03-31"
    },
    {
        "store_number":634,
        "store_type":"Rack",
        "store_name":"Nordstrom Rack King of Prussia Town Center",
        "street":"101 Town Square Place",
        "city":"King of Prussia",
        "state":"PA",
        "zip":"19406",
        "phone":"610.205.8717",
        "latitude":40.093503,
        "longitude":-75.374754,
        "url":"https:\/\/stores.nordstromrack.com\/us\/pa\/king-of-prussia\/101-town-square-place",
        "timezone":"America\/New_York",
        "state_name":"Pennsylvania",
        "brand":"Nordstrom",
        "updated":"2024-03-31"
    },
    {
        "store_number":629,
        "store_type":"FullLineStore",
        "store_name":"Nordstrom The Plaza at King of Prussia",
        "street":"190 North Gulph Road",
        "city":"King of Prussia",
        "state":"PA",
        "zip":"19406",
        "phone":"610.265.6111",
        "latitude":40.085397,
        "longitude":-75.394692,
        "url":"",
        "timezone":"America\/New_York",
        "state_name":"Pennsylvania",
        "brand":"Nordstrom",
        "updated":"2024-03-31"
    },
    {
        "store_number":639,
        "store_type":"FullLineStore",
        "store_name":"Nordstrom Christiana Mall",
        "street":"100 Christiana Mall",
        "city":"Newark",
        "state":"DE",
        "zip":"19702",
        "phone":"302.613.6000",
        "latitude":39.676473,
        "longitude":-75.654339,
        "url":"",
        "timezone":"America\/New_York",
        "state_name":"Delaware",
        "brand":"Nordstrom",
        "updated":"2024-03-31"
    },
    {
        "store_number":648,
        "store_type":"Rack",
        "store_name":"Nordstrom Rack Hamilton Crossings",
        "street":"750 North Krocks Road, Suite 303",
        "city":"Allentown",
        "state":"PA",
        "zip":"18106",
        "phone":"610.628.6001",
        "latitude":40.564625,
        "longitude":-75.603429,
        "url":"https:\/\/stores.nordstromrack.com\/us\/pa\/allentown\/750-north-krocks-road",
        "timezone":"America\/New_York",
        "state_name":"Pennsylvania",
        "brand":"Nordstrom",
        "updated":"2024-03-31"
    },
    {
        "store_number":74,
        "store_type":"Rack",
        "store_name":"Nordstrom Rack University Crossing",
        "street":"360 East University Parkway",
        "city":"Orem",
        "state":"UT",
        "zip":"84058",
        "phone":"801.734.4600",
        "latitude":40.2722141,
        "longitude":-111.6861015,
        "url":"https:\/\/stores.nordstromrack.com\/us\/ut\/orem\/360-east-university-parkway",
        "timezone":"America\/Denver",
        "state_name":"Utah",
        "brand":"Nordstrom",
        "updated":"2024-03-31"
    },
    {
        "store_number":266,
        "store_type":"Rack",
        "store_name":"Nordstrom Rack Arborland Center",
        "street":"3547 Washtenaw Avenue",
        "city":"Ann Arbor",
        "state":"MI",
        "zip":"48104",
        "phone":"734.780.3232",
        "latitude":42.2574113,
        "longitude":-83.6897813,
        "url":"https:\/\/stores.nordstromrack.com\/us\/mi\/ann-arbor\/3547-washtenaw-ave",
        "timezone":"America\/Detroit",
        "state_name":"Michigan",
        "brand":"Nordstrom",
        "updated":"2024-03-31"
    },
    {
        "store_number":288,
        "store_type":"Rack",
        "store_name":"Nordstrom Rack Novi West Oaks",
        "street":"43839 West Oaks Drive",
        "city":"Novi",
        "state":"MI",
        "zip":"48377",
        "phone":"248.319.4000",
        "latitude":42.491786,
        "longitude":-83.481492,
        "url":"https:\/\/stores.nordstromrack.com\/us\/mi\/novi\/43839-west-oaks-drive",
        "timezone":"America\/New_York",
        "state_name":"Michigan",
        "brand":"Nordstrom",
        "updated":"2024-03-31"
    },
    {
        "store_number":235,
        "store_type":"FullLineStore",
        "store_name":"Nordstrom Twelve Oaks Mall",
        "street":"27640 Novi Road",
        "city":"Novi",
        "state":"MI",
        "zip":"48377",
        "phone":"248.504.5700",
        "latitude":42.491798,
        "longitude":-83.4673196,
        "url":"",
        "timezone":"America\/New_York",
        "state_name":"Michigan",
        "brand":"Nordstrom",
        "updated":"2024-03-31"
    },
    {
        "store_number":228,
        "store_type":"FullLineStore",
        "store_name":"Nordstrom Somerset Collection",
        "street":"2850 West Big Beaver Road",
        "city":"Troy",
        "state":"MI",
        "zip":"48084",
        "phone":"248.816.5100",
        "latitude":42.5627731,
        "longitude":-83.1859553,
        "url":"",
        "timezone":"America\/New_York",
        "state_name":"Michigan",
        "brand":"Nordstrom",
        "updated":"2024-03-31"
    },
    {
        "store_number":231,
        "store_type":"Rack",
        "store_name":"Nordstrom Rack Troy Marketplace",
        "street":"822 East Big Beaver Road",
        "city":"Troy",
        "state":"MI",
        "zip":"48083",
        "phone":"248.764.2121",
        "latitude":42.562777,
        "longitude":-83.130922,
        "url":"https:\/\/stores.nordstromrack.com\/us\/mi\/troy\/822-e-big-beaver-rd",
        "timezone":"America\/New_York",
        "state_name":"Michigan",
        "brand":"Nordstrom",
        "updated":"2024-03-31"
    },
    {
        "store_number":267,
        "store_type":"Rack",
        "store_name":"Nordstrom Rack Great Lakes Crossing",
        "street":"4700 Baldwin Road",
        "city":"Auburn Hills",
        "state":"MI",
        "zip":"48326",
        "phone":"248.920.7000",
        "latitude":42.7026934329,
        "longitude":-83.3027412439,
        "url":"https:\/\/stores.nordstromrack.com\/us\/mi\/auburn-hills\/4700-baldwin-rd",
        "timezone":"America\/Detroit",
        "state_name":"Michigan",
        "brand":"Nordstrom",
        "updated":"2024-03-31"
    },
    {
        "store_number":749,
        "store_type":"Rack",
        "store_name":"Nordstrom Rack Woodland Plaza",
        "street":"8722 East 71st Street",
        "city":"Tulsa",
        "state":"OK",
        "zip":"74133",
        "phone":"918.505.4650",
        "latitude":36.0590893,
        "longitude":-95.8790263,
        "url":"https:\/\/stores.nordstromrack.com\/us\/ok\/tulsa\/8722-east-71st-st",
        "timezone":"America\/Chicago",
        "state_name":"Oklahoma",
        "brand":"Nordstrom",
        "updated":"2024-03-31"
    },
    {
        "store_number":714,
        "store_type":"Rack",
        "store_name":"Nordstrom Rack Winter Park Square",
        "street":"1090 N Orlando Avenue Suite 101",
        "city":"Winter Park",
        "state":"FL",
        "zip":"32789",
        "phone":"407.772.6010",
        "latitude":28.607487,
        "longitude":-81.365117,
        "url":"https:\/\/stores.nordstromrack.com\/us\/fl\/winter-park\/1090-orlando-avenue",
        "timezone":"America\/New_York",
        "state_name":"Florida",
        "brand":"Nordstrom",
        "updated":"2024-03-31"
    },
    {
        "store_number":778,
        "store_type":"Rack",
        "store_name":"Nordstrom Rack Millenia Crossing",
        "street":"4036 Eastgate Drive",
        "city":"Orlando",
        "state":"FL",
        "zip":"32839",
        "phone":"321.558.3800",
        "latitude":28.4844623,
        "longitude":-81.4261686,
        "url":"https:\/\/stores.nordstromrack.com\/us\/fl\/orlando\/4036-eastgate-dr",
        "timezone":"America\/New_York",
        "state_name":"Florida",
        "brand":"Nordstrom",
        "updated":"2024-03-31"
    },
    {
        "store_number":277,
        "store_type":"Rack",
        "store_name":"Nordstrom Rack Crocker Park",
        "street":"30121 Detroit Road",
        "city":"Westlake",
        "state":"OH",
        "zip":"44145",
        "phone":"440.925.6464",
        "latitude":41.4614928,
        "longitude":-81.952348,
        "url":"https:\/\/stores.nordstromrack.com\/us\/oh\/westlake\/30121-detroit-rd",
        "timezone":"America\/New_York",
        "state_name":"Ohio",
        "brand":"Nordstrom",
        "updated":"2024-03-31"
    },
    {
        "store_number":241,
        "store_type":"Rack",
        "store_name":"Nordstrom Rack Legacy Village",
        "street":"25149 Cedar Road",
        "city":"Lyndhurst",
        "state":"OH",
        "zip":"44124",
        "phone":"216.472.2244",
        "latitude":41.5028181,
        "longitude":-81.4988704,
        "url":"https:\/\/stores.nordstromrack.com\/us\/oh\/lyndhurst\/25149-cedar-rd",
        "timezone":"America\/New_York",
        "state_name":"Ohio",
        "brand":"Nordstrom",
        "updated":"2024-03-31"
    },
    {
        "store_number":227,
        "store_type":"FullLineStore",
        "store_name":"Nordstrom Beachwood Place",
        "street":"26200 Cedar Road",
        "city":"Beachwood",
        "state":"OH",
        "zip":"44122",
        "phone":"216.378.2121",
        "latitude":41.501184,
        "longitude":-81.494465,
        "url":"",
        "timezone":"America\/New_York",
        "state_name":"Ohio",
        "brand":"Nordstrom",
        "updated":"2024-03-31"
    },
    {
        "store_number":547,
        "store_type":"Rack",
        "store_name":"Nordstrom Rack Newbury",
        "street":"497 Boylston Street",
        "city":"Boston",
        "state":"MA",
        "zip":"02116",
        "phone":"857.300.2300",
        "latitude":42.351166,
        "longitude":-71.0742742,
        "url":"https:\/\/stores.nordstromrack.com\/us\/ma\/boston\/497-boylston-st",
        "timezone":"America\/New_York",
        "state_name":"Massachusetts",
        "brand":"Nordstrom",
        "updated":"2024-03-31"
    },
    {
        "store_number":543,
        "store_type":"Rack",
        "store_name":"Nordstrom Rack Middlesex Commons",
        "street":"43 Middlesex Turnpike, Suite 5",
        "city":"Burlington",
        "state":"MA",
        "zip":"01803",
        "phone":"781.345.4960",
        "latitude":42.4703242,
        "longitude":-71.2076014,
        "url":"https:\/\/stores.nordstromrack.com\/us\/ma\/burlington\/43-middlesex-turnpike",
        "timezone":"America\/New_York",
        "state_name":"Massachusetts",
        "brand":"Nordstrom",
        "updated":"2024-03-31"
    },
    {
        "store_number":535,
        "store_type":"FullLineStore",
        "store_name":"Nordstrom Burlington",
        "street":"75 Middlesex Turnpike",
        "city":"Burlington",
        "state":"MA",
        "zip":"01803",
        "phone":"781.345.7800",
        "latitude":42.480541,
        "longitude":-71.216846,
        "url":"",
        "timezone":"America\/New_York",
        "state_name":"Massachusetts",
        "brand":"Nordstrom",
        "updated":"2024-03-31"
    },
    {
        "store_number":536,
        "store_type":"FullLineStore",
        "store_name":"Nordstrom Northshore",
        "street":"210 Andover Street",
        "city":"Peabody",
        "state":"MA",
        "zip":"01960",
        "phone":"978.278.7400",
        "latitude":42.545286,
        "longitude":-70.944518,
        "url":"",
        "timezone":"America\/New_York",
        "state_name":"Massachusetts",
        "brand":"Nordstrom",
        "updated":"2024-03-31"
    },
    {
        "store_number":542,
        "store_type":"Rack",
        "store_name":"Nordstrom Rack Liberty Tree Mall",
        "street":"50 Independence Way",
        "city":"Danvers",
        "state":"MA",
        "zip":"01923",
        "phone":"978.539.6060",
        "latitude":42.550617,
        "longitude":-70.939458,
        "url":"https:\/\/stores.nordstromrack.com\/us\/ma\/danvers\/50-independence-way",
        "timezone":"America\/New_York",
        "state_name":"Massachusetts",
        "brand":"Nordstrom",
        "updated":"2024-03-31"
    },
    {
        "store_number":534,
        "store_type":"FullLineStore",
        "store_name":"Nordstrom South Shore Plaza",
        "street":"250 Granite Street",
        "city":"Braintree",
        "state":"MA",
        "zip":"02184",
        "phone":"781.519.7200",
        "latitude":42.218466,
        "longitude":-71.025525,
        "url":"",
        "timezone":"America\/New_York",
        "state_name":"Massachusetts",
        "brand":"Nordstrom",
        "updated":"2024-03-31"
    },
    {
        "store_number":553,
        "store_type":"Rack",
        "store_name":"Nordstrom Rack Marketplace at Braintree",
        "street":"200 Grossman Drive, Suite 102",
        "city":"Braintree",
        "state":"MA",
        "zip":"02184",
        "phone":"781.930.6001",
        "latitude":42.211511,
        "longitude":-70.999128,
        "url":"https:\/\/stores.nordstromrack.com\/us\/ma\/braintree\/200-grossman-drive",
        "timezone":"America\/New_York",
        "state_name":"Massachusetts",
        "brand":"Nordstrom",
        "updated":"2024-03-31"
    },
    {
        "store_number":541,
        "store_type":"Rack",
        "store_name":"Nordstrom Rack University Station",
        "street":"231 University Avenue",
        "city":"Westwood",
        "state":"MA",
        "zip":"02090",
        "phone":"781.915.6700",
        "latitude":42.2040842,
        "longitude":-71.1554638,
        "url":"https:\/\/stores.nordstromrack.com\/us\/ma\/westwood\/231-university-avenue",
        "timezone":"America\/New_York",
        "state_name":"Massachusetts",
        "brand":"Nordstrom",
        "updated":"2024-03-31"
    },
    {
        "store_number":531,
        "store_type":"FullLineStore",
        "store_name":"Nordstrom Natick Mall",
        "street":"290 Speen Street",
        "city":"Natick",
        "state":"MA",
        "zip":"01760",
        "phone":"508.318.2600",
        "latitude":42.300485,
        "longitude":-71.379738,
        "url":"",
        "timezone":"America\/New_York",
        "state_name":"Massachusetts",
        "brand":"Nordstrom",
        "updated":"2024-03-31"
    },
    {
        "store_number":546,
        "store_type":"Rack",
        "store_name":"Nordstrom Rack Shoppers World",
        "street":"1 Worcester Road",
        "city":"Framingham",
        "state":"MA",
        "zip":"01701",
        "phone":"508.598.3484",
        "latitude":42.298947,
        "longitude":-71.393602,
        "url":"https:\/\/stores.nordstromrack.com\/us\/ma\/framingham\/1-worcester-rd",
        "timezone":"America\/New_York",
        "state_name":"Massachusetts",
        "brand":"Nordstrom",
        "updated":"2024-03-31"
    },
    {
        "store_number":550,
        "store_type":"Rack",
        "store_name":"Nordstrom Rack The Shoppes at Blackstone Valley",
        "street":"70 Worcester Providence Turnpike",
        "city":"Millbury",
        "state":"MA",
        "zip":"01527",
        "phone":"774.276.4400",
        "latitude":42.1960502,
        "longitude":-71.7784829,
        "url":"https:\/\/stores.nordstromrack.com\/us\/ma\/millbury\/70-worcester-providence-tpke",
        "timezone":"America\/New_York",
        "state_name":"Massachusetts",
        "brand":"Nordstrom",
        "updated":"2024-03-31"
    },
    {
        "store_number":140,
        "store_type":"Rack",
        "store_name":"Nordstrom Rack Foothills Mall",
        "street":"3050 S. College Avenue",
        "city":"Fort Collins",
        "state":"CO",
        "zip":"80525",
        "phone":"970.829.3101",
        "latitude":40.5448197,
        "longitude":-105.0763375,
        "url":"https:\/\/stores.nordstromrack.com\/us\/co\/fort-collins\/3050-s-college-ave",
        "timezone":"America\/Denver",
        "state_name":"Colorado",
        "brand":"Nordstrom",
        "updated":"2024-03-31"
    },
    {
        "store_number":533,
        "store_type":"Rack",
        "store_name":"Nordstrom Rack Warwick Mall",
        "street":"400 Bald Hill Road",
        "city":"Warwick",
        "state":"RI",
        "zip":"02886",
        "phone":"401.773.7930",
        "latitude":41.72362,
        "longitude":-71.480666,
        "url":"https:\/\/stores.nordstromrack.com\/us\/ri\/warwick\/400-bald-hill-rd",
        "timezone":"America\/New_York",
        "state_name":"Rhode Island",
        "brand":"Nordstrom",
        "updated":"2024-03-31"
    },
    {
        "store_number":510,
        "store_type":"Rack",
        "store_name":"Nordstrom Rack Destiny USA",
        "street":"9643 Destiny USA Drive",
        "city":"Syracuse",
        "state":"NY",
        "zip":"13204",
        "phone":"315.802.0200",
        "latitude":43.068267,
        "longitude":-76.171717,
        "url":"https:\/\/stores.nordstromrack.com\/us\/ny\/syracuse\/3-destiny-usa-drive",
        "timezone":"America\/New_York",
        "state_name":"New York",
        "brand":"Nordstrom",
        "updated":"2024-03-31"
    },
    {
        "store_number":278,
        "store_type":"Rack",
        "store_name":"Nordstrom Rack Sun Center",
        "street":"3702 West Dublin Granville Road",
        "city":"Columbus",
        "state":"OH",
        "zip":"43235",
        "phone":"614.408.4205",
        "latitude":40.0953494,
        "longitude":-83.0884716,
        "url":"https:\/\/stores.nordstromrack.com\/us\/oh\/columbus\/3702-west-dublin-granville-rd",
        "timezone":"America\/New_York",
        "state_name":"Ohio",
        "brand":"Nordstrom",
        "updated":"2024-03-31"
    },
    {
        "store_number":276,
        "store_type":"Rack",
        "store_name":"Nordstrom Rack Easton Market",
        "street":"3736 Easton Market",
        "city":"Columbus",
        "state":"OH",
        "zip":"43219",
        "phone":"614.750.2222",
        "latitude":40.0529831,
        "longitude":-82.9242353,
        "url":"https:\/\/stores.nordstromrack.com\/us\/oh\/columbus\/3736-easton-market",
        "timezone":"America\/New_York",
        "state_name":"Ohio",
        "brand":"Nordstrom",
        "updated":"2024-03-31"
    },
    {
        "store_number":234,
        "store_type":"FullLineStore",
        "store_name":"Nordstrom Easton Town Center",
        "street":"4000 Worth Avenue",
        "city":"Columbus",
        "state":"OH",
        "zip":"43219",
        "phone":"614.416.7111",
        "latitude":40.0548072,
        "longitude":-82.9151647,
        "url":"",
        "timezone":"America\/New_York",
        "state_name":"Ohio",
        "brand":"Nordstrom",
        "updated":"2024-03-31"
    },
    {
        "store_number":756,
        "store_type":"Rack",
        "store_name":"Nordstrom Rack The Markets at Town Center",
        "street":"4924 Big Island Drive",
        "city":"Jacksonville",
        "state":"FL",
        "zip":"32246",
        "phone":"904.328.2340",
        "latitude":30.252561,
        "longitude":-81.528554,
        "url":"https:\/\/stores.nordstromrack.com\/us\/fl\/jacksonville\/4924-big-island-dr",
        "timezone":"America\/New_York",
        "state_name":"Florida",
        "brand":"Nordstrom",
        "updated":"2024-03-31"
    },
    {
        "store_number":789,
        "store_type":"FullLineStore",
        "store_name":"Nordstrom St. Johns Town Center",
        "street":"4835 Town Crossing Drive",
        "city":"Jacksonville",
        "state":"FL",
        "zip":"32246",
        "phone":"904.672.2200",
        "latitude":30.253385,
        "longitude":-81.527181,
        "url":"",
        "timezone":"America\/New_York",
        "state_name":"Florida",
        "brand":"Nordstrom",
        "updated":"2024-03-31"
    },
    {
        "store_number":130,
        "store_type":"Rack",
        "store_name":"Nordstrom Rack Boise Towne Square",
        "street":"534 North Milwaukee Street",
        "city":"Boise",
        "state":"ID",
        "zip":"83704",
        "phone":"208.321.4040",
        "latitude":43.609932,
        "longitude":-116.284634,
        "url":"https:\/\/stores.nordstromrack.com\/us\/id\/boise\/534-n-milwaukee-st",
        "timezone":"America\/Denver",
        "state_name":"Idaho",
        "brand":"Nordstrom",
        "updated":"2024-03-31"
    },
    {
        "store_number":491,
        "store_type":"Rack",
        "store_name":"Nordstrom SLO Promenade Rack",
        "street":"323 Madonna Rd",
        "city":"San Luis Obispo",
        "state":"CA",
        "zip":"93405",
        "phone":"805.858.3666",
        "latitude":35.2623,
        "longitude":-120.67859,
        "url":"",
        "timezone":"America\/Los_Angeles",
        "state_name":"California",
        "brand":"Nordstrom",
        "updated":"2024-03-31"
    },
    {
        "store_number":247,
        "store_type":"Rack",
        "store_name":"Nordstrom Rack Rivers Edge Shopping Center",
        "street":"4036 East 82nd Street",
        "city":"Indianapolis",
        "state":"IN",
        "zip":"46250",
        "phone":"317.572.2955",
        "latitude":39.90858,
        "longitude":-86.0965866,
        "url":"https:\/\/stores.nordstromrack.com\/us\/in\/indianapolis\/4036-e-82nd-st",
        "timezone":"America\/New_York",
        "state_name":"Indiana",
        "brand":"Nordstrom",
        "updated":"2024-03-31"
    },
    {
        "store_number":238,
        "store_type":"FullLineStore",
        "store_name":"Nordstrom Fashion Mall at Keystone",
        "street":"8702 Keystone Crossing",
        "city":"Indianapolis",
        "state":"IN",
        "zip":"46240",
        "phone":"317.810.9809",
        "latitude":39.9151886,
        "longitude":-86.1115957,
        "url":"",
        "timezone":"America\/New_York",
        "state_name":"Indiana",
        "brand":"Nordstrom",
        "updated":"2024-03-31"
    },
    {
        "store_number":526,
        "store_type":"FullLineStore",
        "store_name":"Nordstrom Westfarms",
        "street":"600 Westfarms Mall",
        "city":"Farmington",
        "state":"CT",
        "zip":"06032",
        "phone":"860.521.9090",
        "latitude":41.722043,
        "longitude":-72.765831,
        "url":"",
        "timezone":"America\/New_York",
        "state_name":"Connecticut",
        "brand":"Nordstrom",
        "updated":"2024-03-31"
    },
    {
        "store_number":545,
        "store_type":"Rack",
        "store_name":"Nordstrom Rack West Farm Shopping Center",
        "street":"1600 South East Road",
        "city":"Farmington",
        "state":"CT",
        "zip":"06032",
        "phone":"860.321.2400",
        "latitude":41.717868,
        "longitude":-72.762584,
        "url":"https:\/\/stores.nordstromrack.com\/us\/ct\/farmington\/1600-s-east-rd",
        "timezone":"America\/New_York",
        "state_name":"Connecticut",
        "brand":"Nordstrom",
        "updated":"2024-03-31"
    },
    {
        "store_number":791,
        "store_type":"Rack",
        "store_name":"Nordstrom Rack Harbison Court",
        "street":"278 Harbison Boulevard",
        "city":"Columbia",
        "state":"SC",
        "zip":"29212",
        "phone":"803.740.5454",
        "latitude":34.0721598,
        "longitude":-81.1567864,
        "url":"https:\/\/stores.nordstromrack.com\/us\/sc\/columbia\/278-harbison-boulevard",
        "timezone":"America\/New_York",
        "state_name":"South Carolina",
        "brand":"Nordstrom",
        "updated":"2024-03-31"
    },
    {
        "store_number":711,
        "store_type":"Rack",
        "store_name":"Nordstrom Rack Bowman Place",
        "street":"1110 Bowman Road",
        "city":"Mt. Pleasant",
        "state":"SC",
        "zip":"29464",
        "phone":"843.375.4801",
        "latitude":32.810023,
        "longitude":-79.851665,
        "url":"https:\/\/stores.nordstromrack.com\/us\/sc\/mount-pleasant\/1110-bowman-road",
        "timezone":"America\/New_York",
        "state_name":"South Carolina",
        "brand":"Nordstrom",
        "updated":"2024-03-31"
    },
    {
        "store_number":389,
        "store_type":"Rack",
        "store_name":"Nordstrom Rack The Corner",
        "street":"4320 North Oracle Road",
        "city":"Tucson",
        "state":"AZ",
        "zip":"85705",
        "phone":"520.333.2720",
        "latitude":32.285765,
        "longitude":-110.978076,
        "url":"https:\/\/stores.nordstromrack.com\/us\/az\/tucson\/4320-n-oracle-rd",
        "timezone":"America\/Phoenix",
        "state_name":"Arizona",
        "brand":"Nordstrom",
        "updated":"2024-03-31"
    },
    {
        "store_number":151,
        "store_type":"Rack",
        "store_name":"Nordstrom Rack Wilmot Plaza",
        "street":"6317 E. Broadway Boulevard",
        "city":"Tucson",
        "state":"AZ",
        "zip":"85710",
        "phone":"520.395.4000",
        "latitude":32.2227412,
        "longitude":-110.8572124,
        "url":"https:\/\/stores.nordstromrack.com\/us\/az\/tucson\/6317-e-broadway-blvd",
        "timezone":"America\/Phoenix",
        "state_name":"Arizona",
        "brand":"Nordstrom",
        "updated":"2024-03-31"
    },
    {
        "store_number":237,
        "store_type":"FullLineStore",
        "store_name":"Nordstrom Ross Park",
        "street":"1000 Ross Park Mall Drive",
        "city":"Pittsburgh",
        "state":"PA",
        "zip":"15237",
        "phone":"412.548.4300",
        "latitude":40.5444283,
        "longitude":-80.0083315,
        "url":"",
        "timezone":"America\/New_York",
        "state_name":"Pennsylvania",
        "brand":"Nordstrom",
        "updated":"2024-03-31"
    },
    {
        "store_number":676,
        "store_type":"Rack",
        "store_name":"Nordstrom Rack at The Block Northway",
        "street":"8031 McKnight Road",
        "city":"Pittsburgh",
        "state":"PA",
        "zip":"15237",
        "phone":"412.548.6000",
        "latitude":40.5516777,
        "longitude":-80.02145,
        "url":"https:\/\/stores.nordstromrack.com\/us\/pa\/pittsburgh\/8031-mcknight-road",
        "timezone":"America\/New_York",
        "state_name":"Pennsylvania",
        "brand":"Nordstrom",
        "updated":"2024-03-31"
    },
    {
        "store_number":272,
        "store_type":"Rack",
        "store_name":"Nordstrom Rack Mayfair Collection",
        "street":"11500 West Burleigh Street",
        "city":"Wauwatosa",
        "state":"WI",
        "zip":"53222",
        "phone":"414.944.6350",
        "latitude":43.0780498,
        "longitude":-88.0566784,
        "url":"https:\/\/stores.nordstromrack.com\/us\/wi\/wauwatosa\/11500-west-burleigh-st",
        "timezone":"America\/Chicago",
        "state_name":"Wisconsin",
        "brand":"Nordstrom",
        "updated":"2024-03-31"
    },
    {
        "store_number":798,
        "store_type":"Rack",
        "store_name":"Nordstrom Rack Mall of Louisiana",
        "street":"9330 Mall of Louisiana Blvd, #120",
        "city":"Baton Rouge",
        "state":"LA",
        "zip":"70836",
        "phone":"225.508.3030",
        "latitude":30.392477,
        "longitude":-91.090129,
        "url":"https:\/\/stores.nordstromrack.com\/us\/la\/baton-rouge\/9330-mall-of-louisiana",
        "timezone":"America\/Chicago",
        "state_name":"Louisiana",
        "brand":"Nordstrom",
        "updated":"2024-03-31"
    },
    {
        "store_number":716,
        "store_type":"Rack",
        "store_name":"Nordstrom Rack The Outlet Collection at Riverwalk",
        "street":"500 Port of New Orleans Pl, #245",
        "city":"New Orleans",
        "state":"LA",
        "zip":"70130",
        "phone":"504.930.3870",
        "latitude":29.947149,
        "longitude":-90.062842,
        "url":"https:\/\/stores.nordstromrack.com\/us\/la\/new-orleans\/500-port-of-new-orleans-place",
        "timezone":"America\/Chicago",
        "state_name":"Louisiana",
        "brand":"Nordstrom",
        "updated":"2024-03-31"
    },
    {
        "store_number":792,
        "store_type":"Rack",
        "store_name":"Nordstrom Rack Magnolia Park",
        "street":"1025 Woodruff Road",
        "city":"Greenville",
        "state":"SC",
        "zip":"29607",
        "phone":"864.603.6100",
        "latitude":34.83455,
        "longitude":-82.310675,
        "url":"https:\/\/stores.nordstromrack.com\/us\/sc\/greenville\/1025-woodruff-road",
        "timezone":"America\/New_York",
        "state_name":"South Carolina",
        "brand":"Nordstrom",
        "updated":"2024-03-31"
    },
    {
        "store_number":256,
        "store_type":"Rack",
        "store_name":"Nordstrom Rack Woodbury CityPlace",
        "street":"315 Radio Drive",
        "city":"Woodbury",
        "state":"MN",
        "zip":"55125",
        "phone":"651.900.7400",
        "latitude":44.9430266,
        "longitude":-92.9297926,
        "url":"https:\/\/stores.nordstromrack.com\/us\/mn\/woodbury\/315-radio-drive",
        "timezone":"America\/Chicago",
        "state_name":"Minnesota",
        "brand":"Nordstrom",
        "updated":"2024-03-31"
    },
    {
        "store_number":222,
        "store_type":"FullLineStore",
        "store_name":"Nordstrom Mall of America",
        "street":"1000 NW Court",
        "city":"Bloomington",
        "state":"MN",
        "zip":"55425",
        "phone":"952.883.2121",
        "latitude":44.8558951,
        "longitude":-93.2442151,
        "url":"",
        "timezone":"America\/Chicago",
        "state_name":"Minnesota",
        "brand":"Nordstrom",
        "updated":"2024-03-31"
    },
    {
        "store_number":233,
        "store_type":"Rack",
        "store_name":"Nordstrom Rack Mall of America",
        "street":"324 West Marketplace",
        "city":"Bloomington",
        "state":"MN",
        "zip":"55425",
        "phone":"952.854.3131",
        "latitude":44.8542967,
        "longitude":-93.2441663,
        "url":"https:\/\/stores.nordstromrack.com\/us\/mn\/bloomington\/324-w-marketplace",
        "timezone":"America\/Chicago",
        "state_name":"Minnesota",
        "brand":"Nordstrom",
        "updated":"2024-03-31"
    },
    {
        "store_number":275,
        "store_type":"Rack",
        "store_name":"Nordstrom Rack Shoppes at Knollwood",
        "street":"8344  Highway 7",
        "city":"St. Louis Park",
        "state":"MN",
        "zip":"55426",
        "phone":"952.303.7300",
        "latitude":44.9379312,
        "longitude":-93.3861066,
        "url":"https:\/\/stores.nordstromrack.com\/us\/mn\/saint-louis-park\/8344-highway-7",
        "timezone":"America\/Chicago",
        "state_name":"Minnesota",
        "brand":"Nordstrom",
        "updated":"2024-03-31"
    },
    {
        "store_number":283,
        "store_type":"FullLineStore",
        "store_name":"Nordstrom Ridgedale",
        "street":"12441 Wayzata Boulevard",
        "city":"Minnetonka",
        "state":"MN",
        "zip":"55305",
        "phone":"651.900.6800",
        "latitude":44.9685972,
        "longitude":-93.4354168,
        "url":"",
        "timezone":"America\/Chicago",
        "state_name":"Minnesota",
        "brand":"Nordstrom",
        "updated":"2024-03-31"
    },
    {
        "store_number":271,
        "store_type":"Rack",
        "store_name":"Nordstrom Rack Arbor Lakes",
        "street":"12745 Elm Creek Boulevard",
        "city":"Maple Grove",
        "state":"MN",
        "zip":"55369",
        "phone":"763.898.5300",
        "latitude":45.0928228,
        "longitude":-93.4422934,
        "url":"https:\/\/stores.nordstromrack.com\/us\/mn\/maple-grove\/12745-elm-creek-blvd",
        "timezone":"America\/Chicago",
        "state_name":"Minnesota",
        "brand":"Nordstrom",
        "updated":"2024-03-31"
    },
    {
        "store_number":787,
        "store_type":"Rack",
        "store_name":"Nordstrom Rack at The Summit",
        "street":"339 Summit Blvd",
        "city":"Birmingham",
        "state":"AL",
        "zip":"35243",
        "phone":"205.578.3100",
        "latitude":33.45186,
        "longitude":-86.73071,
        "url":"https:\/\/stores.nordstromrack.com\/us\/al\/birmingham\/4612-highway-280",
        "timezone":"America\/Chicago",
        "state_name":"Alabama",
        "brand":"Nordstrom",
        "updated":"2024-03-31"
    },
    {
        "store_number":658,
        "store_type":"Rack",
        "store_name":"Nordstrom TERRACE AT HAMILTON PLACE RACK",
        "street":"2220 Hamilton Pl Blvd Ste 126",
        "city":"Chattanooga",
        "state":"TN",
        "zip":"37421",
        "phone":"423.591.6387",
        "latitude":35.039012,
        "longitude":-85.155903,
        "url":"https:\/\/stores.nordstromrack.com\/us\/tn\/chattanooga\/2220-hamilton-place-blvd ",
        "timezone":"America\/New_York",
        "state_name":"Tennessee",
        "brand":"Nordstrom",
        "updated":"2024-03-31"
    },
    {
        "store_number":786,
        "store_type":"Rack",
        "store_name":"Nordstrom Rack The Shoppes at University Town Center",
        "street":"8551 Cooper Creek Boulevard",
        "city":"Bradenton",
        "state":"FL",
        "zip":"34201",
        "phone":"941.870.4200",
        "latitude":27.389178,
        "longitude":-82.455636,
        "url":"https:\/\/stores.nordstromrack.com\/us\/fl\/bradenton\/8551-cooper-creek-blvd",
        "timezone":"America\/New_York",
        "state_name":"Florida",
        "brand":"Nordstrom",
        "updated":"2024-03-31"
    },
    {
        "store_number":560,
        "store_type":"Rack",
        "store_name":"Nordstrom Rack Colonie Center",
        "street":"224B Colonie Center",
        "city":"Albany",
        "state":"NY",
        "zip":"12205",
        "phone":"518.776.3600",
        "latitude":42.708296,
        "longitude":-73.816419,
        "url":"https:\/\/stores.nordstromrack.com\/us\/ny\/albany\/224b-colonie-center",
        "timezone":"America\/New_York",
        "state_name":"New York",
        "brand":"Nordstrom",
        "updated":"2024-03-31"
    },
    {
        "store_number":9,
        "store_type":"FullLineStore",
        "store_name":"Nordstrom Spokane",
        "street":"828 West Main Avenue",
        "city":"Spokane",
        "state":"WA",
        "zip":"99201",
        "phone":"509.455.6111",
        "latitude":47.6595362,
        "longitude":-117.4246376,
        "url":"",
        "timezone":"America\/Los_Angeles",
        "state_name":"Washington",
        "brand":"Nordstrom",
        "updated":"2024-03-31"
    },
    {
        "store_number":109,
        "store_type":"Rack",
        "store_name":"Nordstrom Rack Spokane Valley Plaza",
        "street":"14018 East Indiana Avenue",
        "city":"Spokane Valley",
        "state":"WA",
        "zip":"99216",
        "phone":"509.484.2233",
        "latitude":47.675854,
        "longitude":-117.218264,
        "url":"https:\/\/stores.nordstromrack.com\/us\/wa\/spokane-valley\/14018-e-indiana-ave",
        "timezone":"America\/Los_Angeles",
        "state_name":"Washington",
        "brand":"Nordstrom",
        "updated":"2024-03-31"
    },
    {
        "store_number":554,
        "store_type":"Rack",
        "store_name":"Nordstrom Rack Boulevard Consumer Square",
        "street":"1579 Niagara Falls Boulevard",
        "city":"Amherst",
        "state":"NY",
        "zip":"14228",
        "phone":"716.242.6830",
        "latitude":42.9982949,
        "longitude":-78.8173313,
        "url":"https:\/\/stores.nordstromrack.com\/us\/ny\/amherst\/1579-niagara-falls-boulevard",
        "timezone":"America\/New_York",
        "state_name":"New York",
        "brand":"Nordstrom",
        "updated":"2024-03-31"
    },
    {
        "store_number":112,
        "store_type":"Rack",
        "store_name":"Nordstrom Rack Oakway Center",
        "street":"5 Oakway Center",
        "city":"Eugene",
        "state":"OR",
        "zip":"97401",
        "phone":"541.334.7020",
        "latitude":44.0652403,
        "longitude":-123.0770499,
        "url":"https:\/\/stores.nordstromrack.com\/us\/or\/eugene\/5-oakway-center",
        "timezone":"America\/Los_Angeles",
        "state_name":"Oregon",
        "brand":"Nordstrom",
        "updated":"2024-03-31"
    },
    {
        "store_number":708,
        "store_type":"Rack",
        "store_name":"Nordstrom Rack Poplar Commons",
        "street":"4572 Poplar Avenue",
        "city":"Memphis",
        "state":"TN",
        "zip":"38117",
        "phone":"901.866.2023",
        "latitude":35.1191085,
        "longitude":-89.9096987,
        "url":"https:\/\/stores.nordstromrack.com\/us\/tn\/memphis\/4572-poplar-avenue",
        "timezone":"America\/Chicago",
        "state_name":"Tennessee",
        "brand":"Nordstrom",
        "updated":"2024-03-31"
    },
    {
        "store_number":281,
        "store_type":"Rack",
        "store_name":"Nordstrom Rack Shelbyville Road Plaza",
        "street":"4600 Shelbyville Road",
        "city":"Louisville",
        "state":"KY",
        "zip":"40207",
        "phone":"502.899.4940",
        "latitude":38.2494596,
        "longitude":-85.6291042,
        "url":"https:\/\/stores.nordstromrack.com\/us\/ky\/louisville\/4600-shelbyville-rd",
        "timezone":"America\/New_York",
        "state_name":"Kentucky",
        "brand":"Nordstrom",
        "updated":"2024-03-31"
    },
    {
        "store_number":485,
        "store_type":"Rack",
        "store_name":"Nordstrom Cooper Point Marketplace Rack",
        "street":"1200 Cooper Point Rd SW",
        "city":"Olympia",
        "state":"WA",
        "zip":"98502",
        "phone":"564.225.4222",
        "latitude":47.03538,
        "longitude":-122.93799,
        "url":"",
        "timezone":"America\/Los_Angeles",
        "state_name":"Washington",
        "brand":"Nordstrom",
        "updated":"2024-03-31"
    },
    {
        "store_number":286,
        "store_type":"Rack",
        "store_name":"Nordstrom Rack West Towne Crossing",
        "street":"7349 West Towne Way",
        "city":"Madison",
        "state":"WI",
        "zip":"53719",
        "phone":"608.824.6760",
        "latitude":43.054976,
        "longitude":-89.5111939,
        "url":"https:\/\/stores.nordstromrack.com\/us\/wi\/madison\/7349-west-towne-way-west",
        "timezone":"America\/Chicago",
        "state_name":"Wisconsin",
        "brand":"Nordstrom",
        "updated":"2024-03-31"
    },
    {
        "store_number":477,
        "store_type":"Rack",
        "store_name":"Nordstrom Rack Redfield Promenade",
        "street":"4995 South Virginia Street",
        "city":"Reno",
        "state":"NV",
        "zip":"89502",
        "phone":"775.332.6220",
        "latitude":39.4791862,
        "longitude":-119.7910137,
        "url":"https:\/\/stores.nordstromrack.com\/us\/nv\/reno\/4995-south-virginia-street",
        "timezone":"America\/Los_Angeles",
        "state_name":"Nevada",
        "brand":"Nordstrom",
        "updated":"2024-03-31"
    },
    {
        "store_number":250,
        "store_type":"Rack",
        "store_name":"Nordstrom Bradley Fair Wichita Rack",
        "street":"1800 N Rock Rd Ste 130",
        "city":"Wichita",
        "state":"KS",
        "zip":"67206",
        "phone":"316.768.5674",
        "latitude":37.716208,
        "longitude":-97.244038,
        "url":"https:\/\/stores.nordstromrack.com\/us\/ks\/wichita\/1800-n-rock-road",
        "timezone":"America\/Chicago",
        "state_name":"Kansas",
        "brand":"Nordstrom",
        "updated":"2024-03-31"
    },
    {
        "store_number":273,
        "store_type":"Rack",
        "store_name":"Nordstrom Rack Centerpointe Mall",
        "street":"3615 28th Street SE",
        "city":"Grand Rapids",
        "state":"MI",
        "zip":"49512",
        "phone":"616.575.2127",
        "latitude":42.9160092,
        "longitude":-85.5783306,
        "url":"https:\/\/stores.nordstromrack.com\/us\/mi\/grand-rapids\/3615-28th-st-se",
        "timezone":"America\/New_York",
        "state_name":"Michigan",
        "brand":"Nordstrom",
        "updated":"2024-03-31"
    },
    {
        "store_number":284,
        "store_type":"Rack",
        "store_name":"Nordstrom Rack The Plaza at Jordan Creek",
        "street":"320 S Jordan Creek Pky, #400",
        "city":"West Des Moines",
        "state":"IA",
        "zip":"50266",
        "phone":"515.221.4320",
        "latitude":41.5659151,
        "longitude":-93.8076207,
        "url":"https:\/\/stores.nordstromrack.com\/us\/ia\/west-des-moines\/320-south-jordan-creek-parkway",
        "timezone":"America\/Chicago",
        "state_name":"Iowa",
        "brand":"Nordstrom",
        "updated":"2024-03-31"
    },
    {
        "store_number":757,
        "store_type":"Rack",
        "store_name":"Nordstrom Rack Mercato",
        "street":"9100 Strada Place, Suite 2100",
        "city":"Naples",
        "state":"FL",
        "zip":"34108",
        "phone":"239.449.7444",
        "latitude":26.2536296,
        "longitude":-81.8000525,
        "url":"https:\/\/stores.nordstromrack.com\/us\/fl\/naples\/9100-strada-place",
        "timezone":"America\/New_York",
        "state_name":"Florida",
        "brand":"Nordstrom",
        "updated":"2024-03-31"
    },
    {
        "store_number":552,
        "store_type":"Rack",
        "store_name":"Nordstrom Rack Maine Crossing",
        "street":"200 Running Hill Road",
        "city":"South Portland",
        "state":"ME",
        "zip":"04106",
        "phone":"207.245.6610",
        "latitude":43.635329,
        "longitude":-70.3452991,
        "url":"https:\/\/stores.nordstromrack.com\/us\/me\/south-portland\/200-running-hill-rd",
        "timezone":"America\/New_York",
        "state_name":"Maine",
        "brand":"Nordstrom",
        "updated":"2024-03-31"
    },
    {
        "store_number":717,
        "store_type":"Rack",
        "store_name":"Nordstrom Rack Ambassador Town Center",
        "street":"111 Meadow Farm Road, Suite 140",
        "city":"Lafayette",
        "state":"LA",
        "zip":"70508",
        "phone":"337.484.1360",
        "latitude":30.1577417,
        "longitude":-92.0444384,
        "url":"https:\/\/stores.nordstromrack.com\/us\/la\/lafayette\/111-meadow-farm-road",
        "timezone":"America\/Chicago",
        "state_name":"Louisiana",
        "brand":"Nordstrom",
        "updated":"2024-03-31"
    }
]