[
    {
        "storeNo":"0770",
        "name":"Giant",
        "street":"1245 Jefferson Davis Hwy.",
        "city":"Fredericksburg",
        "state":"VA",
        "zip":"22401",
        "date_opened":"2006-10-01",
        "latitude":38.3038,
        "longitude":-77.4808,
        "state_name":"Virginia"
    },
    {
        "storeNo":"2330",
        "name":"Giant",
        "street":"1649 Crofton Center",
        "city":"Crofton",
        "state":"MD",
        "zip":"21114",
        "date_opened":"2023-01-01",
        "latitude":39.0157,
        "longitude":-76.6938,
        "state_name":"Maryland"
    },
    {
        "storeNo":"0775",
        "name":"Giant",
        "street":"13330 Franklin Farm Rd.",
        "city":"Herndon",
        "state":"VA",
        "zip":"20171",
        "date_opened":"2006-10-01",
        "latitude":38.9074,
        "longitude":-77.4069,
        "state_name":"Virginia"
    },
    {
        "storeNo":"0155",
        "name":"Giant",
        "street":"7200 Cradlerock Way",
        "city":"Columbia",
        "state":"MD",
        "zip":"21045",
        "date_opened":"2006-10-01",
        "latitude":39.1862,
        "longitude":-76.8415,
        "state_name":"Maryland"
    },
    {
        "storeNo":"0143",
        "name":"Giant",
        "street":"4715 Dorsey Hall Dr.",
        "city":"Ellicott City",
        "state":"MD",
        "zip":"21043",
        "date_opened":"2006-10-01",
        "latitude":39.2445,
        "longitude":-76.8429,
        "state_name":"Maryland"
    },
    {
        "storeNo":"0756",
        "name":"Giant",
        "street":"8320 Old Keene Mill Rd.",
        "city":"Springfield",
        "state":"VA",
        "zip":"22152",
        "date_opened":"2006-10-01",
        "latitude":38.78,
        "longitude":-77.2301,
        "state_name":"Virginia"
    },
    {
        "storeNo":"0744",
        "name":"Giant",
        "street":"5740 Union Mill Rd.",
        "city":"Clifton",
        "state":"VA",
        "zip":"20124",
        "date_opened":"2006-10-01",
        "latitude":38.8366,
        "longitude":-77.4119,
        "state_name":"Virginia"
    },
    {
        "storeNo":"0198",
        "name":"Giant",
        "street":"9812 Falls Road",
        "city":"Potomac",
        "state":"MD",
        "zip":"20854",
        "date_opened":"2008-06-27",
        "latitude":39.017,
        "longitude":-77.2105,
        "state_name":"Maryland"
    },
    {
        "storeNo":"0362",
        "name":"Giant",
        "street":"20944 Frederick Road",
        "city":"Germantown",
        "state":"MD",
        "zip":"20876",
        "date_opened":"2006-10-01",
        "latitude":39.2034,
        "longitude":-77.2461,
        "state_name":"Maryland"
    },
    {
        "storeNo":"2744",
        "name":"Giant",
        "street":"9400 Fairfax Boulevard",
        "city":"Fairfax",
        "state":"VA",
        "zip":"22031",
        "date_opened":"2020-07-21",
        "latitude":38.8651,
        "longitude":-77.2709,
        "state_name":"Virginia"
    },
    {
        "storeNo":"0361",
        "name":"Giant",
        "street":"5700 Southeast Crain Hwy",
        "city":"Upper Marlboro",
        "state":"MD",
        "zip":"20772",
        "date_opened":"2006-10-01",
        "latitude":38.8113,
        "longitude":-76.7373,
        "state_name":"Maryland"
    },
    {
        "storeNo":"0749",
        "name":"Giant",
        "street":"7137 Columbia Pike",
        "city":"Annandale",
        "state":"VA",
        "zip":"22003",
        "date_opened":"2006-10-01",
        "latitude":38.8319,
        "longitude":-77.1924,
        "state_name":"Virginia"
    },
    {
        "storeNo":"0342",
        "name":"Giant",
        "street":"4119 Branch Ave.",
        "city":"Marlow Heights",
        "state":"MD",
        "zip":"20748",
        "date_opened":"2006-10-01",
        "latitude":38.834,
        "longitude":-76.9425,
        "state_name":"Maryland"
    },
    {
        "storeNo":"0252",
        "name":"Giant",
        "street":"1000 East Main Street",
        "city":"Purcellville",
        "state":"VA",
        "zip":"20132",
        "date_opened":"2006-10-01",
        "latitude":39.1357,
        "longitude":-77.6988,
        "state_name":"Virginia"
    },
    {
        "storeNo":"0799",
        "name":"Giant",
        "street":"61 Catoctin Circle N.E.",
        "city":"Leesburg",
        "state":"VA",
        "zip":"20176",
        "date_opened":"2006-10-01",
        "latitude":39.1114,
        "longitude":-77.5525,
        "state_name":"Virginia"
    },
    {
        "storeNo":"0150",
        "name":"Giant",
        "street":"46 Bureau Dr.",
        "city":"Gaithersburg",
        "state":"MD",
        "zip":"20878",
        "date_opened":"2006-10-01",
        "latitude":39.1432,
        "longitude":-77.2171,
        "state_name":"Maryland"
    },
    {
        "storeNo":"2311",
        "name":"Giant",
        "street":"1155 Annapolis Road",
        "city":"Odenton",
        "state":"MD",
        "zip":"21113",
        "date_opened":"2015-12-11",
        "latitude":39.0815,
        "longitude":-76.6894,
        "state_name":"Maryland"
    },
    {
        "storeNo":"0795",
        "name":"Giant",
        "street":"7501 Huntsman Blvd.",
        "city":"Springfield",
        "state":"VA",
        "zip":"22153",
        "date_opened":"2006-10-01",
        "latitude":38.7529,
        "longitude":-77.2661,
        "state_name":"Virginia"
    },
    {
        "storeNo":"0798",
        "name":"Giant",
        "street":"8941 Ox Rd.",
        "city":"Lorton",
        "state":"VA",
        "zip":"22079",
        "date_opened":"2006-10-01",
        "latitude":38.7143,
        "longitude":-77.2637,
        "state_name":"Virginia"
    },
    {
        "storeNo":"0145",
        "name":"Giant",
        "street":"5150 Sinclair Lane",
        "city":"Baltimore",
        "state":"MD",
        "zip":"21206",
        "date_opened":"2006-10-01",
        "latitude":39.3229,
        "longitude":-76.544,
        "state_name":"Maryland"
    },
    {
        "storeNo":"0303",
        "name":"Giant",
        "street":"601 East 33rd St.",
        "city":"Baltimore",
        "state":"MD",
        "zip":"21218",
        "date_opened":"2006-10-01",
        "latitude":39.3284,
        "longitude":-76.6084,
        "state_name":"Maryland"
    },
    {
        "storeNo":"0141",
        "name":"Giant",
        "street":"7940 Crain Hwy.",
        "city":"Glen Burnie",
        "state":"MD",
        "zip":"21061",
        "date_opened":"2006-10-01",
        "latitude":39.1337,
        "longitude":-76.6364,
        "state_name":"Maryland"
    },
    {
        "storeNo":"0378",
        "name":"Giant",
        "street":"1345 Park Road, N.W.",
        "city":"Washington",
        "state":"DC",
        "zip":"20010",
        "date_opened":"2006-10-01",
        "latitude":38.9308,
        "longitude":-77.0312,
        "state_name":null
    },
    {
        "storeNo":"0334",
        "name":"Giant",
        "street":"3521 East-West Highway",
        "city":"Hyattsville",
        "state":"MD",
        "zip":"20782",
        "date_opened":"2006-10-01",
        "latitude":38.9656,
        "longitude":-76.9585,
        "state_name":"Maryland"
    },
    {
        "storeNo":"0754",
        "name":"Giant",
        "street":"4309 Dale Blvd.",
        "city":"Dale City",
        "state":"VA",
        "zip":"22193",
        "date_opened":"2006-10-01",
        "latitude":38.6468,
        "longitude":-77.3384,
        "state_name":"Virginia"
    },
    {
        "storeNo":"2748",
        "name":"Giant",
        "street":"6360 Seven Corners Center",
        "city":"Falls Church",
        "state":"VA",
        "zip":"22044",
        "date_opened":"2020-03-06",
        "latitude":38.8649,
        "longitude":-77.1516,
        "state_name":"Virginia"
    },
    {
        "storeNo":"0117",
        "name":"Giant",
        "street":"6223 Baltimore National Pike",
        "city":"Catonsville",
        "state":"MD",
        "zip":"21228",
        "date_opened":"2006-10-01",
        "latitude":39.2823,
        "longitude":-76.7519,
        "state_name":"Maryland"
    },
    {
        "storeNo":"0335",
        "name":"Giant",
        "street":"1700 Kingfisher Dr.",
        "city":"Frederick",
        "state":"MD",
        "zip":"21701",
        "date_opened":"2011-03-30",
        "latitude":39.4487,
        "longitude":-77.3831,
        "state_name":"Maryland"
    },
    {
        "storeNo":"0366",
        "name":"Giant",
        "street":"8750 Arliss St.",
        "city":"Silver Spring",
        "state":"MD",
        "zip":"20901",
        "date_opened":"2006-10-01",
        "latitude":39.0003,
        "longitude":-77.0016,
        "state_name":"Maryland"
    },
    {
        "storeNo":"2746",
        "name":"Giant",
        "street":"2425 Centreville Road",
        "city":"Herndon",
        "state":"VA",
        "zip":"20171",
        "date_opened":"2018-11-09",
        "latitude":38.9513,
        "longitude":-77.4105,
        "state_name":"Virginia"
    },
    {
        "storeNo":"0387",
        "name":"Giant",
        "street":"19312 Lighthouse Plaza Blvd",
        "city":"Rehoboth Beach",
        "state":"DE",
        "zip":"19971",
        "date_opened":"2006-10-01",
        "latitude":38.7262,
        "longitude":-75.1045,
        "state_name":"Delaware"
    },
    {
        "storeNo":"2318",
        "name":"Giant",
        "street":"10210 Mill Run Circle",
        "city":"Owings Mills",
        "state":"MD",
        "zip":"21117",
        "date_opened":"2019-08-23",
        "latitude":39.4057,
        "longitude":-76.7907,
        "state_name":"Maryland"
    },
    {
        "storeNo":"0363",
        "name":"Giant",
        "street":"1400 Merritt Boulevard",
        "city":"Dundalk",
        "state":"MD",
        "zip":"21222",
        "date_opened":"2010-10-13",
        "latitude":39.2779,
        "longitude":-76.5063,
        "state_name":"Maryland"
    },
    {
        "storeNo":"0329",
        "name":"Giant",
        "street":"9719 Traville Gateway Drive",
        "city":"Rockville",
        "state":"MD",
        "zip":"20850",
        "date_opened":"2006-10-01",
        "latitude":39.0916,
        "longitude":-77.2041,
        "state_name":"Maryland"
    },
    {
        "storeNo":"0375",
        "name":"Giant",
        "street":"1050 Brentwood Road",
        "city":"Washington",
        "state":"DC",
        "zip":"20018",
        "date_opened":"2006-10-01",
        "latitude":38.9195,
        "longitude":-76.992,
        "state_name":null
    },
    {
        "storeNo":"0788",
        "name":"Giant",
        "street":"14125 St. Germain Dr.",
        "city":"Centreville",
        "state":"VA",
        "zip":"20121",
        "date_opened":"2006-10-01",
        "latitude":38.837,
        "longitude":-77.4374,
        "state_name":"Virginia"
    },
    {
        "storeNo":"0386",
        "name":"Giant",
        "street":"4301 Concord Pike",
        "city":"Wilmington",
        "state":"DE",
        "zip":"19803",
        "date_opened":"2006-10-01",
        "latitude":39.814,
        "longitude":-75.5475,
        "state_name":"Delaware"
    },
    {
        "storeNo":"0341",
        "name":"Giant",
        "street":"20 Audrey Lane",
        "city":"Oxon Hill",
        "state":"MD",
        "zip":"20745",
        "date_opened":"2006-10-01",
        "latitude":38.8205,
        "longitude":-76.9989,
        "state_name":"Maryland"
    },
    {
        "storeNo":"0239",
        "name":"Giant",
        "street":"10864 Sudley Manor Drive",
        "city":"Manassas",
        "state":"VA",
        "zip":"20109",
        "date_opened":"2021-11-18",
        "latitude":38.785,
        "longitude":-77.5178,
        "state_name":"Virginia"
    },
    {
        "storeNo":"0256",
        "name":"Giant",
        "street":"10346 Courthouse Road",
        "city":"Spotsylvania",
        "state":"VA",
        "zip":"22553",
        "date_opened":"2006-10-01",
        "latitude":38.2438,
        "longitude":-77.5297,
        "state_name":"Virginia"
    },
    {
        "storeNo":"0135",
        "name":"Giant",
        "street":"3860 International Dr.",
        "city":"Silver Spring",
        "state":"MD",
        "zip":"20906",
        "date_opened":"2006-10-01",
        "latitude":39.1035,
        "longitude":-77.0754,
        "state_name":"Maryland"
    },
    {
        "storeNo":"0336",
        "name":"Giant",
        "street":"2900 University Boulevard West",
        "city":"Wheaton",
        "state":"MD",
        "zip":"20902",
        "date_opened":"2006-10-01",
        "latitude":39.0382,
        "longitude":-77.0585,
        "state_name":"Maryland"
    },
    {
        "storeNo":"2376",
        "name":"Giant",
        "street":"1400 7th Street N.W.",
        "city":"Washington",
        "state":"DC",
        "zip":"20001",
        "date_opened":"2013-11-21",
        "latitude":38.9088,
        "longitude":-77.023,
        "state_name":null
    },
    {
        "storeNo":"0364",
        "name":"Giant",
        "street":"1401 Rock Spring Road",
        "city":"Bel Air",
        "state":"MD",
        "zip":"21014",
        "date_opened":"2006-10-01",
        "latitude":39.5568,
        "longitude":-76.3691,
        "state_name":"Maryland"
    },
    {
        "storeNo":"0325",
        "name":"Giant",
        "street":"10790 Town Center Blvd",
        "city":"Dunkirk",
        "state":"MD",
        "zip":"20754",
        "date_opened":"2006-10-01",
        "latitude":38.7228,
        "longitude":-76.6559,
        "state_name":"Maryland"
    },
    {
        "storeNo":"0167",
        "name":"Giant",
        "street":"948 Bay Ridge Rd.",
        "city":"Annapolis",
        "state":"MD",
        "zip":"21403",
        "date_opened":"2006-10-01",
        "latitude":38.9483,
        "longitude":-76.489,
        "state_name":"Maryland"
    },
    {
        "storeNo":"0794",
        "name":"Giant",
        "street":"20961 Southbank Street",
        "city":"Sterling",
        "state":"VA",
        "zip":"20165",
        "date_opened":"2006-10-01",
        "latitude":39.0354,
        "longitude":-77.3978,
        "state_name":"Virginia"
    },
    {
        "storeNo":"0233",
        "name":"Giant",
        "street":"7235 Arlington Blvd.",
        "city":"Falls Church",
        "state":"VA",
        "zip":"22042",
        "date_opened":"2008-03-14",
        "latitude":38.866,
        "longitude":-77.1956,
        "state_name":"Virginia"
    },
    {
        "storeNo":"0339",
        "name":"Giant",
        "street":"200 Rosewick Road",
        "city":"LaPlata",
        "state":"MD",
        "zip":"20646",
        "date_opened":"2008-10-31",
        "latitude":38.5585,
        "longitude":-76.9846,
        "state_name":"Maryland"
    },
    {
        "storeNo":"0250",
        "name":"Giant",
        "street":"635 Potomac Station Dr.",
        "city":"Leesburg",
        "state":"VA",
        "zip":"20176",
        "date_opened":"2006-10-01",
        "latitude":39.0984,
        "longitude":-77.5263,
        "state_name":"Virginia"
    },
    {
        "storeNo":"0232",
        "name":"Giant",
        "street":"5870 Kingstowne Blvd.",
        "city":"Alexandria",
        "state":"VA",
        "zip":"22315",
        "date_opened":"2006-10-01",
        "latitude":38.7709,
        "longitude":-77.1367,
        "state_name":"Virginia"
    },
    {
        "storeNo":"0319",
        "name":"Giant",
        "street":"625 Hungerford Drive",
        "city":"Rockville",
        "state":"MD",
        "zip":"20850",
        "date_opened":"2006-10-01",
        "latitude":39.0928,
        "longitude":-77.1537,
        "state_name":"Maryland"
    },
    {
        "storeNo":"0301",
        "name":"Giant",
        "street":"13781 Connecticut Avenue",
        "city":"Silver Spring",
        "state":"MD",
        "zip":"20906",
        "date_opened":"2007-11-09",
        "latitude":39.0817,
        "longitude":-77.0797,
        "state_name":"Maryland"
    },
    {
        "storeNo":"0243",
        "name":"Giant",
        "street":"317 Worth Avenue",
        "city":"Stafford",
        "state":"VA",
        "zip":"22554",
        "date_opened":"2006-10-01",
        "latitude":38.4768,
        "longitude":-77.4168,
        "state_name":"Virginia"
    },
    {
        "storeNo":"0748",
        "name":"Giant",
        "street":"2901-11 S. Glebe Rd.",
        "city":"Arlington",
        "state":"VA",
        "zip":"22206",
        "date_opened":"2006-10-01",
        "latitude":38.8457,
        "longitude":-77.0687,
        "state_name":"Virginia"
    },
    {
        "storeNo":"0778",
        "name":"Giant",
        "street":"41 West Lee Hwy.",
        "city":"Warrenton",
        "state":"VA",
        "zip":"20186",
        "date_opened":"2006-10-01",
        "latitude":38.7303,
        "longitude":-77.7918,
        "state_name":"Virginia"
    },
    {
        "storeNo":"0131",
        "name":"Giant",
        "street":"8665 Philadelphia Rd.",
        "city":"Baltimore",
        "state":"MD",
        "zip":"21237",
        "date_opened":"2006-10-01",
        "latitude":39.3393,
        "longitude":-76.4868,
        "state_name":"Maryland"
    },
    {
        "storeNo":"0771",
        "name":"Giant",
        "street":"3115 Lee Hwy.",
        "city":"Arlington",
        "state":"VA",
        "zip":"22201",
        "date_opened":"2006-10-01",
        "latitude":38.8968,
        "longitude":-77.0959,
        "state_name":"Virginia"
    },
    {
        "storeNo":"0261",
        "name":"Giant",
        "street":"3131 Duke Street",
        "city":"Alexandria",
        "state":"VA",
        "zip":"22314",
        "date_opened":"2009-05-22",
        "latitude":38.8088,
        "longitude":-77.0842,
        "state_name":"Virginia"
    },
    {
        "storeNo":"0166",
        "name":"Giant",
        "street":"4622 Wilkens Ave.",
        "city":"Baltimore",
        "state":"MD",
        "zip":"21229",
        "date_opened":"2006-10-01",
        "latitude":39.2652,
        "longitude":-76.6977,
        "state_name":"Maryland"
    },
    {
        "storeNo":"0365",
        "name":"Giant",
        "street":"3299 Emmorton Road",
        "city":"Abingdon",
        "state":"MD",
        "zip":"21009",
        "date_opened":"2010-06-28",
        "latitude":39.4732,
        "longitude":-76.308,
        "state_name":"Maryland"
    },
    {
        "storeNo":"2332",
        "name":"Giant",
        "street":"12028 Cherry Hill Road",
        "city":"Silver Spring",
        "state":"MD",
        "zip":"20904",
        "date_opened":"2022-08-05",
        "latitude":39.055,
        "longitude":-76.957,
        "state_name":"Maryland"
    },
    {
        "storeNo":"0123",
        "name":"Giant",
        "street":"7074 Allentown Rd.",
        "city":"Camp Springs",
        "state":"MD",
        "zip":"20748",
        "date_opened":"2006-10-01",
        "latitude":38.7935,
        "longitude":-76.9274,
        "state_name":"Maryland"
    },
    {
        "storeNo":"2304",
        "name":"Giant",
        "street":"8905 Belair Rd",
        "city":"Nottingham",
        "state":"MD",
        "zip":"21236",
        "date_opened":"2012-08-24",
        "latitude":39.3977,
        "longitude":-76.4815,
        "state_name":"Maryland"
    },
    {
        "storeNo":"0359",
        "name":"Giant",
        "street":"45101 First Colony Way",
        "city":"California",
        "state":"MD",
        "zip":"20619",
        "date_opened":"2006-10-01",
        "latitude":38.2993,
        "longitude":-76.5145,
        "state_name":"Maryland"
    },
    {
        "storeNo":"0760",
        "name":"Giant",
        "street":"6800 Richmond Hwy.",
        "city":"Alexandria",
        "state":"VA",
        "zip":"22306",
        "date_opened":"2006-10-01",
        "latitude":38.7697,
        "longitude":-77.082,
        "state_name":"Virginia"
    },
    {
        "storeNo":"0109",
        "name":"Giant",
        "street":"405 N. Center St.",
        "city":"Westminster",
        "state":"MD",
        "zip":"21157",
        "date_opened":"2012-06-27",
        "latitude":39.5752,
        "longitude":-76.9833,
        "state_name":"Maryland"
    },
    {
        "storeNo":"0304",
        "name":"Giant",
        "street":"3297 Crain Highway",
        "city":"Waldorf",
        "state":"MD",
        "zip":"20603",
        "date_opened":"2006-10-01",
        "latitude":38.6216,
        "longitude":-76.9158,
        "state_name":"Maryland"
    },
    {
        "storeNo":"0384",
        "name":"Giant",
        "street":"1535 Alabama Avenue S.E.",
        "city":"Washington",
        "state":"DC",
        "zip":"20032",
        "date_opened":"2007-12-07",
        "latitude":38.8463,
        "longitude":-76.9823,
        "state_name":null
    },
    {
        "storeNo":"0383",
        "name":"Giant",
        "street":"4303 Conn. Ave. N.W.",
        "city":"Washington",
        "state":"DC",
        "zip":"20008",
        "date_opened":"2006-10-01",
        "latitude":38.9444,
        "longitude":-77.0633,
        "state_name":null
    },
    {
        "storeNo":"0373",
        "name":"Giant",
        "street":"5500 Silver Hill Road",
        "city":"District Heights",
        "state":"MD",
        "zip":"20747",
        "date_opened":"2009-03-13",
        "latitude":38.853,
        "longitude":-76.9127,
        "state_name":"Maryland"
    },
    {
        "storeNo":"0108",
        "name":"Giant",
        "street":"6340-50 York Rd.",
        "city":"Baltimore",
        "state":"MD",
        "zip":"21212",
        "date_opened":"2006-10-01",
        "latitude":39.372,
        "longitude":-76.6097,
        "state_name":"Maryland"
    },
    {
        "storeNo":"0100",
        "name":"Giant",
        "street":"11399 York Rd.",
        "city":"Cockeysville",
        "state":"MD",
        "zip":"21030",
        "date_opened":"2006-10-01",
        "latitude":39.4958,
        "longitude":-76.6504,
        "state_name":"Maryland"
    },
    {
        "storeNo":"0740",
        "name":"Giant",
        "street":"5615 Stone Rd.",
        "city":"Centreville",
        "state":"VA",
        "zip":"20120",
        "date_opened":"2006-10-01",
        "latitude":38.8534,
        "longitude":-77.451,
        "state_name":"Virginia"
    },
    {
        "storeNo":"2745",
        "name":"Giant",
        "street":"6364A Springfield Plaza",
        "city":"Springfield",
        "state":"VA",
        "zip":"22150",
        "date_opened":"2020-11-11",
        "latitude":38.7819,
        "longitude":-77.1883,
        "state_name":"Virginia"
    },
    {
        "storeNo":"0781",
        "name":"Giant",
        "street":"12445 Hedges Run Dr.",
        "city":"Lake Ridge",
        "state":"VA",
        "zip":"22192",
        "date_opened":"2006-10-01",
        "latitude":38.6833,
        "longitude":-77.3027,
        "state_name":"Virginia"
    },
    {
        "storeNo":"0313",
        "name":"Giant",
        "street":"18331 Leaman Farm Road",
        "city":"Germantown",
        "state":"MD",
        "zip":"20874",
        "date_opened":"2006-10-01",
        "latitude":39.1587,
        "longitude":-77.2792,
        "state_name":"Maryland"
    },
    {
        "storeNo":"2305",
        "name":"Super Giant",
        "street":"7709 Harford Rd.",
        "city":"Parkville",
        "state":"MD",
        "zip":"21234",
        "date_opened":"2012-03-30",
        "latitude":39.3725,
        "longitude":-76.5438,
        "state_name":"Maryland"
    },
    {
        "storeNo":"0234",
        "name":"Giant",
        "street":"550 Celebrate Virginia Parkway",
        "city":"Celebrate",
        "state":"VA",
        "zip":"22406",
        "date_opened":"2009-06-19",
        "latitude":38.3596,
        "longitude":-77.5213,
        "state_name":"Virginia"
    },
    {
        "storeNo":"0192",
        "name":"Giant",
        "street":"18250 Flower Hill Way",
        "city":"Gaithersburg",
        "state":"MD",
        "zip":"20879",
        "date_opened":"2006-10-01",
        "latitude":39.1555,
        "longitude":-77.1647,
        "state_name":"Maryland"
    },
    {
        "storeNo":"0262",
        "name":"Giant",
        "street":"43330 Junction Plaza",
        "city":"Ashburn",
        "state":"VA",
        "zip":"20147",
        "date_opened":"2006-10-01",
        "latitude":39.0369,
        "longitude":-77.5012,
        "state_name":"Virginia"
    },
    {
        "storeNo":"0147",
        "name":"Giant",
        "street":"9580 Livingston Road",
        "city":"Fort Washington",
        "state":"MD",
        "zip":"20744",
        "date_opened":"2021-11-12",
        "latitude":38.759,
        "longitude":-76.9955,
        "state_name":"Maryland"
    },
    {
        "storeNo":"0388",
        "name":"Giant",
        "street":"200 Dove Run Drive",
        "city":"Middletown",
        "state":"DE",
        "zip":"19709",
        "date_opened":"2006-10-01",
        "latitude":39.4501,
        "longitude":-75.7084,
        "state_name":"Delaware"
    },
    {
        "storeNo":"0128",
        "name":"Giant",
        "street":"2145 York Road",
        "city":"Timonium",
        "state":"MD",
        "zip":"21093",
        "date_opened":"2009-06-12",
        "latitude":39.4433,
        "longitude":-76.6275,
        "state_name":"Maryland"
    },
    {
        "storeNo":"0152",
        "name":"Giant",
        "street":"13490 New Hampshire Ave.",
        "city":"Colesville",
        "state":"MD",
        "zip":"20904",
        "date_opened":"2011-09-13",
        "latitude":39.0773,
        "longitude":-77.0018,
        "state_name":"Maryland"
    },
    {
        "storeNo":"0349",
        "name":"Giant",
        "street":"3530 Sugarloaf Parkway",
        "city":"Frederick",
        "state":"MD",
        "zip":"21704",
        "date_opened":"2007-03-02",
        "latitude":39.3349,
        "longitude":-77.3435,
        "state_name":"Maryland"
    },
    {
        "storeNo":"0231",
        "name":"Giant",
        "street":"2932 Chain Bridge Road",
        "city":"Oakton",
        "state":"VA",
        "zip":"22124",
        "date_opened":"2008-06-01",
        "latitude":38.8816,
        "longitude":-77.2997,
        "state_name":"Virginia"
    },
    {
        "storeNo":"0194",
        "name":"Giant",
        "street":"2323 Forest Drive",
        "city":"Annapolis",
        "state":"MD",
        "zip":"21401",
        "date_opened":"2006-10-01",
        "latitude":38.9806,
        "longitude":-76.5434,
        "state_name":"Maryland"
    },
    {
        "storeNo":"0300",
        "name":"Giant",
        "street":"8805 Centre Park Drive",
        "city":"Columbia",
        "state":"MD",
        "zip":"21045",
        "date_opened":"2006-10-01",
        "latitude":39.2269,
        "longitude":-76.8165,
        "state_name":"Maryland"
    },
    {
        "storeNo":"0783",
        "name":"Giant",
        "street":"6011 Burke Ctr Parkway",
        "city":"Burke",
        "state":"VA",
        "zip":"22015",
        "date_opened":"2006-10-01",
        "latitude":38.7863,
        "longitude":-77.2977,
        "state_name":"Virginia"
    },
    {
        "storeNo":"0346",
        "name":"Giant",
        "street":"5316 New Design Road",
        "city":"Frederick",
        "state":"MD",
        "zip":"21701",
        "date_opened":"2006-10-01",
        "latitude":39.3792,
        "longitude":-77.4212,
        "state_name":"Maryland"
    },
    {
        "storeNo":"0337",
        "name":"Giant",
        "street":"6620 Reisterstown Road",
        "city":"Baltimore",
        "state":"MD",
        "zip":"21215",
        "date_opened":"2006-10-01",
        "latitude":39.3583,
        "longitude":-76.7052,
        "state_name":"Maryland"
    },
    {
        "storeNo":"0763",
        "name":"Giant",
        "street":"359 Maple Avenue East",
        "city":"Vienna",
        "state":"VA",
        "zip":"22180",
        "date_opened":"2006-10-01",
        "latitude":38.9062,
        "longitude":-77.2594,
        "state_name":"Virginia"
    },
    {
        "storeNo":"0780",
        "name":"Giant",
        "street":"3480 S. Jefferson St.",
        "city":"Falls Church",
        "state":"VA",
        "zip":"22041",
        "date_opened":"2006-10-01",
        "latitude":38.8498,
        "longitude":-77.1178,
        "state_name":"Virginia"
    },
    {
        "storeNo":"0741",
        "name":"Giant",
        "street":"5469 Mapledale Plaza",
        "city":"Dale City",
        "state":"VA",
        "zip":"22193",
        "date_opened":"2006-10-01",
        "latitude":38.6617,
        "longitude":-77.3668,
        "state_name":"Virginia"
    },
    {
        "storeNo":"0144",
        "name":"Giant",
        "street":"7920-30 Belair Road",
        "city":"Baltimore",
        "state":"MD",
        "zip":"21236",
        "date_opened":"2006-10-01",
        "latitude":39.3732,
        "longitude":-76.5099,
        "state_name":"Maryland"
    },
    {
        "storeNo":"0790",
        "name":"Giant",
        "street":"5581 Merchants View Square",
        "city":"Haymarket",
        "state":"VA",
        "zip":"20169",
        "date_opened":"2006-10-01",
        "latitude":38.8438,
        "longitude":-77.6408,
        "state_name":"Virginia"
    },
    {
        "storeNo":"2381",
        "name":"Giant",
        "street":"300 H Street NE",
        "city":"Washington",
        "state":"DC",
        "zip":"20002",
        "date_opened":"2013-05-03",
        "latitude":38.9003,
        "longitude":-77.0019,
        "state_name":null
    },
    {
        "storeNo":"2742",
        "name":"Giant",
        "street":"621 East Glebe Road",
        "city":"Alexandria",
        "state":"VA",
        "zip":"22305",
        "date_opened":"2015-09-04",
        "latitude":38.8324,
        "longitude":-77.0517,
        "state_name":"Virginia"
    },
    {
        "storeNo":"0326",
        "name":"Giant",
        "street":"10501 Greenbelt Rd.",
        "city":"Lanham",
        "state":"MD",
        "zip":"20706",
        "date_opened":"2006-10-01",
        "latitude":38.9899,
        "longitude":-76.8236,
        "state_name":"Maryland"
    },
    {
        "storeNo":"0140",
        "name":"Giant",
        "street":"5815 Eastern Avenue",
        "city":"Hyattsville",
        "state":"MD",
        "zip":"20782",
        "date_opened":"2006-10-01",
        "latitude":38.9597,
        "longitude":-76.9948,
        "state_name":"Maryland"
    },
    {
        "storeNo":"0146",
        "name":"Giant",
        "street":"655 Solomon's Island Rd. North",
        "city":"Prince Frederick",
        "state":"MD",
        "zip":"20678",
        "date_opened":"2006-10-01",
        "latitude":38.5442,
        "longitude":-76.5888,
        "state_name":"Maryland"
    },
    {
        "storeNo":"0251",
        "name":"Giant",
        "street":"1900 Abbey Road",
        "city":"Charlottesville",
        "state":"VA",
        "zip":"22911",
        "date_opened":"2006-10-01",
        "latitude":38.0297,
        "longitude":-78.444,
        "state_name":"Virginia"
    },
    {
        "storeNo":"0161",
        "name":"Giant",
        "street":"16837 Crabbs Branch Way",
        "city":"Derwood",
        "state":"MD",
        "zip":"20855",
        "date_opened":"2006-10-01",
        "latitude":39.1307,
        "longitude":-77.1686,
        "state_name":"Maryland"
    },
    {
        "storeNo":"2741",
        "name":"Giant",
        "street":"10653 Braddock Road",
        "city":"Fairfax",
        "state":"VA",
        "zip":"22032",
        "date_opened":"2017-02-09",
        "latitude":38.8276,
        "longitude":-77.3164,
        "state_name":"Virginia"
    },
    {
        "storeNo":"2351",
        "name":"Giant",
        "street":"25939 John J. Williams Hwy",
        "city":"Long Neck",
        "state":"DE",
        "zip":"19966",
        "date_opened":"2009-08-06",
        "latitude":38.6064,
        "longitude":-75.2117,
        "state_name":"Delaware"
    },
    {
        "storeNo":"0347",
        "name":"Giant",
        "street":"10480 Campus Way South",
        "city":"Largo",
        "state":"MD",
        "zip":"20774",
        "date_opened":"2006-10-01",
        "latitude":38.8936,
        "longitude":-76.8233,
        "state_name":"Maryland"
    },
    {
        "storeNo":"0322",
        "name":"Giant",
        "street":"11604 Reisterstown Road",
        "city":"Reisterstown",
        "state":"MD",
        "zip":"21136",
        "date_opened":"2011-03-23",
        "latitude":39.4432,
        "longitude":-76.8095,
        "state_name":"Maryland"
    },
    {
        "storeNo":"0159",
        "name":"Giant",
        "street":"3757 Old Court Rd.",
        "city":"Pikesville",
        "state":"MD",
        "zip":"21208",
        "date_opened":"2006-10-01",
        "latitude":39.3787,
        "longitude":-76.7251,
        "state_name":"Maryland"
    },
    {
        "storeNo":"0324",
        "name":"Giant",
        "street":"4315 Mountain Rd.",
        "city":"Pasadena",
        "state":"MD",
        "zip":"21122",
        "date_opened":"2008-02-06",
        "latitude":39.1202,
        "longitude":-76.512,
        "state_name":"Maryland"
    },
    {
        "storeNo":"0237",
        "name":"Giant",
        "street":"25050 Riding Plaza Suite 100",
        "city":"Chantilly",
        "state":"VA",
        "zip":"20152",
        "date_opened":"2006-10-01",
        "latitude":38.9247,
        "longitude":-77.5206,
        "state_name":"Virginia"
    },
    {
        "storeNo":"0745",
        "name":"Giant",
        "street":"13043 Lee Jackson Mem. Hwy",
        "city":"Fairfax",
        "state":"VA",
        "zip":"22033",
        "date_opened":"2006-10-01",
        "latitude":38.8808,
        "longitude":-77.3976,
        "state_name":"Virginia"
    },
    {
        "storeNo":"0197",
        "name":"Giant",
        "street":"7944 Honeygo Blvd.",
        "city":"Baltimore",
        "state":"MD",
        "zip":"21236",
        "date_opened":"2006-10-01",
        "latitude":39.373,
        "longitude":-76.472,
        "state_name":"Maryland"
    },
    {
        "storeNo":"2313",
        "name":"Giant",
        "street":"5320 Zenith Overlook",
        "city":"Bethesda",
        "state":"MD",
        "zip":"20816",
        "date_opened":"2006-10-01",
        "latitude":38.9577,
        "longitude":-77.1147,
        "state_name":"Maryland"
    },
    {
        "storeNo":"0762",
        "name":"Giant",
        "street":"21800 Town Center Plaza - #226",
        "city":"Sterling",
        "state":"VA",
        "zip":"20164",
        "date_opened":"2006-10-01",
        "latitude":39.0145,
        "longitude":-77.3721,
        "state_name":"Virginia"
    },
    {
        "storeNo":"2306",
        "name":"Super Giant",
        "street":"1020 W 41st Street",
        "city":"Baltimore",
        "state":"MD",
        "zip":"21211",
        "date_opened":"2012-03-30",
        "latitude":39.3383,
        "longitude":-76.6353,
        "state_name":"Maryland"
    },
    {
        "storeNo":"0320",
        "name":"Giant",
        "street":"229 Kentlands Blvd.",
        "city":"Gaithersburg",
        "state":"MD",
        "zip":"20878",
        "date_opened":"2006-10-01",
        "latitude":39.1233,
        "longitude":-77.2366,
        "state_name":"Maryland"
    },
    {
        "storeNo":"0353",
        "name":"Giant",
        "street":"8100 Loch Raven Blvd.",
        "city":"Towson",
        "state":"MD",
        "zip":"21286",
        "date_opened":"2006-10-01",
        "latitude":39.3886,
        "longitude":-76.5719,
        "state_name":"Maryland"
    },
    {
        "storeNo":"0330",
        "name":"Giant",
        "street":"3500 N.W. Crain Hwy",
        "city":"Bowie",
        "state":"MD",
        "zip":"20716",
        "date_opened":"2006-10-01",
        "latitude":38.9339,
        "longitude":-76.7178,
        "state_name":"Maryland"
    },
    {
        "storeNo":"0169",
        "name":"Giant",
        "street":"13060 Middlebrook Rd.",
        "city":"Germantown",
        "state":"MD",
        "zip":"20874",
        "date_opened":"2006-10-01",
        "latitude":39.1835,
        "longitude":-77.272,
        "state_name":"Maryland"
    },
    {
        "storeNo":"0257",
        "name":"Giant",
        "street":"7575 Linton Hall Road",
        "city":"Gainesville",
        "state":"VA",
        "zip":"20155",
        "date_opened":"2006-10-01",
        "latitude":38.7929,
        "longitude":-77.6098,
        "state_name":"Virginia"
    },
    {
        "storeNo":"0747",
        "name":"Giant",
        "street":"1450 North Point Village Ctr.",
        "city":"Reston",
        "state":"VA",
        "zip":"20194",
        "date_opened":"2006-10-01",
        "latitude":38.9791,
        "longitude":-77.3499,
        "state_name":"Virginia"
    },
    {
        "storeNo":"0338",
        "name":"Giant",
        "street":"7025 Berry Road",
        "city":"Accokeek",
        "state":"MD",
        "zip":"20607",
        "date_opened":"2006-10-01",
        "latitude":38.6804,
        "longitude":-76.9773,
        "state_name":"Maryland"
    },
    {
        "storeNo":"0348",
        "name":"Giant",
        "street":"6050 Daybreak Circle",
        "city":"Clarksville",
        "state":"MD",
        "zip":"21029",
        "date_opened":"2006-10-01",
        "latitude":39.2105,
        "longitude":-76.9375,
        "state_name":"Maryland"
    },
    {
        "storeNo":"2312",
        "name":"Giant",
        "street":"6636 N Ritchie Highway",
        "city":"Glen Burnie",
        "state":"MD",
        "zip":"21061",
        "date_opened":"2017-10-25",
        "latitude":39.1972,
        "longitude":-76.616,
        "state_name":"Maryland"
    },
    {
        "storeNo":"2317",
        "name":"Giant",
        "street":"18140 Village Mart Drive",
        "city":"Olney",
        "state":"MD",
        "zip":"20832",
        "date_opened":"2019-04-12",
        "latitude":39.1532,
        "longitude":-77.0648,
        "state_name":"Maryland"
    },
    {
        "storeNo":"0229",
        "name":"Giant",
        "street":"8074 Rolling Road",
        "city":"Springfield",
        "state":"VA",
        "zip":"22153",
        "date_opened":"2008-05-18",
        "latitude":38.7394,
        "longitude":-77.2114,
        "state_name":"Virginia"
    },
    {
        "storeNo":"0111",
        "name":"Giant",
        "street":"6480 Freetown Rd.",
        "city":"Columbia",
        "state":"MD",
        "zip":"21044",
        "date_opened":"2006-10-01",
        "latitude":39.1953,
        "longitude":-76.8813,
        "state_name":"Maryland"
    },
    {
        "storeNo":"0344",
        "name":"Giant",
        "street":"6020 Marshalee Drive",
        "city":"Elkridge",
        "state":"MD",
        "zip":"21075",
        "date_opened":"2006-10-01",
        "latitude":39.2098,
        "longitude":-76.778,
        "state_name":"Maryland"
    },
    {
        "storeNo":"0753",
        "name":"Giant",
        "street":"2551 John Milton Dr.",
        "city":"Herndon",
        "state":"VA",
        "zip":"20171",
        "date_opened":"2006-10-01",
        "latitude":38.9279,
        "longitude":-77.3764,
        "state_name":"Virginia"
    },
    {
        "storeNo":"0350",
        "name":"Giant",
        "street":"11221 New Hampshire Ave.",
        "city":"Silver Spring",
        "state":"MD",
        "zip":"20904",
        "date_opened":"2006-10-01",
        "latitude":39.0409,
        "longitude":-76.9906,
        "state_name":"Maryland"
    },
    {
        "storeNo":"0196",
        "name":"Giant",
        "street":"20044 Goshen Rd.",
        "city":"Gaithersburg",
        "state":"MD",
        "zip":"20879",
        "date_opened":"2006-10-01",
        "latitude":39.1737,
        "longitude":-77.1894,
        "state_name":"Maryland"
    },
    {
        "storeNo":"0789",
        "name":"Giant",
        "street":"35 Town and Country Rd.",
        "city":"Falmouth",
        "state":"VA",
        "zip":"22405",
        "date_opened":"2009-06-12",
        "latitude":38.3093,
        "longitude":-77.4272,
        "state_name":"Virginia"
    },
    {
        "storeNo":"0343",
        "name":"Giant",
        "street":"11740 Rousby Hall Road",
        "city":"Lusby",
        "state":"MD",
        "zip":"20657",
        "date_opened":"2009-02-20",
        "latitude":38.3732,
        "longitude":-76.4428,
        "state_name":"Maryland"
    },
    {
        "storeNo":"2333",
        "name":"Giant",
        "street":"857 East Fort Avenue",
        "city":"Baltimore",
        "state":"MD",
        "zip":"21230",
        "date_opened":"2022-11-11",
        "latitude":39.2705,
        "longitude":-76.6038,
        "state_name":"Maryland"
    },
    {
        "storeNo":"0310",
        "name":"Giant",
        "street":"15520 Annapolis Road",
        "city":"Bowie",
        "state":"MD",
        "zip":"20715",
        "date_opened":"2006-10-01",
        "latitude":38.9798,
        "longitude":-76.734,
        "state_name":"Maryland"
    },
    {
        "storeNo":"2743",
        "name":"Giant",
        "street":"8970 Burke Lake Road",
        "city":"Springfield",
        "state":"VA",
        "zip":"22151",
        "date_opened":"2015-06-19",
        "latitude":38.8098,
        "longitude":-77.254,
        "state_name":"Virginia"
    },
    {
        "storeNo":"0368",
        "name":"Giant",
        "street":"842 Muddy Branch Rd.",
        "city":"Gaithersburg",
        "state":"MD",
        "zip":"20878",
        "date_opened":"2006-10-01",
        "latitude":39.1132,
        "longitude":-77.2162,
        "state_name":"Maryland"
    },
    {
        "storeNo":"0317",
        "name":"Giant",
        "street":"4624 Edmondson Avenue",
        "city":"Baltimore",
        "state":"MD",
        "zip":"21229",
        "date_opened":"2006-10-01",
        "latitude":39.2936,
        "longitude":-76.6953,
        "state_name":"Maryland"
    },
    {
        "storeNo":"0385",
        "name":"Giant",
        "street":"300 Eden Square SC.",
        "city":"Bear",
        "state":"DE",
        "zip":"19701",
        "date_opened":"2006-10-01",
        "latitude":39.6341,
        "longitude":-75.6555,
        "state_name":"Delaware"
    },
    {
        "storeNo":"0765",
        "name":"Giant",
        "street":"1230 W. Broad St.",
        "city":"Falls Church",
        "state":"VA",
        "zip":"22046",
        "date_opened":"2006-10-01",
        "latitude":38.8948,
        "longitude":-77.1891,
        "state_name":"Virginia"
    },
    {
        "storeNo":"0758",
        "name":"Giant",
        "street":"1454 Chain Bridge Rd.",
        "city":"McLean",
        "state":"VA",
        "zip":"22101",
        "date_opened":"2006-10-01",
        "latitude":38.9323,
        "longitude":-77.1795,
        "state_name":"Virginia"
    },
    {
        "storeNo":"0797",
        "name":"Giant",
        "street":"44110 Ashburn Shopping Plz",
        "city":"Ashburn",
        "state":"VA",
        "zip":"20147",
        "date_opened":"2006-10-01",
        "latitude":39.0436,
        "longitude":-77.4744,
        "state_name":"Virginia"
    },
    {
        "storeNo":"2747",
        "name":"Giant",
        "street":"6200 Little River Turnpike",
        "city":"Alexandria",
        "state":"VA",
        "zip":"22312",
        "date_opened":"2018-11-16",
        "latitude":38.8208,
        "longitude":-77.155,
        "state_name":"Virginia"
    },
    {
        "storeNo":"0354",
        "name":"Giant",
        "street":"1280 East West Hwy.",
        "city":"Silver Spring",
        "state":"MD",
        "zip":"20910",
        "date_opened":"2006-10-01",
        "latitude":38.9914,
        "longitude":-77.0303,
        "state_name":"Maryland"
    },
    {
        "storeNo":"0315",
        "name":"Giant",
        "street":"7546 Annapolis Rd.",
        "city":"Lanham",
        "state":"MD",
        "zip":"20784",
        "date_opened":"2006-10-01",
        "latitude":38.9508,
        "longitude":-76.8861,
        "state_name":"Maryland"
    },
    {
        "storeNo":"0106",
        "name":"Giant",
        "street":"7919 Tuckerman La.",
        "city":"Potomac",
        "state":"MD",
        "zip":"20854",
        "date_opened":"2006-10-01",
        "latitude":39.0409,
        "longitude":-77.1598,
        "state_name":"Maryland"
    },
    {
        "storeNo":"0340",
        "name":"Giant",
        "street":"1009 Fairlawn St.",
        "city":"Laurel",
        "state":"MD",
        "zip":"20707",
        "date_opened":"2006-10-01",
        "latitude":39.0968,
        "longitude":-76.8554,
        "state_name":"Maryland"
    },
    {
        "storeNo":"0774",
        "name":"Penrose Sq. Giant",
        "street":"2501 9th Road South",
        "city":"Arlington",
        "state":"VA",
        "zip":"22204",
        "date_opened":"2011-06-24",
        "latitude":38.8641,
        "longitude":-77.0845,
        "state_name":"Virginia"
    },
    {
        "storeNo":"0743",
        "name":"Giant",
        "street":"3450 Washington Blvd.",
        "city":"Arlington",
        "state":"VA",
        "zip":"22201",
        "date_opened":"2006-10-01",
        "latitude":38.8856,
        "longitude":-77.1031,
        "state_name":"Virginia"
    },
    {
        "storeNo":"0235",
        "name":"Giant",
        "street":"5701 Plank Road",
        "city":"Fredericksburg",
        "state":"VA",
        "zip":"22407",
        "date_opened":"2009-07-16",
        "latitude":38.2916,
        "longitude":-77.568,
        "state_name":"Virginia"
    },
    {
        "storeNo":"0249",
        "name":"Giant",
        "street":"6980 Braddock Road",
        "city":"Annandale",
        "state":"VA",
        "zip":"22003",
        "date_opened":"2006-10-01",
        "latitude":38.8119,
        "longitude":-77.1862,
        "state_name":"Virginia"
    },
    {
        "storeNo":"0358",
        "name":"Giant",
        "street":"573 Gov. Ritchie Hwy.",
        "city":"Severna Park",
        "state":"MD",
        "zip":"21146",
        "date_opened":"2006-10-01",
        "latitude":39.076,
        "longitude":-76.5443,
        "state_name":"Maryland"
    },
    {
        "storeNo":"0327",
        "name":"Giant",
        "street":"7142 Arlington Road",
        "city":"Bethesda",
        "state":"MD",
        "zip":"20814",
        "date_opened":"2006-10-01",
        "latitude":38.9814,
        "longitude":-77.0985,
        "state_name":"Maryland"
    },
    {
        "storeNo":"0791",
        "name":"Giant",
        "street":"43670 Greenway Corp. Drive",
        "city":"Ashburn",
        "state":"VA",
        "zip":"20147",
        "date_opened":"2006-10-01",
        "latitude":39.0087,
        "longitude":-77.4914,
        "state_name":"Virginia"
    },
    {
        "storeNo":"0132",
        "name":"Giant",
        "street":"10400 Old Georgetown Rd.",
        "city":"Bethesda",
        "state":"MD",
        "zip":"20814",
        "date_opened":"2006-10-01",
        "latitude":39.0287,
        "longitude":-77.1266,
        "state_name":"Maryland"
    },
    {
        "storeNo":"0308",
        "name":"Super Giant",
        "street":"13 Lee Airpark Drive",
        "city":"Edgewater",
        "state":"MD",
        "zip":"21037",
        "date_opened":"2010-11-11",
        "latitude":38.9446,
        "longitude":-76.5619,
        "state_name":"Maryland"
    },
    {
        "storeNo":"2301",
        "name":"Super Giant",
        "street":"15618 Columbia Pike",
        "city":"Burtonsville",
        "state":"MD",
        "zip":"20866",
        "date_opened":"2010-11-13",
        "latitude":39.1148,
        "longitude":-76.932,
        "state_name":"Maryland"
    },
    {
        "storeNo":"0323",
        "name":"Giant",
        "street":"8223 Elliott Road",
        "city":"Easton",
        "state":"MD",
        "zip":"21601",
        "date_opened":"2006-10-01",
        "latitude":38.7743,
        "longitude":-76.0571,
        "state_name":"Maryland"
    },
    {
        "storeNo":"0125",
        "name":"Giant",
        "street":"12051 Rockville Pike",
        "city":"Rockville",
        "state":"MD",
        "zip":"20852",
        "date_opened":"2006-10-01",
        "latitude":39.0547,
        "longitude":-77.1178,
        "state_name":"Maryland"
    },
    {
        "storeNo":"0389",
        "name":"Giant",
        "street":"38069 Town Center Drive Unit 9",
        "city":"Millville",
        "state":"DE",
        "zip":"19967",
        "date_opened":"2006-10-01",
        "latitude":38.5457,
        "longitude":-75.1072,
        "state_name":"Delaware"
    },
    {
        "storeNo":"2379",
        "name":"Giant",
        "street":"3336 Wisconsin Ave NW",
        "city":"Washington",
        "state":"DC",
        "zip":"20016",
        "date_opened":"2014-11-07",
        "latitude":38.9343,
        "longitude":-77.0736,
        "state_name":null
    },
    {
        "storeNo":"2310",
        "name":"Giant",
        "street":"9200 Baltimore National Pike",
        "city":"Ellicott City",
        "state":"MD",
        "zip":"21043",
        "date_opened":"2016-05-20",
        "latitude":39.279,
        "longitude":-76.8312,
        "state_name":"Maryland"
    },
    {
        "storeNo":"0316",
        "name":"Giant",
        "street":"6000 Greenbelt Rd.",
        "city":"Greenbelt",
        "state":"MD",
        "zip":"20770",
        "date_opened":"2006-10-01",
        "latitude":38.9981,
        "longitude":-76.912,
        "state_name":"Maryland"
    },
    {
        "storeNo":"0227",
        "name":"Giant",
        "street":"10100 Dumfries Road",
        "city":"Manassas",
        "state":"VA",
        "zip":"20110",
        "date_opened":"2006-10-01",
        "latitude":38.7375,
        "longitude":-77.4728,
        "state_name":"Virginia"
    }
]